timestamp,roll_body,pitch_body,yaw_body,yaw_sp_move_rate,q_d0,q_d1,q_d2,q_d3,thrust,landing_gear,q_d_valid,roll_reset_integral,pitch_reset_integral,yaw_reset_integral,fw_control_yaw,disable_mc_yaw_control,apply_flaps,basestation,flight_number
59470513,0.0,0.0,0.0,0.0,0.0,0.0,0.0,0.0,0.12,0.0,0,0,0,0,0,0,0,2203,224c2092-44e1-4b73-879c-d0ad0c4b4c87
59569654,0.0,0.0,0.0,0.0,0.0,0.0,0.0,0.0,0.12,0.0,0,0,0,0,0,0,0,2203,224c2092-44e1-4b73-879c-d0ad0c4b4c87
59670479,0.0,0.0,0.0,0.0,0.0,0.0,0.0,0.0,0.12,0.0,0,0,0,0,0,0,0,2203,224c2092-44e1-4b73-879c-d0ad0c4b4c87
59769604,0.0,0.0,0.0,0.0,0.0,0.0,0.0,0.0,0.12,0.0,0,0,0,0,0,0,0,2203,224c2092-44e1-4b73-879c-d0ad0c4b4c87
59870469,0.0,0.0,0.0,0.0,0.0,0.0,0.0,0.0,0.12,0.0,0,0,0,0,0,0,0,2203,224c2092-44e1-4b73-879c-d0ad0c4b4c87
59969768,0.0,0.0,0.0,0.0,0.0,0.0,0.0,0.0,0.12,0.0,0,0,0,0,0,0,0,2203,224c2092-44e1-4b73-879c-d0ad0c4b4c87
60070658,0.0,0.0,0.0,0.0,0.0,0.0,0.0,0.0,0.12,0.0,0,0,0,0,0,0,0,2203,224c2092-44e1-4b73-879c-d0ad0c4b4c87
60174196,0.0,0.0,0.0,0.0,0.0,0.0,0.0,0.0,0.12,0.0,0,0,0,0,0,0,0,2203,224c2092-44e1-4b73-879c-d0ad0c4b4c87
60270623,0.0,0.0,0.0,0.0,0.0,0.0,0.0,0.0,0.12,0.0,0,0,0,0,0,0,0,2203,224c2092-44e1-4b73-879c-d0ad0c4b4c87
60369761,0.0,0.0,0.0,0.0,0.0,0.0,0.0,0.0,0.12,0.0,0,0,0,0,0,0,0,2203,224c2092-44e1-4b73-879c-d0ad0c4b4c87
60473605,0.0,0.0,0.0,0.0,0.0,0.0,0.0,0.0,0.12,0.0,0,0,0,0,0,0,0,2203,224c2092-44e1-4b73-879c-d0ad0c4b4c87
60569614,0.0,0.0,0.0,0.0,0.0,0.0,0.0,0.0,0.12,0.0,0,0,0,0,0,0,0,2203,224c2092-44e1-4b73-879c-d0ad0c4b4c87
60671498,0.0,0.0,0.0,0.0,0.0,0.0,0.0,0.0,0.12,0.0,0,0,0,0,0,0,0,2203,224c2092-44e1-4b73-879c-d0ad0c4b4c87
60769604,0.0,0.0,0.0,0.0,0.0,0.0,0.0,0.0,0.12,0.0,0,0,0,0,0,0,0,2203,224c2092-44e1-4b73-879c-d0ad0c4b4c87
60870505,0.0,0.0,0.0,0.0,0.0,0.0,0.0,0.0,0.12,0.0,0,0,0,0,0,0,0,2203,224c2092-44e1-4b73-879c-d0ad0c4b4c87
60970290,0.0,0.0,0.0,0.0,0.0,0.0,0.0,0.0,0.12,0.0,0,0,0,0,0,0,0,2203,224c2092-44e1-4b73-879c-d0ad0c4b4c87
61073912,0.0,0.0,0.0,0.0,0.0,0.0,0.0,0.0,0.12,0.0,0,0,0,0,0,0,0,2203,224c2092-44e1-4b73-879c-d0ad0c4b4c87
61171380,0.0,0.0,0.0,0.0,0.0,0.0,0.0,0.0,0.12,0.0,0,0,0,0,0,0,0,2203,224c2092-44e1-4b73-879c-d0ad0c4b4c87
61269569,0.0,0.0,0.0,0.0,0.0,0.0,0.0,0.0,0.12,0.0,0,0,0,0,0,0,0,2203,224c2092-44e1-4b73-879c-d0ad0c4b4c87
61369706,0.0,0.0,0.0,0.0,0.0,0.0,0.0,0.0,0.12,0.0,0,0,0,0,0,0,0,2203,224c2092-44e1-4b73-879c-d0ad0c4b4c87
61469553,0.0,0.0,0.0,0.0,0.0,0.0,0.0,0.0,0.12,0.0,0,0,0,0,0,0,0,2203,224c2092-44e1-4b73-879c-d0ad0c4b4c87
61571123,0.0,0.0,0.0,0.0,0.0,0.0,0.0,0.0,0.12,0.0,0,0,0,0,0,0,0,2203,224c2092-44e1-4b73-879c-d0ad0c4b4c87
61669585,0.0,0.0,0.0,0.0,0.0,0.0,0.0,0.0,0.12,0.0,0,0,0,0,0,0,0,2203,224c2092-44e1-4b73-879c-d0ad0c4b4c87
61771450,0.0,0.0,0.0,0.0,0.0,0.0,0.0,0.0,0.12,0.0,0,0,0,0,0,0,0,2203,224c2092-44e1-4b73-879c-d0ad0c4b4c87
61869801,0.0,0.0,0.0,0.0,0.0,0.0,0.0,0.0,0.12,0.0,0,0,0,0,0,0,0,2203,224c2092-44e1-4b73-879c-d0ad0c4b4c87
62069646,0.0,0.0,0.0,0.0,0.0,0.0,0.0,0.0,0.12,0.0,0,0,0,0,0,0,0,2203,224c2092-44e1-4b73-879c-d0ad0c4b4c87
62169526,0.0,0.0,0.0,0.0,0.0,0.0,0.0,0.0,0.12,0.0,0,0,0,0,0,0,0,2203,224c2092-44e1-4b73-879c-d0ad0c4b4c87
62270483,0.0,0.0,0.0,0.0,0.0,0.0,0.0,0.0,0.12,0.0,0,0,0,0,0,0,0,2203,224c2092-44e1-4b73-879c-d0ad0c4b4c87
62369931,0.0,0.0,0.0,0.0,0.0,0.0,0.0,0.0,0.12,0.0,0,0,0,0,0,0,0,2203,224c2092-44e1-4b73-879c-d0ad0c4b4c87
62470561,0.0,0.0,0.0,0.0,0.0,0.0,0.0,0.0,0.12,0.0,0,0,0,0,0,0,0,2203,224c2092-44e1-4b73-879c-d0ad0c4b4c87
62569831,0.0,0.0,0.0,0.0,0.0,0.0,0.0,0.0,0.12,0.0,0,0,0,0,0,0,0,2203,224c2092-44e1-4b73-879c-d0ad0c4b4c87
62670492,0.0,0.0,0.0,0.0,0.0,0.0,0.0,0.0,0.12,0.0,0,0,0,0,0,0,0,2203,224c2092-44e1-4b73-879c-d0ad0c4b4c87
62770291,0.0,0.0,0.0,0.0,0.0,0.0,0.0,0.0,0.12,0.0,0,0,0,0,0,0,0,2203,224c2092-44e1-4b73-879c-d0ad0c4b4c87
62870472,0.0,0.0,0.0,0.0,0.0,0.0,0.0,0.0,0.12,0.0,0,0,0,0,0,0,0,2203,224c2092-44e1-4b73-879c-d0ad0c4b4c87
62973045,0.0,0.0,0.0,0.0,0.0,0.0,0.0,0.0,0.12,0.0,0,0,0,0,0,0,0,2203,224c2092-44e1-4b73-879c-d0ad0c4b4c87
63070459,0.0,0.0,0.0,0.0,0.0,0.0,0.0,0.0,0.12,0.0,0,0,0,0,0,0,0,2203,224c2092-44e1-4b73-879c-d0ad0c4b4c87
63170305,0.0,0.0,0.0,0.0,0.0,0.0,0.0,0.0,0.12,0.0,0,0,0,0,0,0,0,2203,224c2092-44e1-4b73-879c-d0ad0c4b4c87
63269737,0.0,0.0,0.0,0.0,0.0,0.0,0.0,0.0,0.12,0.0,0,0,0,0,0,0,0,2203,224c2092-44e1-4b73-879c-d0ad0c4b4c87
63370318,0.0,0.0,0.0,0.0,0.0,0.0,0.0,0.0,0.12,0.0,0,0,0,0,0,0,0,2203,224c2092-44e1-4b73-879c-d0ad0c4b4c87
63469797,0.0,0.0,0.0,0.0,0.0,0.0,0.0,0.0,0.12,0.0,0,0,0,0,0,0,0,2203,224c2092-44e1-4b73-879c-d0ad0c4b4c87
63571001,0.0,0.0,0.0,0.0,0.0,0.0,0.0,0.0,0.12,0.0,0,0,0,0,0,0,0,2203,224c2092-44e1-4b73-879c-d0ad0c4b4c87
63669561,0.0,0.0,0.0,0.0,0.0,0.0,0.0,0.0,0.12,0.0,0,0,0,0,0,0,0,2203,224c2092-44e1-4b73-879c-d0ad0c4b4c87
63770346,0.0,0.0,0.0,0.0,0.0,0.0,0.0,0.0,0.12,0.0,0,0,0,0,0,0,0,2203,224c2092-44e1-4b73-879c-d0ad0c4b4c87
63970371,0.0,0.0,0.0,0.0,0.0,0.0,0.0,0.0,0.12,0.0,0,0,0,0,0,0,0,2203,224c2092-44e1-4b73-879c-d0ad0c4b4c87
64071482,0.0,0.0,0.0,0.0,0.0,0.0,0.0,0.0,0.12,0.0,0,0,0,0,0,0,0,2203,224c2092-44e1-4b73-879c-d0ad0c4b4c87
64170333,0.0,0.0,0.0,0.0,0.0,0.0,0.0,0.0,0.12,0.0,0,0,0,0,0,0,0,2203,224c2092-44e1-4b73-879c-d0ad0c4b4c87
64269534,0.0,0.0,0.0,0.0,0.0,0.0,0.0,0.0,0.12,0.0,0,0,0,0,0,0,0,2203,224c2092-44e1-4b73-879c-d0ad0c4b4c87
64372008,0.0,0.0,0.0,0.0,0.0,0.0,0.0,0.0,0.12,0.0,0,0,0,0,0,0,0,2203,224c2092-44e1-4b73-879c-d0ad0c4b4c87
64471217,0.0,0.0,0.0,0.0,0.0,0.0,0.0,0.0,0.12,0.0,0,0,0,0,0,0,0,2203,224c2092-44e1-4b73-879c-d0ad0c4b4c87
64572634,0.0,0.0,0.0,0.0,0.0,0.0,0.0,0.0,0.12,0.0,0,0,0,0,0,0,0,2203,224c2092-44e1-4b73-879c-d0ad0c4b4c87
64669550,0.0,0.0,0.0,0.0,0.0,0.0,0.0,0.0,0.12,0.0,0,0,0,0,0,0,0,2203,224c2092-44e1-4b73-879c-d0ad0c4b4c87
64772152,0.0,0.0,0.0,0.0,0.0,0.0,0.0,0.0,0.12,0.0,0,0,0,0,0,0,0,2203,224c2092-44e1-4b73-879c-d0ad0c4b4c87
64871234,0.0,0.0,0.0,0.0,0.0,0.0,0.0,0.0,0.12,0.0,0,0,0,0,0,0,0,2203,224c2092-44e1-4b73-879c-d0ad0c4b4c87
64973521,0.0,0.0,0.0,0.0,0.0,0.0,0.0,0.0,0.12,0.0,0,0,0,0,0,0,0,2203,224c2092-44e1-4b73-879c-d0ad0c4b4c87
65071180,0.0,0.0,0.0,0.0,0.0,0.0,0.0,0.0,0.12,0.0,0,0,0,0,0,0,0,2203,224c2092-44e1-4b73-879c-d0ad0c4b4c87
65169608,0.0,0.0,0.0,0.0,0.0,0.0,0.0,0.0,0.12,0.0,0,0,0,0,0,0,0,2203,224c2092-44e1-4b73-879c-d0ad0c4b4c87
65271063,0.0,0.0,0.0,0.0,0.0,0.0,0.0,0.0,0.12,0.0,0,0,0,0,0,0,0,2203,224c2092-44e1-4b73-879c-d0ad0c4b4c87
65372036,0.0,0.0,0.0,0.0,0.0,0.0,0.0,0.0,0.12,0.0,0,0,0,0,0,0,0,2203,224c2092-44e1-4b73-879c-d0ad0c4b4c87
65470466,0.0,0.0,0.0,0.0,0.0,0.0,0.0,0.0,0.12,0.0,0,0,0,0,0,0,0,2203,224c2092-44e1-4b73-879c-d0ad0c4b4c87
65570555,0.0,0.0,0.0,0.0,0.0,0.0,0.0,0.0,0.12,0.0,0,0,0,0,0,0,0,2203,224c2092-44e1-4b73-879c-d0ad0c4b4c87
65672809,0.0,0.0,0.0,0.0,0.0,0.0,0.0,0.0,0.12,0.0,0,0,0,0,0,0,0,2203,224c2092-44e1-4b73-879c-d0ad0c4b4c87
65800834,-0.006442727,-0.006768715,-1.572272,0.0,0.70656943,-0.004671,-0.000111808025,-0.7076283,0.5465003,-1.0,1,0,0,0,0,0,0,2203,224c2092-44e1-4b73-879c-d0ad0c4b4c87
65902133,0.003405964,-0.0063385824,-1.572272,0.0,0.70658416,-0.0010393781,-0.0034444379,-0.7076199,0.62565464,-1.0,1,0,0,0,0,0,0,2203,224c2092-44e1-4b73-879c-d0ad0c4b4c87
66000747,-0.015353707,-0.006561601,-1.572272,0.0,0.70654243,-0.007745781,0.0031141844,-0.7076215,0.6876338,-1.0,1,0,0,0,0,0,0,2203,224c2092-44e1-4b73-879c-d0ad0c4b4c87
66104770,-0.018494068,-0.0044722613,-1.572272,0.0,0.70653826,-0.008115986,0.0049634064,-0.7076109,0.71598655,-1.0,1,0,0,0,0,0,0,2203,224c2092-44e1-4b73-879c-d0ad0c4b4c87
66205528,-0.02190735,-0.007546729,-1.572272,0.0,0.7065082,-0.010409465,0.005084885,-0.70761,0.7391032,-1.0,1,0,0,0,0,0,0,2203,224c2092-44e1-4b73-879c-d0ad0c4b4c87
66304814,-0.025112372,-0.005205622,-1.572272,0.0,0.7065037,-0.0107134245,0.007045891,-0.70759314,0.72023016,-1.0,1,0,0,0,0,0,0,2203,224c2092-44e1-4b73-879c-d0ad0c4b4c87
66408930,-0.030538121,-0.009468109,-1.572272,0.0,0.7064434,-0.014137896,0.00745967,-0.707589,0.6847276,-1.0,1,0,0,0,0,0,0,2203,224c2092-44e1-4b73-879c-d0ad0c4b4c87
66510823,-0.036149003,-0.002302369,-1.572272,0.0,0.7064543,-0.0135849435,0.0119760465,-0.707527,0.67218465,-1.0,1,0,0,0,0,0,0,2203,224c2092-44e1-4b73-879c-d0ad0c4b4c87
66610498,-0.03637422,-0.0069229356,-1.572272,0.0,0.7064192,-0.015298974,0.010423516,-0.70755154,0.6592093,-1.0,1,0,0,0,0,0,0,2203,224c2092-44e1-4b73-879c-d0ad0c4b4c87
66714321,-0.043215983,-0.006110698,-1.572272,0.0,0.70636994,-0.017428163,0.013130808,-0.70750636,0.6545196,-1.0,1,0,0,0,0,0,0,2203,224c2092-44e1-4b73-879c-d0ad0c4b4c87
66815163,-0.043547235,-0.010594597,-1.572272,0.0,0.7063259,-0.019131089,0.0116641065,-0.70753217,0.64275366,-1.0,1,0,0,0,0,0,0,2203,224c2092-44e1-4b73-879c-d0ad0c4b4c87
66914568,-0.039386537,-0.011821891,-1.572272,0.0,0.7063532,-0.018095741,0.009758619,-0.707561,0.6408883,-1.0,1,0,0,0,0,0,0,2203,224c2092-44e1-4b73-879c-d0ad0c4b4c87
67018313,-0.053406306,-0.012542355,-1.572272,0.0,0.7062006,-0.023301484,0.01446378,-0.70748043,0.64069563,-1.0,1,0,0,0,0,0,0,2203,224c2092-44e1-4b73-879c-d0ad0c4b4c87
67119336,-0.043327004,-0.017562518,-1.572272,0.0,0.7062572,-0.021517646,0.0091247475,-0.7075695,0.6399869,-1.0,1,0,0,0,0,0,0,2203,224c2092-44e1-4b73-879c-d0ad0c4b4c87
67218359,-0.0486997,-0.010866506,-1.572272,0.0,0.70627135,-0.021046847,0.013390789,-0.7075016,0.6363971,-1.0,1,0,0,0,0,0,0,2203,224c2092-44e1-4b73-879c-d0ad0c4b4c87
67322367,-0.051517256,-0.014519245,-1.572272,0.0,0.7061995,-0.023333529,0.013097243,-0.7075071,0.63288546,-1.0,1,0,0,0,0,0,0,2203,224c2092-44e1-4b73-879c-d0ad0c4b4c87
67423077,-0.05003817,-0.00848186,-1.572272,0.0,0.7062823,-0.020676158,0.014706576,-0.7074755,0.6305171,-1.0,1,0,0,0,0,0,0,2203,224c2092-44e1-4b73-879c-d0ad0c4b4c87
67523983,-0.045520738,-0.009879544,-1.572272,0.0,0.7063137,-0.019575149,0.012614841,-0.70751584,0.630863,-1.0,1,0,0,0,0,0,0,2203,224c2092-44e1-4b73-879c-d0ad0c4b4c87
67624683,-0.045086283,-0.006260974,-1.572272,0.0,0.70635194,-0.01814187,0.013739346,-0.707495,0.63146347,-1.0,1,0,0,0,0,0,0,2203,224c2092-44e1-4b73-879c-d0ad0c4b4c87
67728620,-0.037631504,-0.0069490345,-1.572272,0.0,0.7064093,-0.015752288,0.010859092,-0.7075449,0.630417,-1.0,1,0,0,0,0,0,0,2203,224c2092-44e1-4b73-879c-d0ad0c4b4c87
67828004,-0.033228453,-0.005290937,-1.572272,0.0,0.7064538,-0.013610528,0.009887128,-0.7075592,0.63116866,-1.0,1,0,0,0,0,0,0,2203,224c2092-44e1-4b73-879c-d0ad0c4b4c87
67931995,-0.027923085,-0.007724141,-1.572272,0.0,0.70647264,-0.012597258,0.00715058,-0.70759207,0.6309503,-1.0,1,0,0,0,0,0,0,2203,224c2092-44e1-4b73-879c-d0ad0c4b4c87
68033132,-0.023170523,-0.004454755,-1.572272,0.0,0.70651746,-0.009761817,0.0066241315,-0.70759726,0.6314723,-1.0,1,0,0,0,0,0,0,2203,224c2092-44e1-4b73-879c-d0ad0c4b4c87
68131957,-0.020866962,-0.002800805,-1.572272,0.0,0.7065354,-0.008362909,0.0063934363,-0.70759934,0.6321215,-1.0,1,0,0,0,0,0,0,2203,224c2092-44e1-4b73-879c-d0ad0c4b4c87
68235933,-0.015913634,-0.0041757375,-1.572272,0.0,0.7065492,-0.007099482,0.0041551883,-0.7076161,0.6311204,-1.0,1,0,0,0,0,0,0,2203,224c2092-44e1-4b73-879c-d0ad0c4b4c87
68336252,-0.015975462,-0.0019117602,-1.572272,0.0,0.7065566,-0.006320334,0.004976894,-0.70761085,0.6311506,-1.0,1,0,0,0,0,0,0,2203,224c2092-44e1-4b73-879c-d0ad0c4b4c87
68435954,-0.013505456,-0.0010501352,-1.572272,0.0,0.70656615,-0.0051428825,0.004407388,-0.70761454,0.6311108,-1.0,1,0,0,0,0,0,0,2203,224c2092-44e1-4b73-879c-d0ad0c4b4c87
68538286,-0.011939334,-0.0002995883,-1.572272,0.0,0.70657164,-0.0043240483,0.0041184393,-0.7076163,0.6313826,-1.0,1,0,0,0,0,0,0,2203,224c2092-44e1-4b73-879c-d0ad0c4b4c87
68642351,-0.01610201,-0.00030705647,-1.572272,0.0,0.7065611,-0.0057972935,0.005588579,-0.7076062,0.63225424,-1.0,1,0,0,0,0,0,0,2203,224c2092-44e1-4b73-879c-d0ad0c4b4c87
68741538,-0.014200186,0.0019000096,-1.572272,0.0,0.7065715,-0.004344541,0.0056954245,-0.70760536,0.6330552,-1.0,1,0,0,0,0,0,0,2203,224c2092-44e1-4b73-879c-d0ad0c4b4c87
68845605,-0.013864477,0.0013125286,-1.572272,0.0,0.706571,-0.004433795,0.005369103,-0.707608,0.6330033,-1.0,1,0,0,0,0,0,0,2203,224c2092-44e1-4b73-879c-d0ad0c4b4c87
68946516,-0.01703629,0.0038222922,-1.572272,0.0,0.7065695,-0.004666378,0.007377934,-0.7075898,0.63286346,-1.0,1,0,0,0,0,0,0,2203,224c2092-44e1-4b73-879c-d0ad0c4b4c87
69045559,-0.017646309,0.005685294,-1.572272,0.0,0.7065723,-0.0042227446,0.008251897,-0.70758015,0.6326045,-1.0,1,0,0,0,0,0,0,2203,224c2092-44e1-4b73-879c-d0ad0c4b4c87
69150024,-0.015331228,0.005774127,-1.572272,0.0,0.7065768,-0.0033734266,0.0074642217,-0.707589,0.631273,-1.0,1,0,0,0,0,0,0,2203,224c2092-44e1-4b73-879c-d0ad0c4b4c87
69249839,-0.015963396,0.006512026,-1.572272,0.0,0.706577,-0.003335688,0.007948558,-0.70758367,0.6324957,-1.0,1,0,0,0,0,0,0,2203,224c2092-44e1-4b73-879c-d0ad0c4b4c87
69349785,-0.0181821,0.0063596494,-1.572272,0.0,0.7065726,-0.0041734413,0.008679683,-0.707575,0.6330735,-1.0,1,0,0,0,0,0,0,2203,224c2092-44e1-4b73-879c-d0ad0c4b4c87
69453457,-0.014774928,0.0059595467,-1.572272,0.0,0.706578,-0.0031112884,0.00733291,-0.7075904,0.6319247,-1.0,1,0,0,0,0,0,0,2203,224c2092-44e1-4b73-879c-d0ad0c4b4c87
69555925,-0.016212827,0.0051543196,-1.572272,0.0,0.7065741,-0.0039041785,0.0075571663,-0.707588,0.63161695,-1.0,1,0,0,0,0,0,0,2203,224c2092-44e1-4b73-879c-d0ad0c4b4c87
69655372,-0.016769018,0.0057437946,-1.572272,0.0,0.7065742,-0.0038921116,0.007962187,-0.7075835,0.6324391,-1.0,1,0,0,0,0,0,0,2203,224c2092-44e1-4b73-879c-d0ad0c4b4c87
69759124,-0.0120379925,0.0027239984,-1.572272,0.0,0.70657724,-0.0032891303,0.0052215327,-0.70760894,0.631892,-1.0,1,0,0,0,0,0,0,2203,224c2092-44e1-4b73-879c-d0ad0c4b4c87
69859737,-0.011708567,0.00013932369,-1.572272,0.0,0.70657307,-0.0040872307,0.0041918536,-0.7076159,0.63260263,-1.0,1,0,0,0,0,0,0,2203,224c2092-44e1-4b73-879c-d0ad0c4b4c87
69959110,-0.011413529,-0.000897865,-1.572272,0.0,0.70657146,-0.0043499633,0.0037210414,-0.70761853,0.6326079,-1.0,1,0,0,0,0,0,0,2203,224c2092-44e1-4b73-879c-d0ad0c4b4c87
70063131,-0.0066181943,-0.0045268964,-1.572272,0.0,0.7065739,-0.0039398177,0.0007422922,-0.70762795,0.6323522,-1.0,1,0,0,0,0,0,0,2203,224c2092-44e1-4b73-879c-d0ad0c4b4c87
70163986,-0.0053429264,-0.0064052623,-1.572272,0.0,0.70657265,-0.0041538635,-0.00037252813,-0.70762825,0.63315886,-1.0,1,0,0,0,0,0,0,2203,224c2092-44e1-4b73-879c-d0ad0c4b4c87
70263127,-0.0040055024,-0.006477738,-1.572272,0.0,0.70657516,-0.0037070117,-0.0008713324,-0.7076278,0.6360162,-1.0,1,0,0,0,0,0,0,2203,224c2092-44e1-4b73-879c-d0ad0c4b4c87
70367024,-0.001149451,-0.009978687,-1.572272,0.0,0.7065739,-0.003936673,-0.003118693,-0.7076214,0.63796914,-1.0,1,0,0,0,0,0,0,2203,224c2092-44e1-4b73-879c-d0ad0c4b4c87
70468019,0.0010415231,-0.010016207,-1.572272,0.0,0.7065778,-0.0031759026,-0.0039071357,-0.70761746,0.6384792,-1.0,1,0,0,0,0,0,0,2203,224c2092-44e1-4b73-879c-d0ad0c4b4c87
70568831,0.00072509056,-0.010828245,-1.572272,0.0,0.7065759,-0.0035750023,-0.004082062,-0.7076165,0.63879055,-1.0,1,0,0,0,0,0,0,2203,224c2092-44e1-4b73-879c-d0ad0c4b4c87
70672917,0.0032220236,-0.014234663,-1.572272,0.0,0.7065742,-0.0038980884,-0.0061689178,-0.70760137,0.63833183,-1.0,1,0,0,0,0,0,0,2203,224c2092-44e1-4b73-879c-d0ad0c4b4c87
70773495,0.0019227978,-0.010266754,-1.572272,0.0,0.70657873,-0.0029532039,-0.0043074526,-0.70761514,0.6385809,-1.0,1,0,0,0,0,0,0,2203,224c2092-44e1-4b73-879c-d0ad0c4b4c87
70872729,0.0028820406,-0.00942687,-1.572272,0.0,0.7065811,-0.0023171525,-0.004350121,-0.70761496,0.63865364,-1.0,1,0,0,0,0,0,0,2203,224c2092-44e1-4b73-879c-d0ad0c4b4c87
70976700,0.0018825069,-0.010976831,-1.572272,0.0,0.7065776,-0.0032186715,-0.0045440574,-0.7076137,0.6383624,-1.0,1,0,0,0,0,0,0,2203,224c2092-44e1-4b73-879c-d0ad0c4b4c87
71077602,-0.0009248712,-0.008340957,-1.572272,0.0,0.7065773,-0.003277887,-0.0026195585,-0.7076234,0.6388961,-1.0,1,0,0,0,0,0,0,2203,224c2092-44e1-4b73-879c-d0ad0c4b4c87
71176793,-0.0021653639,-0.00893276,-1.572272,0.0,0.70657396,-0.0039255233,-0.0023897355,-0.7076243,0.6390511,-1.0,1,0,0,0,0,0,0,2203,224c2092-44e1-4b73-879c-d0ad0c4b4c87
71280741,-0.0032960384,-0.010748324,-1.572272,0.0,0.7065674,-0.0049673337,-0.0026311108,-0.7076234,0.63893646,-1.0,1,0,0,0,0,0,0,2203,224c2092-44e1-4b73-879c-d0ad0c4b4c87
71381602,-0.0053507574,-0.008646673,-1.572272,0.0,0.7065676,-0.004949657,-0.0011616297,-0.7076274,0.64057595,-1.0,1,0,0,0,0,0,0,2203,224c2092-44e1-4b73-879c-d0ad0c4b4c87
71481532,-0.008639018,-0.0065537104,-1.572272,0.0,0.7065645,-0.0053708437,0.0007412303,-0.7076279,0.6411098,-1.0,1,0,0,0,0,0,0,2203,224c2092-44e1-4b73-879c-d0ad0c4b4c87
71586363,-0.0062502697,-0.005968492,-1.572272,0.0,0.7065717,-0.0043198825,0.000102810576,-0.70762825,0.64097524,-1.0,1,0,0,0,0,0,0,2203,224c2092-44e1-4b73-879c-d0ad0c4b4c87
71687154,-0.010439875,-0.0050464827,-1.572272,0.0,0.70656365,-0.005473791,0.0019108887,-0.70762575,0.6417511,-1.0,1,0,0,0,0,0,0,2203,224c2092-44e1-4b73-879c-d0ad0c4b4c87
71786280,-0.011603469,-0.003189453,-1.572272,0.0,0.70656556,-0.0052278438,0.002978653,-0.707622,0.64196277,-1.0,1,0,0,0,0,0,0,2203,224c2092-44e1-4b73-879c-d0ad0c4b4c87
71890325,-0.011328979,4.1140138e-05,-1.572272,0.0,0.7065736,-0.0039878655,0.0040228656,-0.7076169,0.643683,-1.0,1,0,0,0,0,0,0,2203,224c2092-44e1-4b73-879c-d0ad0c4b4c87
71990976,-0.01275217,-0.0003239697,-1.572272,0.0,0.7065698,-0.0046198373,0.004397413,-0.70761466,0.6439714,-1.0,1,0,0,0,0,0,0,2203,224c2092-44e1-4b73-879c-d0ad0c4b4c87
72090354,-0.01224626,0.00063198654,-1.572272,0.0,0.70657295,-0.004102882,0.0045561446,-0.7076136,0.6445558,-1.0,1,0,0,0,0,0,0,2203,224c2092-44e1-4b73-879c-d0ad0c4b4c87
72194319,-0.014206495,0.00095253094,-1.572272,0.0,0.7065694,-0.0046819937,0.005362929,-0.707608,0.6459551,-1.0,1,0,0,0,0,0,0,2203,224c2092-44e1-4b73-879c-d0ad0c4b4c87
72295145,-0.015035823,0.0016546805,-1.572272,0.0,0.7065691,-0.004726558,0.0059044044,-0.7076037,0.6443466,-1.0,1,0,0,0,0,0,0,2203,224c2092-44e1-4b73-879c-d0ad0c4b4c87
72398628,-0.015403402,0.00045222367,-1.572272,0.0,0.70656514,-0.005281853,0.0056096497,-0.707606,0.64580035,-1.0,1,0,0,0,0,0,0,2203,224c2092-44e1-4b73-879c-d0ad0c4b4c87
72499892,-0.014994262,0.00037333378,-1.572272,0.0,0.706566,-0.005165223,0.0054370253,-0.7076074,0.64510334,-1.0,1,0,0,0,0,0,0,2203,224c2092-44e1-4b73-879c-d0ad0c4b4c87
72600281,-0.013712807,-1.2810063e-05,-1.572272,0.0,0.70656824,-0.004849125,0.004847221,-0.70761174,0.64464146,-1.0,1,0,0,0,0,0,0,2203,224c2092-44e1-4b73-879c-d0ad0c4b4c87
72699924,-0.012713259,0.0020894622,-1.572272,0.0,0.7065749,-0.0037521992,0.0052362746,-0.70760894,0.64501244,-1.0,1,0,0,0,0,0,0,2203,224c2092-44e1-4b73-879c-d0ad0c4b4c87
72803982,-0.011191595,-8.069203e-05,-1.572272,0.0,0.70657367,-0.003982435,0.003931217,-0.7076174,0.6435581,-1.0,1,0,0,0,0,0,0,2203,224c2092-44e1-4b73-879c-d0ad0c4b4c87
72905066,-0.009596085,-0.00017475206,-1.572272,0.0,0.70657647,-0.0034520405,0.0033334794,-0.70762044,0.6431774,-1.0,1,0,0,0,0,0,0,2203,224c2092-44e1-4b73-879c-d0ad0c4b4c87
73004032,-0.009377143,0.0020160677,-1.572272,0.0,0.7065801,-0.0025995548,0.0040300055,-0.7076169,0.64443284,-1.0,1,0,0,0,0,0,0,2203,224c2092-44e1-4b73-879c-d0ad0c4b4c87
73107943,-0.0048690564,0.0037964245,-1.572272,0.0,0.70658475,-0.00037697228,0.0030639798,-0.70762175,0.64674866,-1.0,1,0,0,0,0,0,0,2203,224c2092-44e1-4b73-879c-d0ad0c4b4c87
73209493,-0.0056987046,0.0059515308,-1.572272,0.0,0.7065849,9.242645e-05,0.0041188896,-0.7076163,0.6437597,-1.0,1,0,0,0,0,0,0,2203,224c2092-44e1-4b73-879c-d0ad0c4b4c87
73308119,-0.0066945,0.006529496,-1.572272,0.0,0.7065849,-5.4888216e-05,0.0046753963,-0.7076129,0.6417283,-1.0,1,0,0,0,0,0,0,2203,224c2092-44e1-4b73-879c-d0ad0c4b4c87
73411972,-0.007657955,0.008084446,-1.572272,0.0,0.7065849,0.00015489369,0.0055656093,-0.7076064,0.6414262,-1.0,1,0,0,0,0,0,0,2203,224c2092-44e1-4b73-879c-d0ad0c4b4c87
73513472,-0.0057937927,0.01003158,-1.572272,0.0,0.7065833,0.0015024105,0.0055939485,-0.7076062,0.6406309,-1.0,1,0,0,0,0,0,0,2203,224c2092-44e1-4b73-879c-d0ad0c4b4c87
73612766,-0.0071388087,0.010695631,-1.572272,0.0,0.7065838,0.0012621776,0.0063044135,-0.70760024,0.63979536,-1.0,1,0,0,0,0,0,0,2203,224c2092-44e1-4b73-879c-d0ad0c4b4c87
73716718,-0.0062602106,0.012276895,-1.572272,0.0,0.7065817,0.0021320507,0.006552192,-0.7075979,0.64076155,-1.0,1,0,0,0,0,0,0,2203,224c2092-44e1-4b73-879c-d0ad0c4b4c87
73817339,-0.006854121,0.0134523865,-1.572272,0.0,0.70658106,0.002338131,0.007177588,-0.70759183,0.64167684,-1.0,1,0,0,0,0,0,0,2203,224c2092-44e1-4b73-879c-d0ad0c4b4c87
73921679,-0.007679981,0.013447685,-1.572272,0.0,0.70658195,0.0020446987,0.0074681127,-0.7075889,0.6401373,-1.0,1,0,0,0,0,0,0,2203,224c2092-44e1-4b73-879c-d0ad0c4b4c87
74025349,-0.008210536,0.015039275,-1.572272,0.0,0.7065808,0.0024203828,0.008218081,-0.7075805,0.64128214,-1.0,1,0,0,0,0,0,0,2203,224c2092-44e1-4b73-879c-d0ad0c4b4c87
74124777,-0.008254625,0.014928138,-1.572272,0.0,0.706581,0.0023654855,0.008194418,-0.70758075,0.6420917,-1.0,1,0,0,0,0,0,0,2203,224c2092-44e1-4b73-879c-d0ad0c4b4c87
74228747,-0.010152843,0.016649114,-1.572272,0.0,0.7065812,0.0023037647,0.009473942,-0.7075649,0.64437026,-1.0,1,0,0,0,0,0,0,2203,224c2092-44e1-4b73-879c-d0ad0c4b4c87
74329421,-0.012631359,0.020804252,-1.572272,0.0,0.706579,0.0028982663,0.011818588,-0.70752954,0.6430507,-1.0,1,0,0,0,0,0,0,2203,224c2092-44e1-4b73-879c-d0ad0c4b4c87
74428694,-0.01029576,0.020569894,-1.572272,0.0,0.70657563,0.0036404883,0.010909541,-0.7075441,0.642982,-1.0,1,0,0,0,0,0,0,2203,224c2092-44e1-4b73-879c-d0ad0c4b4c87
74532760,-0.00888673,0.021327723,-1.572272,0.0,0.7065713,0.0044064065,0.010678767,-0.70754755,0.6427558,-1.0,1,0,0,0,0,0,0,2203,224c2092-44e1-4b73-879c-d0ad0c4b4c87
74633580,-0.007718604,0.023073887,-1.572272,0.0,0.7065641,0.0054368894,0.010882351,-0.70754445,0.64366907,-1.0,1,0,0,0,0,0,0,2203,224c2092-44e1-4b73-879c-d0ad0c4b4c87
74732784,-0.0067637702,0.025412856,-1.572272,0.0,0.70655423,0.0066017425,0.011370796,-0.70753676,0.62905353,-1.0,1,0,0,0,0,0,0,2203,224c2092-44e1-4b73-879c-d0ad0c4b4c87
74834729,-0.0054954453,0.025874337,-1.572272,0.0,0.7065482,0.0072130817,0.01108512,-0.70754135,0.59041584,-1.0,1,0,0,0,0,0,0,2203,224c2092-44e1-4b73-879c-d0ad0c4b4c87
74939257,-0.0022871967,0.027604818,-1.572272,0.0,0.7065283,0.008958686,0.010561422,-0.7075492,0.56874985,-1.0,1,0,0,0,0,0,0,2203,224c2092-44e1-4b73-879c-d0ad0c4b4c87
75038326,0.0020613018,0.02926129,-1.572272,0.0,0.7064982,0.011080847,0.009608178,-0.7075629,0.55721897,-1.0,1,0,0,0,0,0,0,2203,224c2092-44e1-4b73-879c-d0ad0c4b4c87
75142347,-0.0010687241,0.031908225,-1.572272,0.0,0.7065009,0.010911577,0.011650537,-0.7075321,0.55435956,-1.0,1,0,0,0,0,0,0,2203,224c2092-44e1-4b73-879c-d0ad0c4b4c87
75242977,-0.0019999284,0.027681615,-1.572272,0.0,0.70652664,0.009087339,0.010486923,-0.70755035,0.5523234,1.0,1,0,0,0,0,0,0,2203,224c2092-44e1-4b73-879c-d0ad0c4b4c87
75342414,0.005858088,0.025659528,-1.572272,0.0,0.70649713,0.01114786,0.0069925277,-0.7075935,0.55379385,1.0,1,0,0,0,0,0,0,2203,224c2092-44e1-4b73-879c-d0ad0c4b4c87
75446381,0.013781062,0.026106924,-1.572272,0.0,0.70644426,0.014104809,0.0043474175,-0.70761484,0.5604789,1.0,1,0,0,0,0,0,0,2203,224c2092-44e1-4b73-879c-d0ad0c4b4c87
75546677,0.0062330705,0.025875462,-1.572272,0.0,0.7064938,0.011356711,0.0069361455,-0.70759416,0.56531096,1.0,1,0,0,0,0,0,0,2203,224c2092-44e1-4b73-879c-d0ad0c4b4c87
75646283,0.0044599953,0.023695009,-1.572272,0.0,0.70651484,0.009958984,0.006793154,-0.7075955,0.5721686,1.0,1,0,0,0,0,0,0,2203,224c2092-44e1-4b73-879c-d0ad0c4b4c87
75750526,0.007253784,0.02550461,-1.572272,0.0,0.70649004,0.011586079,0.0064440058,-0.7075988,0.58139354,1.0,1,0,0,0,0,0,0,2203,224c2092-44e1-4b73-879c-d0ad0c4b4c87
75852540,0.009484657,0.023627648,-1.572272,0.0,0.70648795,0.011710119,0.0049916236,-0.70761067,0.5870013,1.0,1,0,0,0,0,0,0,2203,224c2092-44e1-4b73-879c-d0ad0c4b4c87
75952176,0.006328318,0.023905745,-1.572272,0.0,0.7065041,0.01069353,0.0062065916,-0.70760095,0.59270924,1.0,1,0,0,0,0,0,0,2203,224c2092-44e1-4b73-879c-d0ad0c4b4c87
76056558,0.0028185172,0.025972174,-1.572272,0.0,0.7065117,0.010184732,0.008178359,-0.7075809,0.59658664,1.0,1,0,0,0,0,0,0,2203,224c2092-44e1-4b73-879c-d0ad0c4b4c87
76156849,0.0032771253,0.026118362,-1.572272,0.0,0.7065085,0.010398454,0.008067752,-0.70758224,0.5993859,1.0,1,0,0,0,0,0,0,2203,224c2092-44e1-4b73-879c-d0ad0c4b4c87
76256216,0.2318881,0.15866266,-1.572272,0.0,0.69314617,0.13718553,-0.025984548,-0.70714444,0.6493579,1.0,1,0,0,0,0,0,0,2203,224c2092-44e1-4b73-879c-d0ad0c4b4c87
76360138,0.17331456,0.12360313,-1.572272,0.0,0.698807,0.10457807,-0.017651007,-0.70740414,0.70991606,1.0,1,0,0,0,0,0,0,2203,224c2092-44e1-4b73-879c-d0ad0c4b4c87
76460679,0.13381699,0.09629859,-1.572272,0.0,0.7019097,0.08116896,-0.013323874,-0.70750034,0.864352,1.0,1,0,0,0,0,0,0,2203,224c2092-44e1-4b73-879c-d0ad0c4b4c87
76560188,0.09208099,0.07251187,-1.572272,0.0,0.70419174,0.05812158,-0.006961505,-0.7075928,0.8190274,1.0,1,0,0,0,0,0,0,2203,224c2092-44e1-4b73-879c-d0ad0c4b4c87
76664233,0.05806817,0.052215997,-1.572272,0.0,0.70551014,0.038970042,-0.0020978046,-0.7076245,0.741044,1.0,1,0,0,0,0,0,0,2203,224c2092-44e1-4b73-879c-d0ad0c4b4c87
76764821,0.034220453,0.035551615,-1.572272,0.0,0.70615464,0.024663486,0.00045244055,-0.7076278,0.7034354,1.0,1,0,0,0,0,0,0,2203,224c2092-44e1-4b73-879c-d0ad0c4b4c87
76866047,0.009849471,0.016822007,-1.572272,0.0,0.706522,0.009431329,0.002458201,-0.707624,0.6811108,1.0,1,0,0,0,0,0,0,2203,224c2092-44e1-4b73-879c-d0ad0c4b4c87
76966565,-0.010619829,-5.9806378e-05,-1.572272,0.0,0.7065748,-0.003773048,0.0037362992,-0.7076185,0.6650015,1.0,1,0,0,0,0,0,0,2203,224c2092-44e1-4b73-879c-d0ad0c4b4c87
77070376,-0.031282563,-0.011706273,-1.572272,0.0,0.70642155,-0.015192567,0.0069323634,-0.7075944,0.65865874,1.0,1,0,0,0,0,0,0,2203,224c2092-44e1-4b73-879c-d0ad0c4b4c87
77169780,-0.045546282,-0.024646956,-1.572272,0.0,0.70614946,-0.024806503,0.0074071954,-0.7075894,0.6534457,1.0,1,0,0,0,0,0,0,2203,224c2092-44e1-4b73-879c-d0ad0c4b4c87
77273734,-0.05213751,-0.031122994,-1.572272,0.0,0.70597225,-0.029423043,0.007451328,-0.70758885,0.64941126,1.0,1,0,0,0,0,0,0,2203,224c2092-44e1-4b73-879c-d0ad0c4b4c87
77374449,-0.05927461,-0.034026936,-1.572272,0.0,0.7058156,-0.03296852,0.008950491,-0.7075714,0.64632386,1.0,1,0,0,0,0,0,0,2203,224c2092-44e1-4b73-879c-d0ad0c4b4c87
77473712,-0.06046949,-0.0332074,-1.572272,0.0,0.7058094,-0.03310055,0.009662727,-0.7075621,0.6453924,1.0,1,0,0,0,0,0,0,2203,224c2092-44e1-4b73-879c-d0ad0c4b4c87
77577817,-0.062034234,-0.03284677,-1.572272,0.0,0.7057894,-0.0335253,0.010343698,-0.70755243,0.64650536,1.0,1,0,0,0,0,0,0,2203,224c2092-44e1-4b73-879c-d0ad0c4b4c87
77678398,-0.058800366,-0.02813712,-1.572272,0.0,0.705917,-0.030719358,0.010863337,-0.70754474,0.64598536,1.0,1,0,0,0,0,0,0,2203,224c2092-44e1-4b73-879c-d0ad0c4b4c87
77777705,-0.05146227,-0.023477092,-1.572272,0.0,0.7060886,-0.02648156,0.009913472,-0.70755875,0.64555126,1.0,1,0,0,0,0,0,0,2203,224c2092-44e1-4b73-879c-d0ad0c4b4c87
77882532,-0.04006678,-0.015251171,-1.572272,0.0,0.70631444,-0.019548876,0.008787843,-0.70757365,0.64444643,1.0,1,0,0,0,0,0,0,2203,224c2092-44e1-4b73-879c-d0ad0c4b4c87
77983463,-0.031478256,-0.009948945,-1.572272,0.0,0.7064332,-0.01464006,0.0076224175,-0.7075872,0.64390975,1.0,1,0,0,0,0,0,0,2203,224c2092-44e1-4b73-879c-d0ad0c4b4c87
78082547,-0.020428983,-0.002767313,-1.572272,0.0,0.70653737,-0.008196336,0.0062503116,-0.7076006,0.64471465,1.0,1,0,0,0,0,0,0,2203,224c2092-44e1-4b73-879c-d0ad0c4b4c87
78186544,-0.014626103,0.007740877,-1.572272,0.0,0.7065807,-0.0024284553,0.007909551,-0.70758414,0.6461213,1.0,1,0,0,0,0,0,0,2203,224c2092-44e1-4b73-879c-d0ad0c4b4c87
78287311,-0.005272542,0.012658797,-1.572272,0.0,0.7065801,0.0026161056,0.0063376725,-0.70759994,0.6469033,1.0,1,0,0,0,0,0,0,2203,224c2092-44e1-4b73-879c-d0ad0c4b4c87
78391279,0.005030428,0.018341148,-1.572272,0.0,0.7065366,0.008266383,0.004699918,-0.70761263,0.6455618,1.0,1,0,0,0,0,0,0,2203,224c2092-44e1-4b73-879c-d0ad0c4b4c87
78495105,0.015801324,0.024156911,-1.572272,0.0,0.7064438,0.014128606,0.0029437146,-0.70762205,0.6455965,1.0,1,0,0,0,0,0,0,2203,224c2092-44e1-4b73-879c-d0ad0c4b4c87
78594529,0.021429561,0.028680446,-1.572272,0.0,0.70636296,0.017716596,0.0025504988,-0.7076235,0.64568555,1.0,1,0,0,0,0,0,0,2203,224c2092-44e1-4b73-879c-d0ad0c4b4c87
78695455,0.02384344,0.030819084,-1.572272,0.0,0.70632076,0.019325528,0.0024520007,-0.7076238,0.6456319,1.0,1,0,0,0,0,0,0,2203,224c2092-44e1-4b73-879c-d0ad0c4b4c87
78799212,0.029367778,0.036737874,-1.572272,0.0,0.7061987,0.023369538,0.002588475,-0.70762324,0.64907783,1.0,1,0,0,0,0,0,0,2203,224c2092-44e1-4b73-879c-d0ad0c4b4c87
78898565,0.031914845,0.038662273,-1.572272,0.0,0.7061447,0.024949355,0.0023671624,-0.7076239,0.64891344,1.0,1,0,0,0,0,0,0,2203,224c2092-44e1-4b73-879c-d0ad0c4b4c87
79002639,0.02934359,0.042012405,-1.572272,0.0,0.7061349,0.025226101,0.004460462,-0.7076138,0.6500956,1.0,1,0,0,0,0,0,0,2203,224c2092-44e1-4b73-879c-d0ad0c4b4c87
79103635,0.033641472,0.043324873,-1.572272,0.0,0.70606136,0.02720751,0.003403514,-0.70761967,0.6495179,1.0,1,0,0,0,0,0,0,2203,224c2092-44e1-4b73-879c-d0ad0c4b4c87
79204419,0.03416398,0.044161487,-1.572272,0.0,0.7060427,0.027687758,0.0035142095,-0.7076191,0.6491576,1.0,1,0,0,0,0,0,0,2203,224c2092-44e1-4b73-879c-d0ad0c4b4c87
79305750,0.034471974,0.047574144,-1.572272,0.0,0.70598996,0.029002955,0.004610888,-0.70761275,0.64894044,1.0,1,0,0,0,0,0,0,2203,224c2092-44e1-4b73-879c-d0ad0c4b4c87
79409442,0.035687413,0.04565154,-1.572272,0.0,0.7060002,0.028752327,0.0035016243,-0.70761913,0.6470404,1.0,1,0,0,0,0,0,0,2203,224c2092-44e1-4b73-879c-d0ad0c4b4c87
79513452,0.039157007,0.04197708,-1.572272,0.0,0.7060031,0.028678091,0.00097588846,-0.70762706,0.64557487,1.0,1,0,0,0,0,0,0,2203,224c2092-44e1-4b73-879c-d0ad0c4b4c87
79612256,0.03880916,0.041169267,-1.572272,0.0,0.7060196,0.028269716,0.0008135655,-0.70762736,0.6460549,1.0,1,0,0,0,0,0,0,2203,224c2092-44e1-4b73-879c-d0ad0c4b4c87
79716118,0.04150715,0.040375203,-1.572272,0.0,0.70599234,0.028941393,-0.000421556,-0.7076278,0.64397043,1.0,1,0,0,0,0,0,0,2203,224c2092-44e1-4b73-879c-d0ad0c4b4c87
79816808,0.043549754,0.037650198,-1.572272,0.0,0.7060022,0.028699083,-0.0021069788,-0.70762485,0.645625,1.0,1,0,0,0,0,0,0,2203,224c2092-44e1-4b73-879c-d0ad0c4b4c87
79916079,0.0430525,0.034412198,-1.572272,0.0,0.70605457,0.027378798,-0.0030750001,-0.7076213,0.6473581,1.0,1,0,0,0,0,0,0,2203,224c2092-44e1-4b73-879c-d0ad0c4b4c87
80020160,0.04168205,0.035943672,-1.572272,0.0,0.70605236,0.027436443,-0.0020490624,-0.70762503,0.64706826,1.0,1,0,0,0,0,0,0,2203,224c2092-44e1-4b73-879c-d0ad0c4b4c87
80121921,0.041142993,0.036265053,-1.572272,0.0,0.70605534,0.027359765,-0.0017447964,-0.70762587,0.6452477,1.0,1,0,0,0,0,0,0,2203,224c2092-44e1-4b73-879c-d0ad0c4b4c87
80221791,0.040526576,0.0349306,-1.572272,0.0,0.7060817,0.026670342,-0.001998151,-0.70762515,0.64459056,1.0,1,0,0,0,0,0,0,2203,224c2092-44e1-4b73-879c-d0ad0c4b4c87
80325775,0.041620277,0.0385268,-1.572272,0.0,0.7060172,0.028327873,-0.0011146091,-0.707627,0.6467689,1.0,1,0,0,0,0,0,0,2203,224c2092-44e1-4b73-879c-d0ad0c4b4c87
80426465,0.040760648,0.039396763,-1.572272,0.0,0.706017,0.028331976,-0.0005031105,-0.7076277,0.64697105,1.0,1,0,0,0,0,0,0,2203,224c2092-44e1-4b73-879c-d0ad0c4b4c87
80525858,0.04082191,0.039713576,-1.572272,0.0,0.70601165,0.028465603,-0.00041285667,-0.7076278,0.64641863,1.0,1,0,0,0,0,0,0,2203,224c2092-44e1-4b73-879c-d0ad0c4b4c87
80629894,0.038799103,0.037527733,-1.572272,0.0,0.70607,0.026978722,-0.00046940203,-0.70762783,0.6461773,1.0,1,0,0,0,0,0,0,2203,224c2092-44e1-4b73-879c-d0ad0c4b4c87
80730241,0.038713485,0.037684474,-1.572272,0.0,0.70606905,0.027003914,-0.00038373334,-0.70762783,0.64636314,1.0,1,0,0,0,0,0,0,2203,224c2092-44e1-4b73-879c-d0ad0c4b4c87
80829644,0.038525086,0.03848889,-1.572272,0.0,0.7060607,0.027221806,-3.288104e-05,-0.70762783,0.6478249,1.0,1,0,0,0,0,0,0,2203,224c2092-44e1-4b73-879c-d0ad0c4b4c87
80933743,0.040891837,0.038157016,-1.572272,0.0,0.70603263,0.027939996,-0.0009875204,-0.70762724,0.6474272,1.0,1,0,0,0,0,0,0,2203,224c2092-44e1-4b73-879c-d0ad0c4b4c87
81034282,0.04339363,0.038742192,-1.572272,0.0,0.70598865,0.029030018,-0.0016659491,-0.7076259,0.64699847,1.0,1,0,0,0,0,0,0,2203,224c2092-44e1-4b73-879c-d0ad0c4b4c87
81135383,0.04654242,0.038623627,-1.572272,0.0,0.7059439,0.03009957,-0.002821918,-0.70762223,0.64632857,1.0,1,0,0,0,0,0,0,2203,224c2092-44e1-4b73-879c-d0ad0c4b4c87
81239400,0.04557146,0.037216038,-1.572272,0.0,0.70597917,0.029259257,-0.0029756676,-0.70762175,0.6460329,1.0,1,0,0,0,0,0,0,2203,224c2092-44e1-4b73-879c-d0ad0c4b4c87
81340067,0.049738683,0.03997541,-1.572272,0.0,0.7058736,0.03170553,-0.0034752192,-0.7076193,0.64701456,1.0,1,0,0,0,0,0,0,2203,224c2092-44e1-4b73-879c-d0ad0c4b4c87
81439457,0.052330974,0.03864363,-1.572272,0.0,0.70585346,0.032149706,-0.0048628906,-0.70761126,0.6487087,1.0,1,0,0,0,0,0,0,2203,224c2092-44e1-4b73-879c-d0ad0c4b4c87
81543443,0.050700065,0.03550613,-1.572272,0.0,0.70592815,0.030465081,-0.005394293,-0.7076073,0.6512618,1.0,1,0,0,0,0,0,0,2203,224c2092-44e1-4b73-879c-d0ad0c4b4c87
81643871,0.05109273,0.038504448,-1.572272,0.0,0.70587546,0.031663496,-0.0044739633,-0.70761377,0.6515478,1.0,1,0,0,0,0,0,0,2203,224c2092-44e1-4b73-879c-d0ad0c4b4c87
81743400,0.049407165,0.03601615,-1.572272,0.0,0.70594,0.03018902,-0.0047566765,-0.70761204,0.651592,1.0,1,0,0,0,0,0,0,2203,224c2092-44e1-4b73-879c-d0ad0c4b4c87
81847326,0.05145116,0.037047666,-1.572272,0.0,0.70589274,0.03127508,-0.0051154355,-0.70760936,0.65119356,1.0,1,0,0,0,0,0,0,2203,224c2092-44e1-4b73-879c-d0ad0c4b4c87
81947856,0.04805114,0.040413685,-1.572272,0.0,0.7058933,0.031264838,-0.0027233085,-0.70762265,0.6504332,1.0,1,0,0,0,0,0,0,2203,224c2092-44e1-4b73-879c-d0ad0c4b4c87
82052148,0.045274235,0.043697,-1.572272,0.0,0.70588535,0.031445287,-0.00058083993,-0.70762753,0.6509163,1.0,1,0,0,0,0,0,0,2203,224c2092-44e1-4b73-879c-d0ad0c4b4c87
82152326,0.040840644,0.04536011,-1.572272,0.0,0.7059282,0.030468302,0.0015753934,-0.707626,0.65163046,1.0,1,0,0,0,0,0,0,2203,224c2092-44e1-4b73-879c-d0ad0c4b4c87
82252668,0.038665365,0.049155824,-1.572272,0.0,0.7059033,0.03104223,0.0036860202,-0.7076181,0.6520409,1.0,1,0,0,0,0,0,0,2203,224c2092-44e1-4b73-879c-d0ad0c4b4c87
82356819,0.035510335,0.055834703,-1.572272,0.0,0.70584756,0.032289416,0.0071618035,-0.70759124,0.64934355,1.0,1,0,0,0,0,0,0,2203,224c2092-44e1-4b73-879c-d0ad0c4b4c87
82456239,0.034917273,0.059849888,-1.572272,0.0,0.7057913,0.033499207,0.008790068,-0.7075728,0.64851093,1.0,1,0,0,0,0,0,0,2203,224c2092-44e1-4b73-879c-d0ad0c4b4c87
82557502,0.029306669,0.06480742,-1.572272,0.0,0.7058022,0.033271324,0.012526208,-0.7075163,0.6487528,1.0,1,0,0,0,0,0,0,2203,224c2092-44e1-4b73-879c-d0ad0c4b4c87
82660637,0.029444605,0.066343,-1.572272,0.0,0.7057741,0.033862703,0.013019833,-0.70750743,0.64649767,1.0,1,0,0,0,0,0,0,2203,224c2092-44e1-4b73-879c-d0ad0c4b4c87
82760563,0.028064227,0.068001054,-1.572272,0.0,0.7057695,0.033961553,0.014093808,-0.7074867,0.64700186,1.0,1,0,0,0,0,0,0,2203,224c2092-44e1-4b73-879c-d0ad0c4b4c87
82860692,0.02681233,0.070771076,-1.572272,0.0,0.7057435,0.03449871,0.015515066,-0.7074569,0.6484642,1.0,1,0,0,0,0,0,0,2203,224c2092-44e1-4b73-879c-d0ad0c4b4c87
82964930,0.021843718,0.07070033,-1.572272,0.0,0.7058282,0.032720327,0.017247567,-0.7074168,0.65027237,1.0,1,0,0,0,0,0,0,2203,224c2092-44e1-4b73-879c-d0ad0c4b4c87
83068999,0.023054475,0.07002814,-1.572272,0.0,0.7058193,0.032910038,0.016581897,-0.7074328,0.6482669,1.0,1,0,0,0,0,0,0,2203,224c2092-44e1-4b73-879c-d0ad0c4b4c87
83168109,0.020032806,0.07004657,-1.572272,0.0,0.70586795,0.03185014,0.017657198,-0.7074067,0.6488644,1.0,1,0,0,0,0,0,0,2203,224c2092-44e1-4b73-879c-d0ad0c4b4c87
83272132,0.016618788,0.07000233,-1.572272,0.0,0.70592195,0.030629527,0.0188491,-0.707376,0.6506298,1.0,1,0,0,0,0,0,0,2203,224c2092-44e1-4b73-879c-d0ad0c4b4c87
83372721,0.015360975,0.06935227,-1.572272,0.0,0.70595086,0.029955773,0.019064391,-0.7073702,0.6489129,1.0,1,0,0,0,0,0,0,2203,224c2092-44e1-4b73-879c-d0ad0c4b4c87
83474440,0.019024936,0.06806029,-1.572272,0.0,0.70591486,0.030792328,0.017312162,-0.7074152,0.64616764,1.0,1,0,0,0,0,0,0,2203,224c2092-44e1-4b73-879c-d0ad0c4b4c87
83573716,0.019968117,0.069571845,-1.572272,0.0,0.70587647,0.031659514,0.017512416,-0.7074103,0.6442349,1.0,1,0,0,0,0,0,0,2203,224c2092-44e1-4b73-879c-d0ad0c4b4c87
83677715,0.018644024,0.069578156,-1.572272,0.0,0.7058972,0.03119441,0.017982977,-0.7073985,0.64714277,1.0,1,0,0,0,0,0,0,2203,224c2092-44e1-4b73-879c-d0ad0c4b4c87
83778473,0.02118114,0.066821575,-1.572272,0.0,0.7059006,0.031115515,0.016111977,-0.7074437,0.64822406,1.0,1,0,0,0,0,0,0,2203,224c2092-44e1-4b73-879c-d0ad0c4b4c87
83882396,0.020611731,0.06712025,-1.572272,0.0,0.70590484,0.031020112,0.016418878,-0.7074366,0.6473154,1.0,1,0,0,0,0,0,0,2203,224c2092-44e1-4b73-879c-d0ad0c4b4c87
83986303,0.020557348,0.064016245,-1.572272,0.0,0.7059529,0.029903697,0.015341774,-0.70746094,0.6503376,1.0,1,0,0,0,0,0,0,2203,224c2092-44e1-4b73-879c-d0ad0c4b4c87
84085872,0.022059042,0.06289024,-1.572272,0.0,0.7059473,0.030035717,0.014412846,-0.70748043,0.65189177,1.0,1,0,0,0,0,0,0,2203,224c2092-44e1-4b73-879c-d0ad0c4b4c87
84189725,0.02710005,0.062124748,-1.572272,0.0,0.7058814,0.03154439,0.012359199,-0.7075194,0.6520398,1.0,1,0,0,0,0,0,0,2203,224c2092-44e1-4b73-879c-d0ad0c4b4c87
84290241,0.030094165,0.05975746,-1.572272,0.0,0.70587146,0.03176439,0.010463742,-0.70755005,0.6516566,1.0,1,0,0,0,0,0,0,2203,224c2092-44e1-4b73-879c-d0ad0c4b4c87
84389627,0.031857703,0.05952942,-1.572272,0.0,0.7058469,0.03230619,0.009759285,-0.70756006,0.6512055,1.0,1,0,0,0,0,0,0,2203,224c2092-44e1-4b73-879c-d0ad0c4b4c87
84491445,0.03022104,0.059745423,-1.572272,0.0,0.7058697,0.03180491,0.010414604,-0.7075507,0.65143937,1.0,1,0,0,0,0,0,0,2203,224c2092-44e1-4b73-879c-d0ad0c4b4c87
84595919,0.03331897,0.058268566,-1.572272,0.0,0.7058436,0.032376263,0.0087969005,-0.70757276,0.6498302,1.0,1,0,0,0,0,0,0,2203,224c2092-44e1-4b73-879c-d0ad0c4b4c87
84696238,0.03637359,0.05939873,-1.572272,0.0,0.70577437,0.033853684,0.008115464,-0.7075809,0.6488469,1.0,1,0,0,0,0,0,0,2203,224c2092-44e1-4b73-879c-d0ad0c4b4c87
84795723,0.03340736,0.06185276,-1.572272,0.0,0.705783,0.033674214,0.010031785,-0.7075562,0.64832395,1.0,1,0,0,0,0,0,0,2203,224c2092-44e1-4b73-879c-d0ad0c4b4c87
84899341,0.03204471,0.0606094,-1.572272,0.0,0.7058263,0.0327539,0.010074636,-0.70755565,0.6475626,1.0,1,0,0,0,0,0,0,2203,224c2092-44e1-4b73-879c-d0ad0c4b4c87
84999838,0.034117404,0.060250975,-1.572272,0.0,0.705798,0.03335869,0.009214739,-0.70756733,0.64748836,1.0,1,0,0,0,0,0,0,2203,224c2092-44e1-4b73-879c-d0ad0c4b4c87
85104718,0.03305332,0.0632088,-1.572272,0.0,0.7057661,0.03402852,0.010636064,-0.7075473,0.6502397,1.0,1,0,0,0,0,0,0,2203,224c2092-44e1-4b73-879c-d0ad0c4b4c87
85208528,0.0315294,0.060838044,-1.572272,0.0,0.705831,0.032652847,0.010337712,-0.70755184,0.64845604,1.0,1,0,0,0,0,0,0,2203,224c2092-44e1-4b73-879c-d0ad0c4b4c87
85307488,0.031869352,0.058742598,-1.572272,0.0,0.70585936,0.0320322,0.009477211,-0.7075639,0.6475322,1.0,1,0,0,0,0,0,0,2203,224c2092-44e1-4b73-879c-d0ad0c4b4c87
85408859,0.03246274,0.057818778,-1.572272,0.0,0.7058646,0.0319151,0.00894093,-0.70757097,0.6485724,1.0,1,0,0,0,0,0,0,2203,224c2092-44e1-4b73-879c-d0ad0c4b4c87
85509402,0.0349675,0.058761667,-1.572272,0.0,0.7058086,0.033132333,0.0083878655,-0.70757765,0.6483336,1.0,1,0,0,0,0,0,0,2203,224c2092-44e1-4b73-879c-d0ad0c4b4c87
85610122,0.03748855,0.057062674,-1.572272,0.0,0.7057949,0.033421554,0.0068957307,-0.70759386,0.64827424,1.0,1,0,0,0,0,0,0,2203,224c2092-44e1-4b73-879c-d0ad0c4b4c87
85709349,0.041472137,0.053311,-1.572272,0.0,0.705791,0.033501435,0.004160929,-0.7076153,0.646285,1.0,1,0,0,0,0,0,0,2203,224c2092-44e1-4b73-879c-d0ad0c4b4c87
85813057,0.045626555,0.053655006,-1.572272,0.0,0.7057138,0.035089,0.0028125932,-0.70762205,0.6467334,1.0,1,0,0,0,0,0,0,2203,224c2092-44e1-4b73-879c-d0ad0c4b4c87
85914044,0.051909726,0.049395077,-1.572272,0.0,0.705678,0.03580068,-0.00091547763,-0.7076271,0.6468738,1.0,1,0,0,0,0,0,0,2203,224c2092-44e1-4b73-879c-d0ad0c4b4c87
86017617,0.055020723,0.04601767,-1.572272,0.0,0.7056827,0.035704914,-0.0032093911,-0.70762056,0.6478021,1.0,1,0,0,0,0,0,0,2203,224c2092-44e1-4b73-879c-d0ad0c4b4c87
86121495,0.058142442,0.045556825,-1.572272,0.0,0.7056346,0.036643513,-0.004476698,-0.7076136,0.6458966,1.0,1,0,0,0,0,0,0,2203,224c2092-44e1-4b73-879c-d0ad0c4b4c87
86220894,0.062657595,0.044681467,-1.572272,0.0,0.70556676,0.037927173,-0.00638342,-0.707599,0.6456608,1.0,1,0,0,0,0,0,0,2203,224c2092-44e1-4b73-879c-d0ad0c4b4c87
86325474,0.06783781,0.047852833,-1.572272,0.0,0.70540226,0.04087479,-0.007095801,-0.7075921,0.64550513,1.0,1,0,0,0,0,0,0,2203,224c2092-44e1-4b73-879c-d0ad0c4b4c87
86427120,0.071347356,0.05047832,-1.572272,0.0,0.7052735,0.043039795,-0.0074099414,-0.70758885,0.6457542,1.0,1,0,0,0,0,0,0,2203,224c2092-44e1-4b73-879c-d0ad0c4b4c87
86531506,0.07152474,0.05078249,-1.572272,0.0,0.70526314,0.043209765,-0.007365242,-0.7075893,0.64626557,1.0,1,0,0,0,0,0,0,2203,224c2092-44e1-4b73-879c-d0ad0c4b4c87
86630643,0.07320284,0.053401254,-1.572272,0.0,0.70516866,0.04472624,-0.0070338054,-0.7075926,0.6455343,1.0,1,0,0,0,0,0,0,2203,224c2092-44e1-4b73-879c-d0ad0c4b4c87
86734552,0.07642957,0.055018235,-1.572272,0.0,0.7050583,0.046434764,-0.007604167,-0.7075866,0.6453963,1.0,1,0,0,0,0,0,0,2203,224c2092-44e1-4b73-879c-d0ad0c4b4c87
86835243,0.07473173,0.057596456,-1.572272,0.0,0.7050377,0.046746466,-0.0060926504,-0.70760125,0.6447208,1.0,1,0,0,0,0,0,0,2203,224c2092-44e1-4b73-879c-d0ad0c4b4c87
86934536,0.07605722,0.059039127,-1.572272,0.0,0.7049723,0.04772301,-0.0060519455,-0.70760155,0.64521974,1.0,1,0,0,0,0,0,0,2203,224c2092-44e1-4b73-879c-d0ad0c4b4c87
87038576,0.07749681,0.059503473,-1.572272,0.0,0.70492655,0.048394345,-0.0063972306,-0.7075985,0.64389664,1.0,1,0,0,0,0,0,0,2203,224c2092-44e1-4b73-879c-d0ad0c4b4c87
87139062,0.07661229,0.062064976,-1.572272,0.0,0.7048857,0.048986737,-0.005179355,-0.70760834,0.64377457,1.0,1,0,0,0,0,0,0,2203,224c2092-44e1-4b73-879c-d0ad0c4b4c87
87238637,0.07542192,0.06292046,-1.572272,0.0,0.70489395,0.04886914,-0.004455959,-0.70761317,0.6439296,1.0,1,0,0,0,0,0,0,2203,224c2092-44e1-4b73-879c-d0ad0c4b4c87
87342638,0.07626928,0.063501485,-1.572272,0.0,0.70485884,0.04937287,-0.0045504947,-0.70761263,0.6443353,1.0,1,0,0,0,0,0,0,2203,224c2092-44e1-4b73-879c-d0ad0c4b4c87
87444744,0.075309165,0.06538032,-1.572272,0.0,0.7048361,0.049697626,-0.0035470289,-0.7076183,0.6441022,1.0,1,0,0,0,0,0,0,2203,224c2092-44e1-4b73-879c-d0ad0c4b4c87
87544191,0.074681506,0.06518958,-1.572272,0.0,0.7048564,0.049409106,-0.0033923485,-0.707619,0.6432765,1.0,1,0,0,0,0,0,0,2203,224c2092-44e1-4b73-879c-d0ad0c4b4c87
87648309,0.071304895,0.06887338,-1.572272,0.0,0.70484877,0.04951929,-0.0008962065,-0.70762646,0.6441852,1.0,1,0,0,0,0,0,0,2203,224c2092-44e1-4b73-879c-d0ad0c4b4c87
87748983,0.07224214,0.06765031,-1.572272,0.0,0.70485586,0.049417917,-0.0016599139,-0.70762515,0.6439843,1.0,1,0,0,0,0,0,0,2203,224c2092-44e1-4b73-879c-d0ad0c4b4c87
87848186,0.072874464,0.066683754,-1.572272,0.0,0.7048641,0.049299616,-0.0022251194,-0.70762366,0.64427537,1.0,1,0,0,0,0,0,0,2203,224c2092-44e1-4b73-879c-d0ad0c4b4c87
87952392,0.070414245,0.06711594,-1.572272,0.0,0.70491374,0.048585083,-0.0012019733,-0.70762616,0.6434222,1.0,1,0,0,0,0,0,0,2203,224c2092-44e1-4b73-879c-d0ad0c4b4c87
88052888,0.06972237,0.066578835,-1.572272,0.0,0.7049434,0.04815163,-0.0011469319,-0.7076262,0.6431469,1.0,1,0,0,0,0,0,0,2203,224c2092-44e1-4b73-879c-d0ad0c4b4c87
88152327,0.07024207,0.06562885,-1.572272,0.0,0.7049538,0.047999464,-0.0016664317,-0.7076253,0.64400065,1.0,1,0,0,0,0,0,0,2203,224c2092-44e1-4b73-879c-d0ad0c4b4c87
88256576,0.06979852,0.066335514,-1.572272,0.0,0.7049475,0.048092574,-0.001259839,-0.7076259,0.6423415,1.0,1,0,0,0,0,0,0,2203,224c2092-44e1-4b73-879c-d0ad0c4b4c87
88356919,0.06929937,0.06549374,-1.572272,0.0,0.70497954,0.04761948,-0.0013806247,-0.7076258,0.64254045,1.0,1,0,0,0,0,0,0,2203,224c2092-44e1-4b73-879c-d0ad0c4b4c87
88458290,0.07020724,0.06414186,-1.572272,0.0,0.7049901,0.04746227,-0.0021794522,-0.70762384,0.64278346,1.0,1,0,0,0,0,0,0,2203,224c2092-44e1-4b73-879c-d0ad0c4b4c87
88557794,0.07013236,0.063590676,-1.572272,0.0,0.70500493,0.047241297,-0.0023476854,-0.70762336,0.6428511,1.0,1,0,0,0,0,0,0,2203,224c2092-44e1-4b73-879c-d0ad0c4b4c87
88661861,0.06922887,0.065126754,-1.572272,0.0,0.70498997,0.04746508,-0.0014853367,-0.70762557,0.6420409,1.0,1,0,0,0,0,0,0,2203,224c2092-44e1-4b73-879c-d0ad0c4b4c87
88762395,0.07049782,0.06295921,-1.572272,0.0,0.7050112,0.047147203,-0.0027000846,-0.7076221,0.6422034,1.0,1,0,0,0,0,0,0,2203,224c2092-44e1-4b73-879c-d0ad0c4b4c87
88866564,0.07182669,0.065281965,-1.572272,0.0,0.7049239,0.048435554,-0.0023496435,-0.7076233,0.64121914,1.0,1,0,0,0,0,0,0,2203,224c2092-44e1-4b73-879c-d0ad0c4b4c87
88970243,0.07343732,0.06566009,-1.572272,0.0,0.7048754,0.049136683,-0.002785913,-0.7076217,0.6425364,1.0,1,0,0,0,0,0,0,2203,224c2092-44e1-4b73-879c-d0ad0c4b4c87
89069862,0.073617466,0.06590187,-1.572272,0.0,0.70486504,0.049285505,-0.0027642297,-0.7076218,0.6425849,1.0,1,0,0,0,0,0,0,2203,224c2092-44e1-4b73-879c-d0ad0c4b4c87
89173805,0.071361184,0.06703249,-1.572272,0.0,0.7048927,0.04888937,-0.0015664932,-0.7076253,0.6432129,1.0,1,0,0,0,0,0,0,2203,224c2092-44e1-4b73-879c-d0ad0c4b4c87
89274317,0.07041589,0.067754254,-1.572272,0.0,0.7048981,0.04881097,-0.0009770445,-0.70762646,0.6431012,1.0,1,0,0,0,0,0,0,2203,224c2092-44e1-4b73-879c-d0ad0c4b4c87
89373762,0.07130878,0.06676504,-1.572272,0.0,0.70490044,0.048776496,-0.0016424402,-0.7076252,0.6434346,1.0,1,0,0,0,0,0,0,2203,224c2092-44e1-4b73-879c-d0ad0c4b4c87
89476422,0.07019031,0.06606366,-1.572272,0.0,0.7049446,0.048134707,-0.0014945058,-0.7076255,0.64370143,1.0,1,0,0,0,0,0,0,2203,224c2092-44e1-4b73-879c-d0ad0c4b4c87
89579895,0.07199561,0.06627668,-1.572272,0.0,0.7048956,0.04884619,-0.0020579807,-0.7076242,0.64267474,1.0,1,0,0,0,0,0,0,2203,224c2092-44e1-4b73-879c-d0ad0c4b4c87
89679333,0.07104562,0.06635258,-1.572272,0.0,0.7049169,0.04853817,-0.0016950511,-0.70762515,0.6429267,1.0,1,0,0,0,0,0,0,2203,224c2092-44e1-4b73-879c-d0ad0c4b4c87
89780127,0.07021697,0.06779409,-1.572272,0.0,0.704902,0.048754923,-0.00089258736,-0.7076265,0.64342093,1.0,1,0,0,0,0,0,0,2203,224c2092-44e1-4b73-879c-d0ad0c4b4c87
89884009,0.071649395,0.06850029,-1.572272,0.0,0.7048495,0.049509022,-0.0011499044,-0.7076261,0.6421298,1.0,1,0,0,0,0,0,0,2203,224c2092-44e1-4b73-879c-d0ad0c4b4c87
89983587,0.07042859,0.06784473,-1.572272,0.0,0.7048956,0.04884738,-0.00094956916,-0.7076265,0.6425158,1.0,1,0,0,0,0,0,0,2203,224c2092-44e1-4b73-879c-d0ad0c4b4c87
90087380,0.07411062,0.070544876,-1.572272,0.0,0.7047361,0.05109792,-0.0012983797,-0.7076258,0.6422111,1.0,1,0,0,0,0,0,0,2203,224c2092-44e1-4b73-879c-d0ad0c4b4c87
90188063,0.07484452,0.06941928,-1.572272,0.0,0.7047461,0.0509593,-0.0019557076,-0.7076244,0.64312357,1.0,1,0,0,0,0,0,0,2203,224c2092-44e1-4b73-879c-d0ad0c4b4c87
90287249,0.0730089,0.0705798,-1.572272,0.0,0.7047633,0.050722025,-0.0008962438,-0.70762646,0.6428312,1.0,1,0,0,0,0,0,0,2203,224c2092-44e1-4b73-879c-d0ad0c4b4c87
90389111,0.07353076,0.071389176,-1.572272,0.0,0.7047294,0.05119154,-0.000794936,-0.7076266,0.6425709,1.0,1,0,0,0,0,0,0,2203,224c2092-44e1-4b73-879c-d0ad0c4b4c87
90489905,0.073197804,0.07155447,-1.572272,0.0,0.70473367,0.051132537,-0.0006187323,-0.7076266,0.6431552,1.0,1,0,0,0,0,0,0,2203,224c2092-44e1-4b73-879c-d0ad0c4b4c87
90588944,0.07143035,0.07296604,-1.572272,0.0,0.7047427,0.05100788,0.00050531264,-0.7076267,0.64307916,1.0,1,0,0,0,0,0,0,2203,224c2092-44e1-4b73-879c-d0ad0c4b4c87
90692939,0.07092786,0.07207115,-1.572272,0.0,0.7047782,0.050515,0.00036694555,-0.7076268,0.64349747,1.0,1,0,0,0,0,0,0,2203,224c2092-44e1-4b73-879c-d0ad0c4b4c87
90793644,0.07190723,0.07314375,-1.572272,0.0,0.70472604,0.051238626,0.00039937685,-0.70762676,0.64354193,1.0,1,0,0,0,0,0,0,2203,224c2092-44e1-4b73-879c-d0ad0c4b4c87
90892902,0.070758775,0.07393924,-1.572272,0.0,0.70473504,0.051114667,0.0010867506,-0.70762604,0.64343727,1.0,1,0,0,0,0,0,0,2203,224c2092-44e1-4b73-879c-d0ad0c4b4c87
90996910,0.06961671,0.0723689,-1.572272,0.0,0.7048037,0.050158042,0.00093604036,-0.70762634,0.6445509,1.0,1,0,0,0,0,0,0,2203,224c2092-44e1-4b73-879c-d0ad0c4b4c87
91098235,0.06962799,0.07272612,-1.572272,0.0,0.70479447,0.050288092,0.0010582514,-0.7076261,0.64435977,1.0,1,0,0,0,0,0,0,2203,224c2092-44e1-4b73-879c-d0ad0c4b4c87
91196903,0.06837712,0.07416661,-1.572272,0.0,0.7047897,0.05035566,0.002009733,-0.70762396,0.64443046,1.0,1,0,0,0,0,0,0,2203,224c2092-44e1-4b73-879c-d0ad0c4b4c87
91300999,0.06938784,0.07114244,-1.572272,0.0,0.70484,0.04964453,0.00058371905,-0.70762676,0.6434168,1.0,1,0,0,0,0,0,0,2203,224c2092-44e1-4b73-879c-d0ad0c4b4c87
91403229,0.06981004,0.07145276,-1.572272,0.0,0.7048218,0.04990284,0.0005439691,-0.70762676,0.6433422,1.0,1,0,0,0,0,0,0,2203,224c2092-44e1-4b73-879c-d0ad0c4b4c87
91502592,0.06900709,0.07406588,-1.572272,0.0,0.70477635,0.050542105,0.0017512623,-0.70762473,0.6432418,1.0,1,0,0,0,0,0,0,2203,224c2092-44e1-4b73-879c-d0ad0c4b4c87
91603862,0.06987276,0.073484816,-1.572272,0.0,0.70476913,0.05064209,0.001239691,-0.7076258,0.6428607,1.0,1,0,0,0,0,0,0,2203,224c2092-44e1-4b73-879c-d0ad0c4b4c87
91707871,0.07240374,0.07272802,-1.572272,0.0,0.70472395,0.051266883,7.6823904e-05,-0.7076269,0.64293236,1.0,1,0,0,0,0,0,0,2203,224c2092-44e1-4b73-879c-d0ad0c4b4c87
91806543,0.07096859,0.0750978,-1.572272,0.0,0.7046999,0.05159743,0.0014218299,-0.7076254,0.6418594,1.0,1,0,0,0,0,0,0,2203,224c2092-44e1-4b73-879c-d0ad0c4b4c87
91910567,0.07061355,0.07530229,-1.572272,0.0,0.7047038,0.05154449,0.0016196916,-0.707625,0.6433496,1.0,1,0,0,0,0,0,0,2203,224c2092-44e1-4b73-879c-d0ad0c4b4c87
92012027,0.070983365,0.07647401,-1.572272,0.0,0.7046639,0.052088253,0.0019027999,-0.7076242,0.6431215,1.0,1,0,0,0,0,0,0,2203,224c2092-44e1-4b73-879c-d0ad0c4b4c87
92110725,0.07050229,0.076262854,-1.572272,0.0,0.7046818,0.051844247,0.0019984106,-0.7076239,0.64319956,1.0,1,0,0,0,0,0,0,2203,224c2092-44e1-4b73-879c-d0ad0c4b4c87
92214729,0.06914048,0.07532248,-1.572272,0.0,0.70474106,0.05103257,0.0021480068,-0.70762354,0.64434415,1.0,1,0,0,0,0,0,0,2203,224c2092-44e1-4b73-879c-d0ad0c4b4c87
92315141,0.06921227,0.0753655,-1.572272,0.0,0.70473814,0.051073045,0.0021378081,-0.7076236,0.6448237,1.0,1,0,0,0,0,0,0,2203,224c2092-44e1-4b73-879c-d0ad0c4b4c87
92416166,0.067498066,0.074119136,-1.572272,0.0,0.70481294,0.05002913,0.0023039875,-0.7076232,0.6444147,1.0,1,0,0,0,0,0,0,2203,224c2092-44e1-4b73-879c-d0ad0c4b4c87
92520280,0.06914288,0.07318459,-1.572272,0.0,0.7047951,0.050278936,0.0013918665,-0.7076256,0.642182,1.0,1,0,0,0,0,0,0,2203,224c2092-44e1-4b73-879c-d0ad0c4b4c87
92620938,0.068409346,0.07341957,-1.572272,0.0,0.70480764,0.050103374,0.0017344136,-0.7076248,0.6426142,1.0,1,0,0,0,0,0,0,2203,224c2092-44e1-4b73-879c-d0ad0c4b4c87
92720229,0.06740659,0.07319461,-1.572272,0.0,0.7048383,0.04967058,0.002009724,-0.707624,0.6429,1.0,1,0,0,0,0,0,0,2203,224c2092-44e1-4b73-879c-d0ad0c4b4c87
92824125,0.07024333,0.07466301,-1.572272,0.0,0.70472974,0.05118845,0.0015248253,-0.70762515,0.6424598,1.0,1,0,0,0,0,0,0,2203,224c2092-44e1-4b73-879c-d0ad0c4b4c87
92924894,0.06991069,0.074079216,-1.572272,0.0,0.7047531,0.050865225,0.0014362668,-0.7076254,0.64259326,1.0,1,0,0,0,0,0,0,2203,224c2092-44e1-4b73-879c-d0ad0c4b4c87
93024416,0.06792132,0.074696824,-1.572272,0.0,0.70478785,0.050382163,0.0023583216,-0.7076229,0.64251596,1.0,1,0,0,0,0,0,0,2203,224c2092-44e1-4b73-879c-d0ad0c4b4c87
93128127,0.06842772,0.074183434,-1.572272,0.0,0.704788,0.05037942,0.0019977817,-0.7076241,0.6435964,1.0,1,0,0,0,0,0,0,2203,224c2092-44e1-4b73-879c-d0ad0c4b4c87
93228694,0.068040766,0.076489516,-1.572272,0.0,0.70473933,0.0510569,0.0029494015,-0.7076207,0.6435189,1.0,1,0,0,0,0,0,0,2203,224c2092-44e1-4b73-879c-d0ad0c4b4c87
93332802,0.06787759,0.074906416,-1.572272,0.0,0.7047836,0.05044072,0.002447847,-0.70762265,0.64429975,1.0,1,0,0,0,0,0,0,2203,224c2092-44e1-4b73-879c-d0ad0c4b4c87
93434297,0.06731407,0.075268105,-1.572272,0.0,0.70478874,0.050369784,0.002775005,-0.7076214,0.64410865,1.0,1,0,0,0,0,0,0,2203,224c2092-44e1-4b73-879c-d0ad0c4b4c87
93538641,0.068421654,0.07579237,-1.572272,0.0,0.70474744,0.050945092,0.0025683478,-0.7076222,0.64299953,1.0,1,0,0,0,0,0,0,2203,224c2092-44e1-4b73-879c-d0ad0c4b4c87
93642240,0.067554966,0.07662603,-1.572272,0.0,0.7047483,0.05093389,0.003169515,-0.7076196,0.6447946,1.0,1,0,0,0,0,0,0,2203,224c2092-44e1-4b73-879c-d0ad0c4b4c87
93741771,0.069478616,0.07709157,-1.572272,0.0,0.7046869,0.05177599,0.0026533792,-0.7076218,0.6450596,1.0,1,0,0,0,0,0,0,2203,224c2092-44e1-4b73-879c-d0ad0c4b4c87
93845820,0.067090794,0.07336696,-1.572272,0.0,0.70484185,0.049620133,0.0021823472,-0.7076235,0.6449616,1.0,1,0,0,0,0,0,0,2203,224c2092-44e1-4b73-879c-d0ad0c4b4c87
93946467,0.06724689,0.07339095,-1.572272,0.0,0.7048374,0.049683608,0.002135594,-0.70762366,0.6449443,1.0,1,0,0,0,0,0,0,2203,224c2092-44e1-4b73-879c-d0ad0c4b4c87
94050336,0.06807773,0.07403366,-1.572272,0.0,0.7048006,0.050203227,0.0020686972,-0.70762384,0.64353883,1.0,1,0,0,0,0,0,0,2203,224c2092-44e1-4b73-879c-d0ad0c4b4c87
94155020,0.06993245,0.07609019,-1.572272,0.0,0.704701,0.05158254,0.0021390256,-0.70762354,0.64398324,1.0,1,0,0,0,0,0,0,2203,224c2092-44e1-4b73-879c-d0ad0c4b4c87
94258343,0.06773094,0.0748838,-1.572272,0.0,0.7047879,0.050381057,0.0024917428,-0.7076224,0.6458044,1.0,1,0,0,0,0,0,0,2203,224c2092-44e1-4b73-879c-d0ad0c4b4c87
94358828,0.06785982,0.074397996,-1.572272,0.0,0.7047969,0.05025502,0.0022745142,-0.7076231,0.64605856,1.0,1,0,0,0,0,0,0,2203,224c2092-44e1-4b73-879c-d0ad0c4b4c87
94459890,0.06818455,0.07458093,-1.572272,0.0,0.7047841,0.050434023,0.0022242514,-0.7076234,0.6458393,1.0,1,0,0,0,0,0,0,2203,224c2092-44e1-4b73-879c-d0ad0c4b4c87
94564296,0.07026431,0.07581529,-1.572272,0.0,0.7046996,0.051602464,0.0019244913,-0.7076242,0.6442474,1.0,1,0,0,0,0,0,0,2203,224c2092-44e1-4b73-879c-d0ad0c4b4c87
94668127,0.07007447,0.07747463,-1.572272,0.0,0.7046615,0.052121088,0.0025778944,-0.70762205,0.64490265,1.0,1,0,0,0,0,0,0,2203,224c2092-44e1-4b73-879c-d0ad0c4b4c87
94767360,0.070704594,0.07618402,-1.572272,0.0,0.70467865,0.05188771,0.0018989829,-0.70762426,0.6449809,1.0,1,0,0,0,0,0,0,2203,224c2092-44e1-4b73-879c-d0ad0c4b4c87
94871323,0.0681896,0.07644158,-1.572272,0.0,0.70473677,0.05109242,0.002879813,-0.70762086,0.64572245,1.0,1,0,0,0,0,0,0,2203,224c2092-44e1-4b73-879c-d0ad0c4b4c87
94971880,0.06782813,0.076941304,-1.572272,0.0,0.7047332,0.051141404,0.0031842492,-0.70761967,0.64531404,1.0,1,0,0,0,0,0,0,2203,224c2092-44e1-4b73-879c-d0ad0c4b4c87
95071355,0.0674847,0.07660521,-1.572272,0.0,0.70475054,0.050901778,0.0031870224,-0.7076196,0.6457379,1.0,1,0,0,0,0,0,0,2203,224c2092-44e1-4b73-879c-d0ad0c4b4c87
95175496,0.0682721,0.07594356,-1.572272,0.0,0.7047474,0.050945748,0.0026746758,-0.7076217,0.64348716,1.0,1,0,0,0,0,0,0,2203,224c2092-44e1-4b73-879c-d0ad0c4b4c87
95276143,0.06785027,0.077203766,-1.572272,0.0,0.7047259,0.051241823,0.003269143,-0.70761925,0.64428735,1.0,1,0,0,0,0,0,0,2203,224c2092-44e1-4b73-879c-d0ad0c4b4c87
95377488,0.06899632,0.07751948,-1.572272,0.0,0.7046883,0.05175705,0.002975196,-0.7076205,0.64388174,1.0,1,0,0,0,0,0,0,2203,224c2092-44e1-4b73-879c-d0ad0c4b4c87
95481993,0.06872553,0.07905907,-1.572272,0.0,0.70465535,0.052204896,0.0036149288,-0.7076174,0.64520884,1.0,1,0,0,0,0,0,0,2203,224c2092-44e1-4b73-879c-d0ad0c4b4c87
95586199,0.06685756,0.077017054,-1.572272,0.0,0.7047561,0.05082613,0.0035544117,-0.70761776,0.6452728,1.0,1,0,0,0,0,0,0,2203,224c2092-44e1-4b73-879c-d0ad0c4b4c87
95689655,0.067659125,0.077399105,-1.572272,0.0,0.70472586,0.051243402,0.0034057824,-0.7076185,0.6439017,1.0,1,0,0,0,0,0,0,2203,224c2092-44e1-4b73-879c-d0ad0c4b4c87
95788925,0.06731854,0.07743147,-1.572272,0.0,0.7047337,0.051134806,0.0035377224,-0.70761794,0.643621,1.0,1,0,0,0,0,0,0,2203,224c2092-44e1-4b73-879c-d0ad0c4b4c87
95892901,0.06895312,0.07809598,-1.572272,0.0,0.7046745,0.05194525,0.003194149,-0.7076194,0.643725,1.0,1,0,0,0,0,0,0,2203,224c2092-44e1-4b73-879c-d0ad0c4b4c87
95993545,0.06999469,0.07802603,-1.572272,0.0,0.70464915,0.05228754,0.002800923,-0.70762116,0.64340043,1.0,1,0,0,0,0,0,0,2203,224c2092-44e1-4b73-879c-d0ad0c4b4c87
96097680,0.06741552,0.07659654,-1.572272,0.0,0.70475256,0.050874345,0.0032084344,-0.70761937,0.6447564,1.0,1,0,0,0,0,0,0,2203,224c2092-44e1-4b73-879c-d0ad0c4b4c87
96201921,0.06834365,0.076725535,-1.572272,0.0,0.70472556,0.051246904,0.0029256237,-0.7076207,0.6442625,1.0,1,0,0,0,0,0,0,2203,224c2092-44e1-4b73-879c-d0ad0c4b4c87
96306162,0.06955369,0.07700574,-1.572272,0.0,0.7046872,0.051772147,0.002596493,-0.70762205,0.64356506,1.0,1,0,0,0,0,0,0,2203,224c2092-44e1-4b73-879c-d0ad0c4b4c87
96407199,0.06923918,0.07763465,-1.572272,0.0,0.7046791,0.051883254,0.0029299562,-0.7076206,0.6443708,1.0,1,0,0,0,0,0,0,2203,224c2092-44e1-4b73-879c-d0ad0c4b4c87
96506585,0.06828361,0.076783866,-1.572272,0.0,0.7047256,0.05124633,0.002967474,-0.7076205,0.64432144,1.0,1,0,0,0,0,0,0,2203,224c2092-44e1-4b73-879c-d0ad0c4b4c87
96610689,0.06774329,0.075545125,-1.572272,0.0,0.7047709,0.050618794,0.0027210119,-0.7076216,0.64584404,1.0,1,0,0,0,0,0,0,2203,224c2092-44e1-4b73-879c-d0ad0c4b4c87
96712228,0.06665648,0.07692384,-1.572272,0.0,0.70476353,0.05072238,0.00359262,-0.7076176,0.6456943,1.0,1,0,0,0,0,0,0,2203,224c2092-44e1-4b73-879c-d0ad0c4b4c87
96815895,0.06716577,0.07367857,-1.572272,0.0,0.70483226,0.04975653,0.0022659067,-0.70762324,0.6450116,1.0,1,0,0,0,0,0,0,2203,224c2092-44e1-4b73-879c-d0ad0c4b4c87
96920162,0.068441175,0.07504798,-1.572272,0.0,0.7047658,0.050689273,0.002298454,-0.7076232,0.6457532,1.0,1,0,0,0,0,0,0,2203,224c2092-44e1-4b73-879c-d0ad0c4b4c87
97023132,0.064849615,0.076265246,-1.572272,0.0,0.7048255,0.049853213,0.003999233,-0.70761555,0.646366,1.0,1,0,0,0,0,0,0,2203,224c2092-44e1-4b73-879c-d0ad0c4b4c87
97122513,0.06595876,0.07509447,-1.572272,0.0,0.7048271,0.049830884,0.0031931852,-0.7076196,0.6463154,1.0,1,0,0,0,0,0,0,2203,224c2092-44e1-4b73-879c-d0ad0c4b4c87
97226448,0.0644618,0.07683116,-1.572272,0.0,0.70482105,0.04991628,0.004336377,-0.7076135,0.644748,1.0,1,0,0,0,0,0,0,2203,224c2092-44e1-4b73-879c-d0ad0c4b4c87
97328768,0.06587981,0.07895527,-1.572272,0.0,0.7047315,0.051165577,0.0045850975,-0.70761186,0.6453077,1.0,1,0,0,0,0,0,0,2203,224c2092-44e1-4b73-879c-d0ad0c4b4c87
97428120,0.06465007,0.07679748,-1.572272,0.0,0.7048172,0.04997074,0.004257864,-0.70761395,0.645226,1.0,1,0,0,0,0,0,0,2203,224c2092-44e1-4b73-879c-d0ad0c4b4c87
97528932,0.065656155,0.076576956,-1.572272,0.0,0.7047975,0.05024745,0.003823999,-0.70761645,0.6461096,1.0,1,0,0,0,0,0,0,2203,224c2092-44e1-4b73-879c-d0ad0c4b4c87
97632988,0.06280741,0.07912642,-1.572272,0.0,0.704805,0.05014332,0.00573258,-0.70760345,0.64761585,1.0,1,0,0,0,0,0,0,2203,224c2092-44e1-4b73-879c-d0ad0c4b4c87
97732130,0.06260279,0.07675612,-1.572272,0.0,0.70486903,0.049234636,0.0049675885,-0.70760936,0.64718556,1.0,1,0,0,0,0,0,0,2203,224c2092-44e1-4b73-879c-d0ad0c4b4c87
97836121,0.06415833,0.07520571,-1.572272,0.0,0.70486885,0.049235635,0.0038694972,-0.7076163,0.64673,1.0,1,0,0,0,0,0,0,2203,224c2092-44e1-4b73-879c-d0ad0c4b4c87
97937105,0.06330508,0.07641467,-1.572272,0.0,0.7048601,0.04936163,0.004598489,-0.7076118,0.64681524,1.0,1,0,0,0,0,0,0,2203,224c2092-44e1-4b73-879c-d0ad0c4b4c87
98036072,0.06378785,0.075267345,-1.572272,0.0,0.7048765,0.049126815,0.004022346,-0.7076154,0.6462808,1.0,1,0,0,0,0,0,0,2203,224c2092-44e1-4b73-879c-d0ad0c4b4c87
98140142,0.06557308,0.074346535,-1.572272,0.0,0.70485514,0.04943099,0.003065405,-0.7076202,0.64643186,1.0,1,0,0,0,0,0,0,2203,224c2092-44e1-4b73-879c-d0ad0c4b4c87
98241060,0.06613159,0.07523575,-1.572272,0.0,0.7048192,0.04994165,0.0031819497,-0.70761967,0.64628106,1.0,1,0,0,0,0,0,0,2203,224c2092-44e1-4b73-879c-d0ad0c4b4c87
98341854,0.06355925,0.07583265,-1.572272,0.0,0.7048682,0.04924578,0.004302944,-0.70761377,0.6477088,1.0,1,0,0,0,0,0,0,2203,224c2092-44e1-4b73-879c-d0ad0c4b4c87
98445802,0.0641731,0.07413841,-1.572272,0.0,0.7048947,0.048864126,0.0034872023,-0.70761824,0.6480719,1.0,1,0,0,0,0,0,0,2203,224c2092-44e1-4b73-879c-d0ad0c4b4c87
98546500,0.063238464,0.07392855,-1.572272,0.0,0.70492256,0.048460633,0.0037437414,-0.7076169,0.6474548,1.0,1,0,0,0,0,0,0,2203,224c2092-44e1-4b73-879c-d0ad0c4b4c87
98645825,0.06296403,0.074961305,-1.572272,0.0,0.7049041,0.048728444,0.0042056986,-0.7076144,0.64713514,1.0,1,0,0,0,0,0,0,2203,224c2092-44e1-4b73-879c-d0ad0c4b4c87
