timestamp,gyro_rad0,gyro_rad1,gyro_rad2,gyro_integral_dt,accelerometer_timestamp_relative,accelerometer_m_s20,accelerometer_m_s21,accelerometer_m_s22,accelerometer_integral_dt,basestation,flight_number
59526784,-0.033346944,-0.014330502,0.002402761,3968,0,0.030951604,0.2230873,-9.679309,3968,2203,224c2092-44e1-4b73-879c-d0ad0c4b4c87
59626790,0.0027721827,-0.03916018,0.009753082,4007,0,-0.1750153,-0.07445679,-9.806971,4007,2203,224c2092-44e1-4b73-879c-d0ad0c4b4c87
59730837,0.034605682,-0.030825013,0.011967192,4053,0,-0.25082213,0.022263998,-9.792622,4053,2203,224c2092-44e1-4b73-879c-d0ad0c4b4c87
59834784,0.007757244,-0.011232547,-0.017679641,3962,0,-0.3104991,0.049704004,-9.660808,3962,2203,224c2092-44e1-4b73-879c-d0ad0c4b4c87
59934784,0.00972819,0.0582293,0.013283387,3994,0,0.23535207,-0.023437612,-10.0740185,3994,2203,224c2092-44e1-4b73-879c-d0ad0c4b4c87
60034784,-0.021037854,-0.023100177,0.00939461,4000,0,0.08702826,-0.06447808,-9.750452,4000,2203,224c2092-44e1-4b73-879c-d0ad0c4b4c87
60136384,-0.007469496,0.0077771614,-0.0067979996,4000,0,0.20081107,0.45128787,-9.756568,4000,2203,224c2092-44e1-4b73-879c-d0ad0c4b4c87
60240392,-0.0096065765,-0.0017773987,-0.010561941,4008,0,0.015089028,-0.11705349,-9.8301,4008,2203,224c2092-44e1-4b73-879c-d0ad0c4b4c87
60340384,-0.0006646787,0.004426854,-0.007355632,3970,0,-0.2515075,0.2785716,-9.73012,3970,2203,224c2092-44e1-4b73-879c-d0ad0c4b4c87
60444431,0.00021410779,-0.014438159,0.0008193696,4048,0,-0.31954697,0.09925571,-9.710135,4048,2203,224c2092-44e1-4b73-879c-d0ad0c4b4c87
60548392,-0.041051652,0.0055542625,-0.023039589,4008,0,0.4157554,-0.16875109,-9.862258,4008,2203,224c2092-44e1-4b73-879c-d0ad0c4b4c87
60648386,-0.04065271,0.029016972,-0.04483367,4002,0,0.14404738,0.0072696214,-9.8624525,4002,2203,224c2092-44e1-4b73-879c-d0ad0c4b4c87
60752383,-0.025241338,0.0052837688,0.026036102,3999,0,0.2000144,0.11206738,-9.751207,3999,2203,224c2092-44e1-4b73-879c-d0ad0c4b4c87
60852387,0.016874362,-0.012859156,-0.013129202,3981,0,-0.046035137,0.119222835,-9.817001,3981,2203,224c2092-44e1-4b73-879c-d0ad0c4b4c87
60952384,0.023831349,-0.029740721,0.022476237,4000,0,0.18796536,0.30539197,-9.704767,4000,2203,224c2092-44e1-4b73-879c-d0ad0c4b4c87
61056407,0.015236685,0.0026866666,-0.008324868,4023,0,-0.011571176,-0.06285804,-10.010787,4023,2203,224c2092-44e1-4b73-879c-d0ad0c4b4c87
61157988,-0.046586286,0.032071292,0.008009361,4002,0,0.1506373,0.10497454,-10.035045,4002,2203,224c2092-44e1-4b73-879c-d0ad0c4b4c87
61257990,0.018492853,-0.057677213,-0.0038338215,4006,0,-0.33209878,0.031769693,-10.097247,4006,2203,224c2092-44e1-4b73-879c-d0ad0c4b4c87
61357984,-0.008013216,-0.03583377,0.011851697,3996,0,-0.11950687,-0.06659618,-10.006488,3996,2203,224c2092-44e1-4b73-879c-d0ad0c4b4c87
61461993,-0.02992864,-0.003557239,0.014377099,4009,0,0.24972118,0.22517945,-10.023626,4009,2203,224c2092-44e1-4b73-879c-d0ad0c4b4c87
61561984,-0.024533192,0.03964865,-0.006098268,4000,0,0.09557743,0.288341,-9.908265,4000,2203,224c2092-44e1-4b73-879c-d0ad0c4b4c87
61665984,-0.0049086884,-0.00043270426,0.0025955248,4000,0,0.005331487,0.2770577,-9.7899475,4000,2203,224c2092-44e1-4b73-879c-d0ad0c4b4c87
61765984,0.009040738,0.0021810718,0.004112068,4000,0,-0.09550171,-0.05917772,-9.677779,4000,2203,224c2092-44e1-4b73-879c-d0ad0c4b4c87
61865984,0.019822732,0.04012113,-0.013789194,4000,0,0.19637528,0.37556607,-9.76294,4000,2203,224c2092-44e1-4b73-879c-d0ad0c4b4c87
61969984,0.013839136,0.056480378,-0.00416388,4000,0,0.28446424,0.13791224,-9.196985,4000,2203,224c2092-44e1-4b73-879c-d0ad0c4b4c87
62069983,0.023417389,0.043869853,-0.0053006546,3984,0,-0.0003228646,0.12890936,-9.670365,3984,2203,224c2092-44e1-4b73-879c-d0ad0c4b4c87
62171584,0.03813472,0.051295772,0.008077598,3998,0,0.0138265025,0.20734861,-9.274622,3998,2203,224c2092-44e1-4b73-879c-d0ad0c4b4c87
62271584,0.025319284,0.031751007,0.03113994,4000,0,-0.09800535,0.21286869,-9.362133,4000,2203,224c2092-44e1-4b73-879c-d0ad0c4b4c87
62375629,-0.0084366985,-0.0346166,-0.017172646,4039,0,0.0662616,0.1511079,-10.099588,4039,2203,224c2092-44e1-4b73-879c-d0ad0c4b4c87
62475583,-0.05679821,-0.065582015,-0.014867041,3994,0,0.37690622,0.20920855,-9.966975,3994,2203,224c2092-44e1-4b73-879c-d0ad0c4b4c87
62579584,0.038710978,0.021951811,0.0074454215,4000,0,0.055134997,0.25535133,-9.699159,4000,2203,224c2092-44e1-4b73-879c-d0ad0c4b4c87
62679584,0.0038044376,0.015135342,0.00790821,4001,0,-0.050085764,0.09424974,-9.757484,4001,2203,224c2092-44e1-4b73-879c-d0ad0c4b4c87
62779621,0.025603367,0.041104995,-0.0073338253,4031,0,0.101143055,-0.22489606,-9.71487,4031,2203,224c2092-44e1-4b73-879c-d0ad0c4b4c87
62883584,-0.012487803,-0.02847284,-0.00562918,4000,0,0.11073089,0.11194125,-9.577952,4000,2203,224c2092-44e1-4b73-879c-d0ad0c4b4c87
62983588,-0.022756329,-0.01981679,-0.009776161,4004,0,0.12738405,0.042194787,-9.69912,4004,2203,224c2092-44e1-4b73-879c-d0ad0c4b4c87
63083584,0.038049534,-0.010362725,0.0031896061,4000,0,0.09453904,0.20195283,-9.656635,4000,2203,224c2092-44e1-4b73-879c-d0ad0c4b4c87
63188383,0.011614815,0.014508844,-0.0072606076,4000,0,-0.11933245,-0.098000385,-9.722658,4000,2203,224c2092-44e1-4b73-879c-d0ad0c4b4c87
63288390,0.029815635,0.003572358,-0.006871018,3979,0,-0.1470491,0.27210325,-9.585632,3979,2203,224c2092-44e1-4b73-879c-d0ad0c4b4c87
63388383,0.0055675833,0.031318896,-0.0045157,4000,0,0.14437588,0.040752653,-9.756678,4000,2203,224c2092-44e1-4b73-879c-d0ad0c4b4c87
63492383,-0.012583704,-0.010277455,0.010548079,4000,0,0.21330163,0.15279363,-9.868958,4000,2203,224c2092-44e1-4b73-879c-d0ad0c4b4c87
63592384,-0.042149454,-0.009380792,0.009037673,3998,0,0.26103026,0.07280516,-9.99727,3998,2203,224c2092-44e1-4b73-879c-d0ad0c4b4c87
63692384,-0.009648817,0.041698113,0.0039420314,3992,0,0.26222768,0.20827635,-9.829578,3992,2203,224c2092-44e1-4b73-879c-d0ad0c4b4c87
63796388,0.03237407,-0.023093125,-0.015468208,4005,0,0.32605198,0.22985652,-9.857425,4005,2203,224c2092-44e1-4b73-879c-d0ad0c4b4c87
63896386,-0.00014343212,-0.049783792,0.038655955,4002,0,-0.07898994,-0.09736425,-9.524046,4002,2203,224c2092-44e1-4b73-879c-d0ad0c4b4c87
64000384,-0.010841047,0.00691478,0.01405354,3993,0,0.05500547,0.07455215,-9.796747,3993,2203,224c2092-44e1-4b73-879c-d0ad0c4b4c87
64104388,-0.012870324,0.0010725801,-0.0017047792,4004,0,0.042904332,0.095525384,-9.51715,4004,2203,224c2092-44e1-4b73-879c-d0ad0c4b4c87
64204384,0.029025372,0.029556856,0.0027499893,4000,0,-0.30313185,-0.0954002,-9.6037245,4000,2203,224c2092-44e1-4b73-879c-d0ad0c4b4c87
64308384,-0.028349122,0.020714415,-0.019521069,4001,0,-0.06927527,-0.107606806,-9.93385,4001,2203,224c2092-44e1-4b73-879c-d0ad0c4b4c87
64408402,0.023653194,0.0068488945,0.0018110155,4019,0,-0.019698314,0.22918382,-9.976157,4019,2203,224c2092-44e1-4b73-879c-d0ad0c4b4c87
64509984,-0.018240437,0.017785048,-0.010923019,4000,0,0.11520087,-0.17806964,-9.676048,4000,2203,224c2092-44e1-4b73-879c-d0ad0c4b4c87
64609998,-0.03449887,-0.0486398,0.0006865255,4015,0,0.3010825,0.24520454,-9.548743,4015,2203,224c2092-44e1-4b73-879c-d0ad0c4b4c87
64713996,-0.03225302,-0.009284047,-0.00043330257,4012,0,-0.05318274,0.047718845,-9.454158,4012,2203,224c2092-44e1-4b73-879c-d0ad0c4b4c87
64813983,0.03202894,-0.0075319763,0.009833807,3999,0,0.21729568,0.7091666,-9.622924,3999,2203,224c2092-44e1-4b73-879c-d0ad0c4b4c87
64913983,-0.006248387,0.009573023,0.00063744537,4000,0,0.1703044,0.19834724,-9.642925,4000,2203,224c2092-44e1-4b73-879c-d0ad0c4b4c87
65017983,-0.0090061305,-0.008242736,0.009460104,3987,0,-0.011207994,-0.032459132,-9.933839,3987,2203,224c2092-44e1-4b73-879c-d0ad0c4b4c87
65117983,-0.008525353,0.021697238,0.020606793,3988,0,-0.23325284,0.012371845,-9.900273,3988,2203,224c2092-44e1-4b73-879c-d0ad0c4b4c87
65221997,-0.019274315,-0.03373377,-0.024974981,4011,0,0.14410025,0.29399234,-9.967416,4011,2203,224c2092-44e1-4b73-879c-d0ad0c4b4c87
65321984,0.016601598,-0.010568731,-0.024853284,4000,0,0.20682015,-0.031050127,-10.057502,4000,2203,224c2092-44e1-4b73-879c-d0ad0c4b4c87
65421984,-0.025544496,-0.039632566,0.00034338632,4000,0,-0.13333416,0.008634315,-9.792379,4000,2203,224c2092-44e1-4b73-879c-d0ad0c4b4c87
65523591,0.05524967,-0.011726181,-0.004725608,4007,0,0.4829602,0.1191976,-9.440889,4007,2203,224c2092-44e1-4b73-879c-d0ad0c4b4c87
65627590,-0.0491358,0.008932856,0.0065478343,4006,0,0.007166184,0.13134617,-10.16197,4006,2203,224c2092-44e1-4b73-879c-d0ad0c4b4c87
65727583,-0.0012424446,0.037253715,0.013035916,3999,0,0.1237719,0.10677041,-9.734679,3999,2203,224c2092-44e1-4b73-879c-d0ad0c4b4c87
65827602,-0.07235044,0.10216299,-0.010494468,4018,0,0.5047234,-0.89917505,-6.5439043,4018,2203,224c2092-44e1-4b73-879c-d0ad0c4b4c87
65931584,0.07651546,-0.2217431,0.03443195,4000,0,0.2559234,1.2918591,-10.130957,4000,2203,224c2092-44e1-4b73-879c-d0ad0c4b4c87
66031596,-0.0035227865,0.0005197499,-0.053879432,4006,0,-0.7121191,0.993637,-12.579628,4006,2203,224c2092-44e1-4b73-879c-d0ad0c4b4c87
66135584,0.029660916,-0.11199886,-0.036383305,4000,0,0.7428767,0.51489747,-11.078469,4000,2203,224c2092-44e1-4b73-879c-d0ad0c4b4c87
66235584,-0.18871057,-0.018453652,-0.027216142,3995,0,-0.7277398,0.061979324,-13.314843,3995,2203,224c2092-44e1-4b73-879c-d0ad0c4b4c87
66335583,-0.08334386,-0.015219027,-0.05818123,3999,0,-0.49502382,0.41471177,-12.382862,3999,2203,224c2092-44e1-4b73-879c-d0ad0c4b4c87
66439584,-0.08619484,0.025076596,-0.037812155,4000,0,0.12289776,0.1607083,-11.737178,4000,2203,224c2092-44e1-4b73-879c-d0ad0c4b4c87
66541208,0.018297644,-0.039165225,-0.07572005,4018,0,0.1542653,0.81471455,-9.7487545,4018,2203,224c2092-44e1-4b73-879c-d0ad0c4b4c87
66645198,-0.100118764,0.020523153,-0.016856698,4015,0,-0.082906194,-0.20231697,-11.586987,4015,2203,224c2092-44e1-4b73-879c-d0ad0c4b4c87
66745189,0.16738777,0.06574575,0.013890735,4006,0,-0.096917726,0.40709963,-9.307725,4006,2203,224c2092-44e1-4b73-879c-d0ad0c4b4c87
66849188,-0.027856907,0.05325606,0.039685432,3997,0,-0.3976007,-0.61579305,-10.283885,3997,2203,224c2092-44e1-4b73-879c-d0ad0c4b4c87
66949187,-0.12583993,0.030401912,0.026506418,3984,0,-0.5585675,0.48802003,-11.033856,3984,2203,224c2092-44e1-4b73-879c-d0ad0c4b4c87
67049191,0.07192237,-0.111191414,-0.08607656,4004,0,-0.85880476,0.83611304,-10.585478,4004,2203,224c2092-44e1-4b73-879c-d0ad0c4b4c87
67153206,0.046329364,-0.033267032,0.049474813,4021,0,0.046108775,-0.739435,-9.179061,4021,2203,224c2092-44e1-4b73-879c-d0ad0c4b4c87
67253188,0.061840132,-0.050110407,0.03426205,4001,0,-0.21525888,0.38522002,-9.430511,4001,2203,224c2092-44e1-4b73-879c-d0ad0c4b4c87
67357183,-0.04708791,-0.00083185075,-0.043133907,3999,0,-0.09616974,0.6594202,-9.162926,3999,2203,224c2092-44e1-4b73-879c-d0ad0c4b4c87
67461983,-0.04015021,0.046508282,-0.07522753,4779,0,-0.34466097,0.019168306,-10.517131,4779,2203,224c2092-44e1-4b73-879c-d0ad0c4b4c87
67562784,-0.103403024,0.08267806,-0.05530396,4001,0,-0.34726623,0.1243386,-10.345445,4001,2203,224c2092-44e1-4b73-879c-d0ad0c4b4c87
67662784,0.01969138,0.0077998047,-0.0028163225,3994,0,-0.24064292,0.51367015,-9.892493,3994,2203,224c2092-44e1-4b73-879c-d0ad0c4b4c87
67766799,0.11027725,-0.010678699,0.01651183,4016,0,-0.68959206,-0.0731834,-10.351348,4016,2203,224c2092-44e1-4b73-879c-d0ad0c4b4c87
67870783,0.090463795,0.06142595,-0.014746195,3998,0,-0.20269631,0.65773994,-10.7923155,3998,2203,224c2092-44e1-4b73-879c-d0ad0c4b4c87
67970784,0.056956064,0.0036270912,-0.10290261,4000,0,-0.8897892,0.06963024,-10.774347,4000,2203,224c2092-44e1-4b73-879c-d0ad0c4b4c87
68070823,-0.006214985,-0.039560113,-0.043351326,4038,0,-1.143599,0.43883148,-10.031535,4038,2203,224c2092-44e1-4b73-879c-d0ad0c4b4c87
68174816,0.09507352,0.037390113,-0.01820892,4026,0,-0.5565822,0.78274596,-10.878152,4026,2203,224c2092-44e1-4b73-879c-d0ad0c4b4c87
68274783,0.080767944,0.000173686,-0.008620899,3952,0,-0.8093047,0.25661662,-10.212501,3952,2203,224c2092-44e1-4b73-879c-d0ad0c4b4c87
68378784,0.08024636,0.028139453,-0.0026316347,4000,0,-0.10270151,0.086235516,-9.993409,4000,2203,224c2092-44e1-4b73-879c-d0ad0c4b4c87
68480384,0.060516015,0.047258828,-0.065872766,4001,0,-0.04588997,-0.1489689,-10.580149,4001,2203,224c2092-44e1-4b73-879c-d0ad0c4b4c87
68584383,-0.03000536,0.0656388,-0.049608417,3981,0,0.61957955,0.53699774,-10.14191,3981,2203,224c2092-44e1-4b73-879c-d0ad0c4b4c87
68684390,0.033097994,0.007988271,-0.010992099,4006,0,0.056995265,0.070889056,-10.238435,4006,2203,224c2092-44e1-4b73-879c-d0ad0c4b4c87
68788384,-0.028498147,-0.008275627,-0.0013335638,4001,0,0.13747394,0.41190422,-9.186649,4001,2203,224c2092-44e1-4b73-879c-d0ad0c4b4c87
68888383,-0.027343223,0.06953397,-0.018192675,3999,0,0.65191233,0.403953,-9.4994,3999,2203,224c2092-44e1-4b73-879c-d0ad0c4b4c87
68988384,0.027158447,0.075695656,0.050900668,3968,0,0.23274946,0.7019942,-9.796416,3968,2203,224c2092-44e1-4b73-879c-d0ad0c4b4c87
69092398,-0.007258156,-0.03878489,0.03894265,4015,0,-0.2077852,0.5484168,-9.124616,4015,2203,224c2092-44e1-4b73-879c-d0ad0c4b4c87
69192404,-0.003936911,0.00042927143,-0.016179798,4020,0,0.34934467,0.30772218,-8.918613,4020,2203,224c2092-44e1-4b73-879c-d0ad0c4b4c87
69292394,0.039679367,0.005901836,0.076253876,4010,0,0.5169804,0.8557059,-9.698808,4010,2203,224c2092-44e1-4b73-879c-d0ad0c4b4c87
69396424,-0.009278262,-0.0365645,0.026750088,4041,0,-0.22546849,0.39872137,-8.94986,4041,2203,224c2092-44e1-4b73-879c-d0ad0c4b4c87
69497983,-0.010525046,-0.013524953,-0.037222147,4000,0,0.5184143,0.7927641,-8.82629,4000,2203,224c2092-44e1-4b73-879c-d0ad0c4b4c87
69601984,0.039905272,-0.06102363,-0.053524762,3992,0,-0.29053566,-0.29622817,-9.994195,3992,2203,224c2092-44e1-4b73-879c-d0ad0c4b4c87
69701984,-0.010543421,-0.09471261,0.053662404,4000,0,-0.13743779,-0.040595,-9.502929,4000,2203,224c2092-44e1-4b73-879c-d0ad0c4b4c87
69805990,-0.0289027,-0.05199998,0.040848244,4000,0,-0.96084815,1.0689328,-10.947885,4000,2203,224c2092-44e1-4b73-879c-d0ad0c4b4c87
69906030,-0.032779805,-0.06064145,-0.07303897,4042,0,-0.47114474,0.70964813,-10.174202,4042,2203,224c2092-44e1-4b73-879c-d0ad0c4b4c87
70009983,0.022291152,-0.00048028605,-0.071166284,3997,0,-0.52899384,0.7669858,-10.360104,3997,2203,224c2092-44e1-4b73-879c-d0ad0c4b4c87
70113984,0.052959755,0.070048794,-0.11033588,3994,0,0.15460676,-0.3515807,-10.402135,3994,2203,224c2092-44e1-4b73-879c-d0ad0c4b4c87
70213983,0.013161752,-0.034865398,0.015330341,3993,0,-0.781795,0.0905278,-10.193137,3993,2203,224c2092-44e1-4b73-879c-d0ad0c4b4c87
70317983,0.05899604,-0.0144517105,0.03221261,3999,0,-0.5596173,0.31078878,-10.777666,3999,2203,224c2092-44e1-4b73-879c-d0ad0c4b4c87
70417984,0.024102204,-0.06419702,-0.07466229,4001,0,-0.9467573,0.21898754,-10.487597,4001,2203,224c2092-44e1-4b73-879c-d0ad0c4b4c87
70519583,-0.043608718,-0.059638686,0.010326367,3999,0,-0.89548737,0.48563743,-10.678358,3999,2203,224c2092-44e1-4b73-879c-d0ad0c4b4c87
70619596,-0.009555137,-0.044180933,-0.07541656,4013,0,-0.25547823,1.1011012,-9.839277,4013,2203,224c2092-44e1-4b73-879c-d0ad0c4b4c87
70723584,0.06231559,-0.016631586,-0.014744927,4000,0,-0.6697415,-0.031656533,-10.201081,4000,2203,224c2092-44e1-4b73-879c-d0ad0c4b4c87
70827603,0.031075086,0.053875927,-0.00017393472,4006,0,-0.31542334,0.24524783,-10.744437,4006,2203,224c2092-44e1-4b73-879c-d0ad0c4b4c87
70927584,0.019444244,-0.007874322,-0.041327138,4001,0,-0.8597306,0.25684097,-10.951062,4001,2203,224c2092-44e1-4b73-879c-d0ad0c4b4c87
71031584,-0.07728428,0.13358659,-0.051575333,3999,0,0.18543851,0.1006802,-10.316467,3999,2203,224c2092-44e1-4b73-879c-d0ad0c4b4c87
71131593,0.004691594,0.12416019,-0.044724733,4009,0,-0.058494236,0.4746207,-10.597667,4009,2203,224c2092-44e1-4b73-879c-d0ad0c4b4c87
71231594,0.04153707,0.040519428,-0.027726782,4011,0,-0.38015127,0.064429134,-10.525886,4011,2203,224c2092-44e1-4b73-879c-d0ad0c4b4c87
71335583,-0.070273444,0.06299051,-0.015317707,3999,0,0.38445094,0.12410879,-10.028514,3999,2203,224c2092-44e1-4b73-879c-d0ad0c4b4c87
71435584,-0.034717433,0.07896332,-0.028056117,4000,0,0.25800103,0.34531835,-10.344245,4000,2203,224c2092-44e1-4b73-879c-d0ad0c4b4c87
71537192,0.00092368195,0.023666203,-0.033730175,3999,0,0.2196826,-0.1057496,-9.843166,3999,2203,224c2092-44e1-4b73-879c-d0ad0c4b4c87
71641191,-0.08887819,0.008007455,-0.09265116,3998,0,0.42150846,0.7245167,-8.793164,3998,2203,224c2092-44e1-4b73-879c-d0ad0c4b4c87
71741193,0.024118058,-0.023592908,0.06400189,3989,0,0.3122425,0.7757122,-9.107677,3989,2203,224c2092-44e1-4b73-879c-d0ad0c4b4c87
71841192,-0.00712485,0.014540416,-0.062368292,3966,0,0.593005,0.011332367,-8.868998,3966,2203,224c2092-44e1-4b73-879c-d0ad0c4b4c87
71945212,-0.05912127,-0.01831028,-0.012733653,4019,0,-0.5169634,0.71174765,-10.374414,4019,2203,224c2092-44e1-4b73-879c-d0ad0c4b4c87
72045186,-0.0344959,-0.07546527,-0.01356083,4000,0,-0.8271014,0.9143765,-10.146025,4000,2203,224c2092-44e1-4b73-879c-d0ad0c4b4c87
72145190,0.03789703,-0.049112,0.038755033,3993,0,-0.47332466,0.6024529,-9.730727,3993,2203,224c2092-44e1-4b73-879c-d0ad0c4b4c87
72249184,0.068729974,0.007790279,0.047989015,3991,0,-0.13299856,0.75086397,-10.71901,3991,2203,224c2092-44e1-4b73-879c-d0ad0c4b4c87
72349188,0.027395254,0.015223515,-0.040787287,4005,0,-0.5968963,-0.01467008,-10.301881,4005,2203,224c2092-44e1-4b73-879c-d0ad0c4b4c87
72453192,-0.012761415,0.078389846,0.018249672,4008,0,0.30061892,0.012534784,-10.264985,4008,2203,224c2092-44e1-4b73-879c-d0ad0c4b4c87
72554799,0.053980637,0.028639607,-0.02120996,3988,0,0.056385122,-0.21957359,-10.089861,3988,2203,224c2092-44e1-4b73-879c-d0ad0c4b4c87
72658784,0.060438264,-0.027761437,0.0063742683,4001,0,0.28252852,0.83612955,-8.627189,4001,2203,224c2092-44e1-4b73-879c-d0ad0c4b4c87
72758784,-0.013390019,-0.038760938,-0.05845584,4001,0,0.66675794,0.6309176,-9.2528515,4001,2203,224c2092-44e1-4b73-879c-d0ad0c4b4c87
72862791,-0.12149677,-0.05258265,-0.05337846,4001,0,-0.7124363,0.7065465,-10.824655,4001,2203,224c2092-44e1-4b73-879c-d0ad0c4b4c87
72966784,-0.015788876,0.106392644,-0.07793982,3992,0,0.3678326,-0.15533134,-10.708138,3992,2203,224c2092-44e1-4b73-879c-d0ad0c4b4c87
73066784,0.009102812,0.09713163,0.037774842,4001,0,-0.39868218,-0.68724406,-10.09399,4001,2203,224c2092-44e1-4b73-879c-d0ad0c4b4c87
73166790,-0.069908634,0.10389481,-0.09555115,3991,0,-0.008133121,0.051934045,-10.449916,3991,2203,224c2092-44e1-4b73-879c-d0ad0c4b4c87
73270806,0.07742527,-0.00083723,-0.03517929,4022,0,0.36499777,-0.0059641707,-9.496677,4022,2203,224c2092-44e1-4b73-879c-d0ad0c4b4c87
73370783,0.019365063,-0.0030965733,0.0688552,3989,0,0.026538853,0.07190617,-9.527445,3989,2203,224c2092-44e1-4b73-879c-d0ad0c4b4c87
73471583,0.0041193906,0.027389312,-0.0070137377,4762,0,0.33567163,0.35740018,-9.489482,4762,2203,224c2092-44e1-4b73-879c-d0ad0c4b4c87
73575584,0.02713947,-0.009090928,-0.0013157276,4001,0,-0.3820405,0.2975841,-9.303848,4001,2203,224c2092-44e1-4b73-879c-d0ad0c4b4c87
73675583,0.026073962,0.00373718,0.005254819,3999,0,-0.15067416,0.39423364,-8.662073,3999,2203,224c2092-44e1-4b73-879c-d0ad0c4b4c87
73779583,0.008173353,-0.03888243,-0.0034242836,3960,0,-0.51973253,0.21417883,-10.443208,3960,2203,224c2092-44e1-4b73-879c-d0ad0c4b4c87
73879583,0.03144161,-0.050903354,-0.0386351,3999,0,-0.3673763,0.17419611,-10.257067,3999,2203,224c2092-44e1-4b73-879c-d0ad0c4b4c87
73979584,-0.083786674,-0.07621631,-0.005946461,4000,0,-0.7436677,0.013955597,-9.484517,4000,2203,224c2092-44e1-4b73-879c-d0ad0c4b4c87
74083584,-0.09625041,0.017220883,-0.04645875,3995,0,-0.0041762097,-0.1637148,-10.68397,3995,2203,224c2092-44e1-4b73-879c-d0ad0c4b4c87
74183586,0.03483372,0.038155153,0.00849492,4002,0,-0.24886277,-0.23104541,-10.859038,4002,2203,224c2092-44e1-4b73-879c-d0ad0c4b4c87
74283584,-0.12716393,0.01925067,-0.050156347,3996,0,-0.5491504,-0.113963425,-11.014759,3996,2203,224c2092-44e1-4b73-879c-d0ad0c4b4c87
74387638,-0.04538639,0.042749327,-0.04281568,4054,0,0.46019,0.21454766,-9.885206,4054,2203,224c2092-44e1-4b73-879c-d0ad0c4b4c87
74487583,0.077788025,0.032374818,0.010137233,4000,0,0.27789426,-0.45549908,-9.5955105,4000,2203,224c2092-44e1-4b73-879c-d0ad0c4b4c87
74591584,-0.014559178,-0.029217897,-0.044134986,4001,0,0.5684921,0.68115187,-8.620581,4001,2203,224c2092-44e1-4b73-879c-d0ad0c4b4c87
74695593,0.036212727,-0.0447887,-0.031529218,4009,0,-0.57990134,0.15650965,-10.4755535,4009,2203,224c2092-44e1-4b73-879c-d0ad0c4b4c87
74795584,0.042860728,-0.026787197,0.0703624,3975,0,-0.8062334,0.26982948,-9.905911,3975,2203,224c2092-44e1-4b73-879c-d0ad0c4b4c87
74897183,-0.16850558,-0.041903593,0.009658222,3992,0,-0.5964556,0.968617,-8.858968,3992,2203,224c2092-44e1-4b73-879c-d0ad0c4b4c87
75001187,-0.14872937,-0.05026185,-0.042206075,4000,0,0.41846728,0.05472513,-7.6774325,4000,2203,224c2092-44e1-4b73-879c-d0ad0c4b4c87
75105193,0.16068938,0.08097562,0.054084815,3971,0,-0.21457879,-0.4542965,-8.350919,3971,2203,224c2092-44e1-4b73-879c-d0ad0c4b4c87
75205186,-0.047498222,0.086640134,0.015802566,3999,0,0.19482198,-2.46886,-7.343141,3999,2203,224c2092-44e1-4b73-879c-d0ad0c4b4c87
75309196,-0.016627055,-0.11863538,-0.07970858,4008,0,0.19886969,3.3015683,-8.929746,4008,2203,224c2092-44e1-4b73-879c-d0ad0c4b4c87
75409183,0.19965422,-0.070117615,0.039678395,4000,0,-0.47770506,0.9548833,-8.795662,4000,2203,224c2092-44e1-4b73-879c-d0ad0c4b4c87
75509183,0.20139687,-0.077461235,-0.04579527,3944,0,-0.20902388,-1.3747936,-8.688503,3944,2203,224c2092-44e1-4b73-879c-d0ad0c4b4c87
75613214,-0.07876913,-0.0017869006,-0.0069481414,4031,0,0.24531719,1.5280217,-8.111948,4031,2203,224c2092-44e1-4b73-879c-d0ad0c4b4c87
75713222,0.14426334,-0.06156955,0.077236444,4039,0,-0.20924793,0.30864406,-9.268649,4039,2203,224c2092-44e1-4b73-879c-d0ad0c4b4c87
75814830,-0.085596114,-0.06257306,-0.08439129,4047,0,0.49072838,0.75460523,-8.395776,4047,2203,224c2092-44e1-4b73-879c-d0ad0c4b4c87
75914799,0.06967057,-0.00678325,0.051438466,4015,0,0.39086413,1.1501652,-10.042929,4015,2203,224c2092-44e1-4b73-879c-d0ad0c4b4c87
76018790,0.04601284,0.014708795,0.074073955,4006,0,-0.5068002,0.29308334,-9.298403,4006,2203,224c2092-44e1-4b73-879c-d0ad0c4b4c87
76118784,0.005421989,-0.051555213,-0.06412762,4000,0,0.51573175,-0.0013118339,-8.652829,4000,2203,224c2092-44e1-4b73-879c-d0ad0c4b4c87
76222791,0.07519411,0.017472265,0.095828146,4005,0,0.12267104,-0.13264927,-8.619957,4005,2203,224c2092-44e1-4b73-879c-d0ad0c4b4c87
76322787,0.6734199,0.31771743,-0.09897543,3978,0,-0.587605,1.686321,-11.348144,3978,2203,224c2092-44e1-4b73-879c-d0ad0c4b4c87
76422784,0.60112673,0.40235302,-0.007472327,3986,0,0.2155483,-0.64772433,-12.48287,3986,2203,224c2092-44e1-4b73-879c-d0ad0c4b4c87
76526789,0.067111954,-0.02695927,-0.025460266,4006,0,-0.025819167,0.23284498,-14.302414,4006,2203,224c2092-44e1-4b73-879c-d0ad0c4b4c87
76626784,-0.27070177,-0.03733315,-0.028577726,4000,0,-0.15262854,0.0012814845,-13.952674,4000,2203,224c2092-44e1-4b73-879c-d0ad0c4b4c87
76726792,-0.3296594,-0.0769244,0.0011083239,3979,0,0.17357735,0.02641129,-12.166262,3979,2203,224c2092-44e1-4b73-879c-d0ad0c4b4c87
76828384,-0.21431626,-0.19420327,0.003953079,4000,0,-0.15786448,0.37152362,-11.070188,4000,2203,224c2092-44e1-4b73-879c-d0ad0c4b4c87
76932384,-0.20762978,-0.19102795,0.020798316,4001,0,0.30256858,0.2841359,-9.434564,4001,2203,224c2092-44e1-4b73-879c-d0ad0c4b4c87
77032430,-0.1983791,-0.2457483,-0.007096599,4044,0,-0.03300173,0.25150374,-10.053648,4044,2203,224c2092-44e1-4b73-879c-d0ad0c4b4c87
77136391,-0.19540255,-0.08030536,0.029622443,4007,0,0.008547762,0.119395606,-10.56075,4007,2203,224c2092-44e1-4b73-879c-d0ad0c4b4c87
77236384,-0.20992881,-0.06451695,-0.023267083,4000,0,0.14544803,-0.40496117,-10.057749,4000,2203,224c2092-44e1-4b73-879c-d0ad0c4b4c87
77336383,-0.15879826,-0.123524375,-0.039905,4000,0,0.43184778,-0.83681995,-10.035487,4000,2203,224c2092-44e1-4b73-879c-d0ad0c4b4c87
77440384,-0.15566523,-0.13628557,0.02290907,3991,0,-0.3610311,0.57922244,-9.225238,3991,2203,224c2092-44e1-4b73-879c-d0ad0c4b4c87
77540384,-0.0925599,-0.10340253,0.023963047,3994,0,-0.510723,0.53492606,-9.411539,3994,2203,224c2092-44e1-4b73-879c-d0ad0c4b4c87
77640384,-0.03735242,-0.04222491,0.0169118,4001,0,-0.485194,0.1650124,-9.9107485,4001,2203,224c2092-44e1-4b73-879c-d0ad0c4b4c87
77744387,0.077379785,0.08532422,0.011450599,3991,0,0.19118088,0.040369127,-9.889693,3991,2203,224c2092-44e1-4b73-879c-d0ad0c4b4c87
77845193,0.13250785,0.08000904,0.06863933,3945,0,0.3539285,0.3245049,-9.321542,3945,2203,224c2092-44e1-4b73-879c-d0ad0c4b4c87
77945213,0.18554448,0.067744486,0.085641,3999,0,0.37827522,0.48627096,-9.202181,3999,2203,224c2092-44e1-4b73-879c-d0ad0c4b4c87
78049225,0.029294046,0.009687157,-0.041887563,4038,0,-0.04151898,0.05072707,-9.9017935,4038,2203,224c2092-44e1-4b73-879c-d0ad0c4b4c87
78149227,0.05007344,0.030713702,-0.062844045,4034,0,-0.14956447,0.046574935,-9.916885,4034,2203,224c2092-44e1-4b73-879c-d0ad0c4b4c87
78249195,0.13647209,0.015167405,-0.015596638,3994,0,-0.41265482,0.14383721,-9.83217,3994,2203,224c2092-44e1-4b73-879c-d0ad0c4b4c87
78353183,-0.07749168,0.14106458,-0.07928192,3999,0,-0.14024459,-0.07672573,-10.45175,3999,2203,224c2092-44e1-4b73-879c-d0ad0c4b4c87
78453218,0.05792181,0.11745947,-0.09451016,4020,0,-0.07630164,0.13656648,-10.512423,4020,2203,224c2092-44e1-4b73-879c-d0ad0c4b4c87
78557227,0.09706435,0.08274087,-0.030570893,4001,0,0.20568912,-0.25456545,-9.845789,4001,2203,224c2092-44e1-4b73-879c-d0ad0c4b4c87
78661216,-0.0031748542,0.031130005,0.00035610126,4033,0,0.101071395,0.38687018,-8.534268,4033,2203,224c2092-44e1-4b73-879c-d0ad0c4b4c87
78761183,0.10932475,0.0642529,-0.03259977,3984,0,0.90290403,0.37540433,-8.870588,3984,2203,224c2092-44e1-4b73-879c-d0ad0c4b4c87
78865191,0.07236662,0.009855623,-0.050787482,4008,0,-0.53013724,0.27441844,-9.710149,4008,2203,224c2092-44e1-4b73-879c-d0ad0c4b4c87
78965183,0.01205488,-0.03247715,0.049776584,3996,0,-0.3232336,0.52756256,-9.353822,3996,2203,224c2092-44e1-4b73-879c-d0ad0c4b4c87
79065187,-0.06021476,0.006483706,-0.07896945,3992,0,0.31266633,0.8440838,-9.323581,3992,2203,224c2092-44e1-4b73-879c-d0ad0c4b4c87
79166783,-0.04048675,-0.04039474,0.01945131,3993,0,-0.2627169,0.7647005,-9.651774,3993,2203,224c2092-44e1-4b73-879c-d0ad0c4b4c87
79270784,0.031964693,-0.0031142493,0.051970046,3968,0,-0.60685396,0.21974142,-10.715615,3968,2203,224c2092-44e1-4b73-879c-d0ad0c4b4c87
79374784,0.07180837,0.11548918,0.10376671,4000,0,0.37727264,-0.06488587,-9.662738,4000,2203,224c2092-44e1-4b73-879c-d0ad0c4b4c87
79474813,-0.08721476,0.054891177,-0.024227746,4013,0,0.31537426,0.16302146,-10.35084,4013,2203,224c2092-44e1-4b73-879c-d0ad0c4b4c87
79578788,0.015448603,0.043534134,0.11959404,4004,0,-0.24697287,-0.3738148,-9.53278,4004,2203,224c2092-44e1-4b73-879c-d0ad0c4b4c87
79678784,-0.1183532,0.035784584,-0.08216133,4000,0,0.08089283,0.17620824,-10.672694,4000,2203,224c2092-44e1-4b73-879c-d0ad0c4b4c87
79778810,0.096771,-0.018206906,-0.086958244,4027,0,-0.08335532,0.7347651,-10.880601,4027,2203,224c2092-44e1-4b73-879c-d0ad0c4b4c87
79882783,-0.04240678,0.023249475,-0.09446798,3985,0,0.40530485,-0.3898401,-10.2648945,3985,2203,224c2092-44e1-4b73-879c-d0ad0c4b4c87
79982784,0.010242623,0.021240933,-0.08484793,3993,0,0.19922708,-0.52397764,-10.299351,3993,2203,224c2092-44e1-4b73-879c-d0ad0c4b4c87
80086791,-0.038721975,-0.04483422,-0.10403645,4006,0,0.4091801,0.47995797,-9.431744,4006,2203,224c2092-44e1-4b73-879c-d0ad0c4b4c87
80188427,0.07744543,-0.005686145,-0.033681404,4043,0,0.55971444,0.9762634,-8.847758,4043,2203,224c2092-44e1-4b73-879c-d0ad0c4b4c87
80292384,-0.10179557,-0.080570124,-0.090140834,4001,0,-0.21473534,-0.047431953,-10.664186,4001,2203,224c2092-44e1-4b73-879c-d0ad0c4b4c87
80392384,-0.093442716,-0.048420377,-0.0792817,3992,0,-0.74782175,-0.43390587,-10.890925,3992,2203,224c2092-44e1-4b73-879c-d0ad0c4b4c87
80492385,-0.033208124,-0.10944733,-0.056893855,4002,0,-0.6657346,-0.2647038,-10.545035,4002,2203,224c2092-44e1-4b73-879c-d0ad0c4b4c87
80596398,0.047230005,0.07085395,0.057742115,3982,0,0.4327407,-0.52211577,-9.547466,3982,2203,224c2092-44e1-4b73-879c-d0ad0c4b4c87
80696383,0.058980346,0.04707066,0.040442925,3999,0,0.39406538,-0.48535022,-9.635238,3999,2203,224c2092-44e1-4b73-879c-d0ad0c4b4c87
80800384,-0.097373694,-0.06417776,-0.029457556,4000,0,0.13058592,0.83119214,-9.254436,4000,2203,224c2092-44e1-4b73-879c-d0ad0c4b4c87
80904383,0.08016554,-0.011373273,0.054065544,3993,0,-0.15453838,-0.09487603,-10.381999,3993,2203,224c2092-44e1-4b73-879c-d0ad0c4b4c87
81004384,0.09345725,-0.0053542666,0.02954656,4000,0,-0.34985378,0.17841646,-10.67843,4000,2203,224c2092-44e1-4b73-879c-d0ad0c4b4c87
81108394,-0.09135944,0.042796116,-0.006900515,4010,0,0.2809124,-0.9209913,-9.537606,4010,2203,224c2092-44e1-4b73-879c-d0ad0c4b4c87
81210028,0.03304081,0.012229855,0.01479741,4044,0,0.8118045,-0.62038106,-9.298738,4044,2203,224c2092-44e1-4b73-879c-d0ad0c4b4c87
81313983,-0.049002163,-0.015964191,0.018480495,3999,0,-0.34649447,0.64868987,-9.279746,3999,2203,224c2092-44e1-4b73-879c-d0ad0c4b4c87
81413990,-0.12804084,0.024419047,-0.010707033,4002,0,-0.03502138,0.36897826,-8.866901,4002,2203,224c2092-44e1-4b73-879c-d0ad0c4b4c87
81517984,0.12509762,-0.023040641,0.0708166,3972,0,-0.19601437,0.48823783,-10.174294,3972,2203,224c2092-44e1-4b73-879c-d0ad0c4b4c87
81617984,0.089132234,-0.06381497,0.071940854,3999,0,-0.67847365,0.56534064,-10.0744295,3999,2203,224c2092-44e1-4b73-879c-d0ad0c4b4c87
81717984,0.013118296,-0.09973022,0.04231568,4001,0,-0.5331862,0.26387548,-9.932598,4001,2203,224c2092-44e1-4b73-879c-d0ad0c4b4c87
81821984,0.03160058,0.04795689,-0.013998946,4000,0,0.047190335,-0.41540888,-10.178937,4000,2203,224c2092-44e1-4b73-879c-d0ad0c4b4c87
81921984,0.026400262,0.032783557,0.0552095,3960,0,0.04162809,-0.3874138,-10.115799,3960,2203,224c2092-44e1-4b73-879c-d0ad0c4b4c87
82021984,-0.01628719,-0.03032679,0.09957107,3999,0,-0.37178308,-0.26880032,-10.282656,3999,2203,224c2092-44e1-4b73-879c-d0ad0c4b4c87
82126804,0.12879571,0.02141224,0.011253586,4021,0,0.35225606,0.668896,-9.343816,4021,2203,224c2092-44e1-4b73-879c-d0ad0c4b4c87
82226791,0.06700661,0.04672411,0.02089937,4008,0,-0.06566612,0.31066063,-9.824591,4008,2203,224c2092-44e1-4b73-879c-d0ad0c4b4c87
82326801,0.005704796,0.051180582,0.021216756,4018,0,-0.08727626,0.024723988,-10.184911,4018,2203,224c2092-44e1-4b73-879c-d0ad0c4b4c87
82430790,-0.03626529,0.038401004,-0.08636304,4007,0,0.48822433,-0.1269981,-9.652331,4007,2203,224c2092-44e1-4b73-879c-d0ad0c4b4c87
82530784,-0.11716178,0.028967684,-0.10112394,4000,0,0.50334865,0.25104854,-9.313396,4000,2203,224c2092-44e1-4b73-879c-d0ad0c4b4c87
82634804,-0.02221122,0.05482447,0.03155801,4020,0,-0.3303778,-0.13215436,-10.27407,4020,2203,224c2092-44e1-4b73-879c-d0ad0c4b4c87
82738792,-0.114418544,0.037333567,-0.0964001,3973,0,0.71575266,0.7836448,-9.184535,3973,2203,224c2092-44e1-4b73-879c-d0ad0c4b4c87
82842784,0.16025291,0.00762263,0.060176723,4001,0,-0.05329216,0.09327813,-10.526237,4001,2203,224c2092-44e1-4b73-879c-d0ad0c4b4c87
82942792,0.05192784,0.108017355,0.064466156,4008,0,-0.07317171,-0.20975958,-10.383209,4008,2203,224c2092-44e1-4b73-879c-d0ad0c4b4c87
83046784,-0.04580202,0.0036654589,-0.096441075,3970,0,1.0831395,0.37239492,-9.130868,3970,2203,224c2092-44e1-4b73-879c-d0ad0c4b4c87
83146790,-0.09589264,-0.01471602,-0.067359045,3965,0,0.5912841,0.13747104,-9.375648,3965,2203,224c2092-44e1-4b73-879c-d0ad0c4b4c87
83250794,-0.06139208,0.028135162,0.030266985,4010,0,-0.25191495,0.06283739,-10.572203,4010,2203,224c2092-44e1-4b73-879c-d0ad0c4b4c87
83354784,0.029826263,-0.05198013,-0.04787739,4000,0,0.88227445,0.90569884,-9.104907,4000,2203,224c2092-44e1-4b73-879c-d0ad0c4b4c87
83456383,0.11805745,-0.016922705,0.06029424,3980,0,0.33719292,0.5673156,-10.2042265,3980,2203,224c2092-44e1-4b73-879c-d0ad0c4b4c87
83556384,0.061908815,0.02627942,0.028303606,4000,0,0.11596519,0.48230422,-10.765927,4000,2203,224c2092-44e1-4b73-879c-d0ad0c4b4c87
83656384,0.069086514,0.073698364,0.047632407,4000,0,0.00077995815,0.21183972,-10.795094,4000,2203,224c2092-44e1-4b73-879c-d0ad0c4b4c87
83760429,0.056425873,0.0153112495,-0.056464754,4045,0,0.3672615,-0.2193434,-9.439013,4045,2203,224c2092-44e1-4b73-879c-d0ad0c4b4c87
83860383,0.07331732,0.006412472,-0.02642865,3988,0,0.79982895,-0.09072975,-9.154954,3988,2203,224c2092-44e1-4b73-879c-d0ad0c4b4c87
83964384,-0.07625585,-0.048827168,-0.05342649,4000,0,-0.08217462,0.53468907,-9.705906,4000,2203,224c2092-44e1-4b73-879c-d0ad0c4b4c87
84064410,-0.09419966,-0.022931388,-0.09603855,4020,0,-0.1303811,0.41349012,-10.317689,4020,2203,224c2092-44e1-4b73-879c-d0ad0c4b4c87
84164384,-0.10408342,-0.024107987,-0.0855447,4001,0,0.06328652,0.2017434,-10.492757,4001,2203,224c2092-44e1-4b73-879c-d0ad0c4b4c87
84268384,0.0670663,-0.012367675,0.030616986,4001,0,0.11065157,0.5119442,-9.08292,4001,2203,224c2092-44e1-4b73-879c-d0ad0c4b4c87
84368384,0.07493669,-0.070055954,0.045600563,3999,0,-0.19651262,0.5679452,-9.248989,3999,2203,224c2092-44e1-4b73-879c-d0ad0c4b4c87
84469983,-0.026684387,-0.021627165,-0.060392044,3999,0,-0.33080453,-0.23116395,-10.161287,3999,2203,224c2092-44e1-4b73-879c-d0ad0c4b4c87
84569984,-0.024445431,-0.028420817,-0.029991983,4000,0,0.0019273,-0.5820125,-10.245367,4000,2203,224c2092-44e1-4b73-879c-d0ad0c4b4c87
84673983,0.052681033,-0.0534035,-0.019675411,3986,0,-0.022386074,0.5631203,-9.151071,3986,2203,224c2092-44e1-4b73-879c-d0ad0c4b4c87
84773984,0.10184052,-0.068886355,-0.051684845,4000,0,-0.07305824,0.2197363,-9.800609,4000,2203,224c2092-44e1-4b73-879c-d0ad0c4b4c87
84877984,-0.016119413,0.04731071,0.039817777,3970,0,-0.11755572,-0.4796172,-9.587224,3970,2203,224c2092-44e1-4b73-879c-d0ad0c4b4c87
84981983,0.053543877,-0.027014518,-0.0068124617,3999,0,0.076919354,0.6061651,-9.747403,3999,2203,224c2092-44e1-4b73-879c-d0ad0c4b4c87
85081984,0.066222765,0.019387163,-0.019947927,4000,0,-0.24895215,0.31366318,-10.557654,4000,2203,224c2092-44e1-4b73-879c-d0ad0c4b4c87
85185984,-0.030808603,0.017604046,0.03252304,3996,0,0.27210882,-0.74455667,-9.661876,3996,2203,224c2092-44e1-4b73-879c-d0ad0c4b4c87
85285984,-0.037229892,0.0275004,-0.013577011,4000,0,0.40457267,-0.504924,-9.0316515,4000,2203,224c2092-44e1-4b73-879c-d0ad0c4b4c87
85385984,-0.03498895,0.05000651,-0.03330031,4000,0,0.6440972,-0.18405716,-8.933692,4000,2203,224c2092-44e1-4b73-879c-d0ad0c4b4c87
85487584,0.04696743,-0.007643287,0.014366862,4000,0,0.45533386,0.19777015,-8.74413,4000,2203,224c2092-44e1-4b73-879c-d0ad0c4b4c87
85591590,-0.11091409,-0.011599555,-0.09830119,3999,0,-0.2627815,0.3742284,-10.939688,3999,2203,224c2092-44e1-4b73-879c-d0ad0c4b4c87
85695584,-0.0023414935,0.09223667,0.1079656,3994,0,0.112142205,-0.56338793,-9.488008,3994,2203,224c2092-44e1-4b73-879c-d0ad0c4b4c87
85795584,-0.030057842,0.07525378,0.06019965,4000,0,0.109839775,-0.5851018,-9.754024,4000,2203,224c2092-44e1-4b73-879c-d0ad0c4b4c87
85899584,0.08267985,0.031630095,-0.02634167,3980,0,0.3858459,-0.3802667,-9.087143,3980,2203,224c2092-44e1-4b73-879c-d0ad0c4b4c87
85999595,0.09651119,-0.051949687,0.0032971622,3988,0,0.49324685,-0.54769903,-9.459153,3988,2203,224c2092-44e1-4b73-879c-d0ad0c4b4c87
86099584,0.07443386,-0.046679504,-0.035433173,4000,0,0.5281877,-0.6448384,-9.437519,4000,2203,224c2092-44e1-4b73-879c-d0ad0c4b4c87
86203591,0.018562416,-0.05673133,0.072772905,4001,0,-0.019040747,0.5464468,-9.183496,4001,2203,224c2092-44e1-4b73-879c-d0ad0c4b4c87
86303583,0.02885401,-0.054601435,0.0697451,3999,0,0.025130386,0.4342991,-9.437534,3999,2203,224c2092-44e1-4b73-879c-d0ad0c4b4c87
86403584,0.08284779,-0.03991146,0.056798812,3962,0,-0.19697867,0.4238758,-9.231544,3962,2203,224c2092-44e1-4b73-879c-d0ad0c4b4c87
86509183,-0.017428005,0.057946328,-0.112076685,4000,0,0.35896775,0.29529256,-10.562951,4000,2203,224c2092-44e1-4b73-879c-d0ad0c4b4c87
86609183,-0.036705196,0.012140957,-0.11800809,3982,0,0.18634108,0.1604494,-10.385224,3982,2203,224c2092-44e1-4b73-879c-d0ad0c4b4c87
86709210,-0.0635644,-0.019298887,-0.10539847,4021,0,0.19083318,0.054974787,-10.444153,4021,2203,224c2092-44e1-4b73-879c-d0ad0c4b4c87
86813183,0.13409634,0.06382735,0.05161234,3995,0,0.15282166,-0.06355227,-10.050401,3995,2203,224c2092-44e1-4b73-879c-d0ad0c4b4c87
86913183,0.084782556,0.07609424,-0.025933053,4000,0,0.424492,-0.13461728,-10.363974,4000,2203,224c2092-44e1-4b73-879c-d0ad0c4b4c87
87013187,-0.01796017,0.11755258,-0.06376718,4000,0,0.4304873,-0.25412813,-10.293546,4000,2203,224c2092-44e1-4b73-879c-d0ad0c4b4c87
87117193,0.09181398,-0.0019092605,0.07978231,3984,0,0.6784516,0.15813775,-9.0666,3984,2203,224c2092-44e1-4b73-879c-d0ad0c4b4c87
87217187,0.12936276,0.017654601,0.07836346,3999,0,0.4806928,0.09571627,-9.105873,3999,2203,224c2092-44e1-4b73-879c-d0ad0c4b4c87
87321183,-0.074456066,-0.05191122,-0.033629645,3997,0,0.101455875,0.1289008,-9.633816,3997,2203,224c2092-44e1-4b73-879c-d0ad0c4b4c87
87422825,-0.07775952,-0.014172666,-0.05958463,4041,0,-0.03202972,-0.18835312,-9.7506895,4041,2203,224c2092-44e1-4b73-879c-d0ad0c4b4c87
87522783,-0.13460977,-0.014957309,-0.04370354,3999,0,-0.16925882,-0.050352335,-9.227818,3999,2203,224c2092-44e1-4b73-879c-d0ad0c4b4c87
87626784,0.033742554,-0.0055449163,-0.055947702,3994,0,0.01370753,-0.17292212,-10.650744,3994,2203,224c2092-44e1-4b73-879c-d0ad0c4b4c87
87730798,-0.014836231,0.10392851,0.104662105,4014,0,-0.03304616,-0.59372616,-9.655876,4014,2203,224c2092-44e1-4b73-879c-d0ad0c4b4c87
87834784,-0.08723938,-0.055952623,-0.094155334,3995,0,0.7964976,0.47099826,-9.107119,3995,2203,224c2092-44e1-4b73-879c-d0ad0c4b4c87
87934799,-0.07145687,-0.03032903,0.016819317,4015,0,0.17507596,0.07072692,-8.947227,4015,2203,224c2092-44e1-4b73-879c-d0ad0c4b4c87
88034799,-0.013926536,0.020276858,0.07676368,4009,0,-0.037133384,-0.2285766,-9.4241705,4009,2203,224c2092-44e1-4b73-879c-d0ad0c4b4c87
88138784,-0.061564256,-0.041030396,-0.060889926,4001,0,0.34723,0.89667124,-9.274441,4001,2203,224c2092-44e1-4b73-879c-d0ad0c4b4c87
88238784,-0.106416844,-0.0008224698,-0.04272528,3980,0,0.30558044,0.81631607,-9.128991,3980,2203,224c2092-44e1-4b73-879c-d0ad0c4b4c87
88342783,0.053850353,-0.018691445,0.0011230322,3999,0,0.29739204,0.32073045,-10.143375,3999,2203,224c2092-44e1-4b73-879c-d0ad0c4b4c87
88444413,0.116749056,0.020344,-0.0070261424,4030,0,-0.11959052,0.21823883,-10.353921,4030,2203,224c2092-44e1-4b73-879c-d0ad0c4b4c87
88544384,0.04391499,-0.06414023,-0.05454465,4001,0,0.04200319,0.3613778,-10.270034,4001,2203,224c2092-44e1-4b73-879c-d0ad0c4b4c87
88644384,-0.10454291,-0.10108104,-0.049596705,3992,0,-0.058639776,0.6169195,-10.038401,3992,2203,224c2092-44e1-4b73-879c-d0ad0c4b4c87
88748421,0.12809175,0.06886967,-0.053299263,4037,0,0.07285772,-0.10086706,-10.109002,4037,2203,224c2092-44e1-4b73-879c-d0ad0c4b4c87
88848384,0.036111265,-0.005052465,-0.09021038,4000,0,0.15218514,0.038778927,-10.158478,4000,2203,224c2092-44e1-4b73-879c-d0ad0c4b4c87
88948384,-0.07428246,-0.07537191,-0.087480225,4001,0,-0.07421161,0.057326563,-10.190724,4001,2203,224c2092-44e1-4b73-879c-d0ad0c4b4c87
89052396,0.086828135,0.053932514,-0.017862704,4013,0,0.03861628,-0.030724945,-10.32565,4013,2203,224c2092-44e1-4b73-879c-d0ad0c4b4c87
89152384,-0.0024802228,0.01781691,-0.099612825,3994,0,-0.12584262,-0.02183946,-10.488261,3994,2203,224c2092-44e1-4b73-879c-d0ad0c4b4c87
89256383,0.074991,0.101585135,0.078966804,4000,0,0.5787162,-0.45262665,-9.540879,4000,2203,224c2092-44e1-4b73-879c-d0ad0c4b4c87
89360409,-0.0745931,-0.026362538,-0.03725596,4025,0,0.10630442,0.26527956,-9.076047,4025,2203,224c2092-44e1-4b73-879c-d0ad0c4b4c87
89461997,-0.062837765,-0.08457537,-0.055405132,4013,0,-0.20579259,0.42189887,-9.321979,4013,2203,224c2092-44e1-4b73-879c-d0ad0c4b4c87
89561984,-0.026326453,-0.029545547,-0.0027980132,3996,0,-0.17383996,0.3790557,-9.021749,3996,2203,224c2092-44e1-4b73-879c-d0ad0c4b4c87
89665984,-0.06792088,-0.058225743,-0.099642105,3993,0,0.25226668,-0.052964326,-10.232507,3993,2203,224c2092-44e1-4b73-879c-d0ad0c4b4c87
89769984,0.0518204,0.10449808,0.043755114,3984,0,0.21041203,-0.465465,-10.333764,3984,2203,224c2092-44e1-4b73-879c-d0ad0c4b4c87
89869984,-0.03302794,0.06903213,-0.065600805,4000,0,0.5014177,-0.64533037,-10.814769,4000,2203,224c2092-44e1-4b73-879c-d0ad0c4b4c87
89973984,0.12820487,0.040984552,0.11131721,3994,0,0.1782463,-0.57269263,-9.251758,3994,2203,224c2092-44e1-4b73-879c-d0ad0c4b4c87
90074030,0.076877005,0.08169162,0.03193159,4046,0,0.3981224,-0.85258645,-9.457378,4046,2203,224c2092-44e1-4b73-879c-d0ad0c4b4c87
90173999,-0.04430301,0.07168193,-0.03888186,4016,0,0.36422065,-0.96845204,-9.832692,4016,2203,224c2092-44e1-4b73-879c-d0ad0c4b4c87
90277984,0.035257697,-0.02924323,0.08129098,4000,0,0.29063725,0.3797002,-9.092726,4000,2203,224c2092-44e1-4b73-879c-d0ad0c4b4c87
90378783,0.06125489,-0.011481237,0.048263,3999,0,0.21200442,0.5371509,-9.419048,3999,2203,224c2092-44e1-4b73-879c-d0ad0c4b4c87
90479584,0.025499495,-0.021542128,-0.02167196,4000,0,0.38452557,0.55766153,-9.345886,4000,2203,224c2092-44e1-4b73-879c-d0ad0c4b4c87
90579584,-0.017717617,-0.03144442,-0.09240325,3994,0,0.7627321,0.2762037,-9.317839,3994,2203,224c2092-44e1-4b73-879c-d0ad0c4b4c87
90683584,0.034571666,-0.01050651,0.06202505,4000,0,-0.37806335,0.092201926,-9.834801,4000,2203,224c2092-44e1-4b73-879c-d0ad0c4b4c87
90783584,0.05149472,-0.008761704,0.008660945,4000,0,0.108429775,0.043039624,-9.590686,4000,2203,224c2092-44e1-4b73-879c-d0ad0c4b4c87
90887583,-0.03780963,0.01761405,0.00082730147,3999,0,-0.25557074,0.16561957,-10.487755,3999,2203,224c2092-44e1-4b73-879c-d0ad0c4b4c87
90991585,-0.048164446,0.041514307,0.0037323218,4001,0,0.69322276,-0.5643636,-9.816672,4001,2203,224c2092-44e1-4b73-879c-d0ad0c4b4c87
91091585,-0.10618438,0.023455646,0.019028807,3995,0,0.31784305,-0.26719037,-9.894884,3995,2203,224c2092-44e1-4b73-879c-d0ad0c4b4c87
91195584,0.060167514,-0.019030258,-0.043558583,4001,0,0.71476936,0.43243304,-9.094078,4001,2203,224c2092-44e1-4b73-879c-d0ad0c4b4c87
91295584,-0.044584557,-0.00834485,-0.073290996,3996,0,0.6714073,0.3462993,-9.252471,3996,2203,224c2092-44e1-4b73-879c-d0ad0c4b4c87
91397184,-0.081063956,-0.050395727,-0.11213948,3975,0,-0.11367998,0.79291457,-9.376311,3975,2203,224c2092-44e1-4b73-879c-d0ad0c4b4c87
91497183,-0.08530166,-0.07586558,-0.05280146,3995,0,-0.070630476,0.61879116,-9.305432,3995,2203,224c2092-44e1-4b73-879c-d0ad0c4b4c87
91601216,0.07132145,0.004328819,-0.0640489,4026,0,0.09696429,0.14039956,-10.225006,4026,2203,224c2092-44e1-4b73-879c-d0ad0c4b4c87
91705183,0.06808851,0.09298035,0.112358466,4000,0,0.009145183,-0.6581292,-10.005103,4000,2203,224c2092-44e1-4b73-879c-d0ad0c4b4c87
91805193,0.07885202,0.12895861,0.028502831,4010,0,0.59330374,-0.47244483,-10.405667,4010,2203,224c2092-44e1-4b73-879c-d0ad0c4b4c87
91909183,0.054319832,-0.017440084,0.060236353,3984,0,0.28993535,-0.2756766,-8.911974,3984,2203,224c2092-44e1-4b73-879c-d0ad0c4b4c87
92009187,0.20873477,0.042956546,0.09831244,3962,0,0.51174444,-0.5469564,-9.039638,3962,2203,224c2092-44e1-4b73-879c-d0ad0c4b4c87
92109186,0.122125514,0.08853802,0.025317052,4000,0,0.79716444,-0.22875766,-9.405486,4000,2203,224c2092-44e1-4b73-879c-d0ad0c4b4c87
92213186,-0.017811505,-0.07859464,0.016806649,3998,0,0.26900312,0.3265241,-9.102555,3998,2203,224c2092-44e1-4b73-879c-d0ad0c4b4c87
92313219,0.05810397,-0.034263324,0.03289474,4036,0,0.41689807,0.69311374,-8.955656,4036,2203,224c2092-44e1-4b73-879c-d0ad0c4b4c87
92414784,0.0200852,-0.045191087,0.09673048,3999,0,-0.14979804,0.60937726,-9.381556,3999,2203,224c2092-44e1-4b73-879c-d0ad0c4b4c87
92518792,-0.052822944,-0.006026618,-0.10735915,4008,0,-0.026233142,-0.56957525,-10.654762,4008,2203,224c2092-44e1-4b73-879c-d0ad0c4b4c87
92618806,0.0020529719,-0.023323419,0.0043111066,4023,0,-0.20432252,-0.39172557,-10.309243,4023,2203,224c2092-44e1-4b73-879c-d0ad0c4b4c87
92718809,0.13331297,0.022984462,0.065477565,4018,0,0.17769845,-0.037800774,-10.1112385,4018,2203,224c2092-44e1-4b73-879c-d0ad0c4b4c87
92822783,-0.10097623,-0.023638489,-0.018076396,3997,0,0.10657792,-0.75895303,-10.050099,3997,2203,224c2092-44e1-4b73-879c-d0ad0c4b4c87
92922784,0.023071196,0.05446588,0.07852375,4000,0,-0.028608311,-0.80487746,-10.029061,4000,2203,224c2092-44e1-4b73-879c-d0ad0c4b4c87
93022792,0.065316476,0.0768069,0.05727725,4008,0,0.33443725,-0.24659267,-10.230801,4008,2203,224c2092-44e1-4b73-879c-d0ad0c4b4c87
93126784,0.014447984,-0.05539084,0.016662247,3959,0,0.015197007,-0.3554799,-9.139991,3959,2203,224c2092-44e1-4b73-879c-d0ad0c4b4c87
93226784,0.15177675,0.021178408,0.077920884,3999,0,0.49793088,-0.48032528,-8.969356,3999,2203,224c2092-44e1-4b73-879c-d0ad0c4b4c87
93330817,-0.106962994,-0.095652744,-0.019135952,4033,0,-0.20818727,0.085193574,-9.460616,4033,2203,224c2092-44e1-4b73-879c-d0ad0c4b4c87
93432384,-0.0974664,-0.0803869,0.0016895332,3967,0,-0.046688505,-0.2207357,-10.0251255,3967,2203,224c2092-44e1-4b73-879c-d0ad0c4b4c87
93536384,0.03211167,0.06559187,-0.043988362,4000,0,0.32251877,-0.38517785,-10.469286,4000,2203,224c2092-44e1-4b73-879c-d0ad0c4b4c87
93640422,0.037348602,0.008232941,0.070404515,4039,0,0.60898733,0.20503947,-8.785122,4039,2203,224c2092-44e1-4b73-879c-d0ad0c4b4c87
93740396,0.0973455,0.0031779993,0.024008961,4012,0,0.8050118,-0.17190586,-9.057306,4012,2203,224c2092-44e1-4b73-879c-d0ad0c4b4c87
93844384,-0.09330453,-0.06560633,0.048994616,4001,0,-0.67719054,0.521244,-9.562817,4001,2203,224c2092-44e1-4b73-879c-d0ad0c4b4c87
93944384,0.046829294,-0.030120037,0.09873412,3993,0,-0.50276905,0.6041811,-9.457629,3993,2203,224c2092-44e1-4b73-879c-d0ad0c4b4c87
94044413,0.053129032,-0.035368346,-0.0015909853,4029,0,0.2878092,0.51596314,-9.609355,4029,2203,224c2092-44e1-4b73-879c-d0ad0c4b4c87
94148386,-0.026569923,0.027002318,0.005215173,3998,0,-0.17165656,-0.16944912,-10.278368,3998,2203,224c2092-44e1-4b73-879c-d0ad0c4b4c87
94248385,0.035776995,0.06602828,0.012826746,4001,0,0.15859453,-0.15598002,-10.086762,4001,2203,224c2092-44e1-4b73-879c-d0ad0c4b4c87
94349231,0.06926886,0.03055177,0.036153667,4036,0,0.47439742,-0.5015328,-10.309175,4036,2203,224c2092-44e1-4b73-879c-d0ad0c4b4c87
94449986,0.03324533,0.07803647,0.030341692,4002,0,0.54038316,-0.51857513,-10.323781,4002,2203,224c2092-44e1-4b73-879c-d0ad0c4b4c87
94549988,-0.0679649,0.072473004,-0.038914375,4004,0,0.5129991,-0.56986904,-10.475433,4004,2203,224c2092-44e1-4b73-879c-d0ad0c4b4c87
94650018,-0.123471856,0.006194469,-0.0548504,4034,0,0.5260524,-0.4300162,-10.6316,4034,2203,224c2092-44e1-4b73-879c-d0ad0c4b4c87
94753983,0.11618183,0.048905987,0.011756828,3999,0,0.822805,-0.3350519,-9.14378,3999,2203,224c2092-44e1-4b73-879c-d0ad0c4b4c87
94853984,-0.019159116,0.020117842,-0.044880882,4000,0,0.9244082,-0.37139195,-9.333056,4000,2203,224c2092-44e1-4b73-879c-d0ad0c4b4c87
94957984,0.09728058,-0.05584885,0.08614618,4000,0,-0.038612183,0.33641064,-9.551404,4000,2203,224c2092-44e1-4b73-879c-d0ad0c4b4c87
95058008,0.021776643,-0.049439255,-0.0013269217,4002,0,0.2688014,0.1761034,-9.7862425,4002,2203,224c2092-44e1-4b73-879c-d0ad0c4b4c87
95157984,-0.062220205,-0.06506011,-0.024824655,4000,0,-0.01567793,-0.08745922,-9.848044,4000,2203,224c2092-44e1-4b73-879c-d0ad0c4b4c87
95262007,0.06316075,0.057072286,0.015859734,4023,0,0.015223728,-0.11493909,-10.509084,4023,2203,224c2092-44e1-4b73-879c-d0ad0c4b4c87
95363588,0.017501688,0.13405307,0.091673635,4005,0,0.36394805,-0.45599082,-10.052788,4005,2203,224c2092-44e1-4b73-879c-d0ad0c4b4c87
95463583,-0.012995122,0.105713114,-0.00079305266,3999,0,0.5669297,-0.5449819,-10.202041,3999,2203,224c2092-44e1-4b73-879c-d0ad0c4b4c87
95563583,-0.09371607,0.04137595,-0.09476808,3999,0,0.3069509,-0.6120488,-10.260655,3999,2203,224c2092-44e1-4b73-879c-d0ad0c4b4c87
95667584,0.034055695,0.046324257,0.06813058,3995,0,0.48456323,-0.010030924,-9.22892,3995,2203,224c2092-44e1-4b73-879c-d0ad0c4b4c87
95767591,0.036330175,0.045030545,0.010732635,4000,0,0.78694487,-0.14016551,-9.462974,4000,2203,224c2092-44e1-4b73-879c-d0ad0c4b4c87
95871584,0.07236668,-0.02491601,0.07455243,4000,0,-0.24012506,0.47971213,-9.543454,4000,2203,224c2092-44e1-4b73-879c-d0ad0c4b4c87
95975614,-0.11229112,-0.024440607,-0.08910528,4023,0,0.3768664,-0.21291439,-10.506052,4023,2203,224c2092-44e1-4b73-879c-d0ad0c4b4c87
96075603,-0.051443584,-0.03623363,-0.0053573623,4019,0,0.04202711,-0.019453084,-10.397612,4019,2203,224c2092-44e1-4b73-879c-d0ad0c4b4c87
96179583,-0.030062735,0.011104773,-0.054263428,3996,0,0.4123746,-0.016690273,-9.860769,3996,2203,224c2092-44e1-4b73-879c-d0ad0c4b4c87
96279584,-0.05875121,-0.031633563,-0.00811286,4000,0,0.13944145,-0.08957841,-9.8286295,4000,2203,224c2092-44e1-4b73-879c-d0ad0c4b4c87
96381195,-0.10760326,-0.01730793,-0.027495272,4012,0,0.41491932,0.17044513,-9.356391,4012,2203,224c2092-44e1-4b73-879c-d0ad0c4b4c87
96481188,-0.0071492353,0.017064732,0.071084015,4005,0,0.37467167,0.39943987,-9.059071,4005,2203,224c2092-44e1-4b73-879c-d0ad0c4b4c87
96585184,-0.030469136,-0.097990185,-0.0898439,3976,0,0.005394262,0.10304722,-9.818951,3976,2203,224c2092-44e1-4b73-879c-d0ad0c4b4c87
96685183,-0.09196214,-0.08308749,0.012367568,3962,0,-0.34613246,0.12507504,-9.63998,3962,2203,224c2092-44e1-4b73-879c-d0ad0c4b4c87
96785189,0.039731573,-0.0093637835,0.09090423,3995,0,-0.02114211,0.06959452,-9.698872,3995,2203,224c2092-44e1-4b73-879c-d0ad0c4b4c87
96889188,-0.08107507,-0.03789858,-0.051735036,4005,0,-0.16606338,-0.075347714,-10.544408,4005,2203,224c2092-44e1-4b73-879c-d0ad0c4b4c87
96989186,-0.010852114,0.031349503,0.03257258,3961,0,-0.05327331,-0.17345518,-10.353252,3961,2203,224c2092-44e1-4b73-879c-d0ad0c4b4c87
97093231,-0.07341983,-0.03478039,-0.079728805,4038,0,0.45797074,0.2006207,-9.160022,4038,2203,224c2092-44e1-4b73-879c-d0ad0c4b4c87
97197186,0.10881237,0.029902814,0.017918693,4000,0,-0.110428706,0.45443577,-9.882588,4000,2203,224c2092-44e1-4b73-879c-d0ad0c4b4c87
97297187,0.0750674,-0.013543636,-0.03677599,3999,0,0.07018363,0.22576752,-10.204381,3999,2203,224c2092-44e1-4b73-879c-d0ad0c4b4c87
97398783,0.105602756,0.05761392,-0.026952188,3999,0,0.3763665,0.062817164,-10.585063,3999,2203,224c2092-44e1-4b73-879c-d0ad0c4b4c87
97498783,-0.048863932,0.02150991,-0.06537347,3999,0,0.26912332,0.021245766,-10.7520685,3999,2203,224c2092-44e1-4b73-879c-d0ad0c4b4c87
97602819,0.19088566,0.031007001,0.09866427,4036,0,0.415912,-0.4516729,-9.4498825,4036,2203,224c2092-44e1-4b73-879c-d0ad0c4b4c87
97702784,0.065151855,0.055037074,-0.00022857476,3981,0,0.74940705,-0.3743752,-9.630052,3981,2203,224c2092-44e1-4b73-879c-d0ad0c4b4c87
97806823,0.06983526,-0.045230284,0.06052186,4031,0,-0.027253432,0.44717112,-9.243662,4031,2203,224c2092-44e1-4b73-879c-d0ad0c4b4c87
97910784,-0.088701926,-0.025291262,-0.09750238,3986,0,0.1281533,-0.6610756,-10.358645,3986,2203,224c2092-44e1-4b73-879c-d0ad0c4b4c87
98010784,-0.083481565,-0.04117959,-0.023297476,3991,0,0.30987838,-0.740118,-10.212361,3991,2203,224c2092-44e1-4b73-879c-d0ad0c4b4c87
98114784,0.015263022,-0.0077105723,-0.05575824,4000,0,0.36347166,-0.33855543,-9.735268,4000,2203,224c2092-44e1-4b73-879c-d0ad0c4b4c87
98214784,-0.023698375,-0.042070262,-0.06028833,4001,0,0.20617802,-0.5022819,-9.657782,4001,2203,224c2092-44e1-4b73-879c-d0ad0c4b4c87
98316383,-0.06393506,-0.010937831,-0.092188746,4000,0,0.56076336,0.22199571,-9.049088,4000,2203,224c2092-44e1-4b73-879c-d0ad0c4b4c87
98416384,-0.09453203,0.01141779,-0.035115853,4000,0,0.29018587,0.080081865,-8.731707,4000,2203,224c2092-44e1-4b73-879c-d0ad0c4b4c87
98520384,0.075560145,-0.028911373,-0.0055948505,4000,0,0.29300845,0.024469083,-10.392376,4000,2203,224c2092-44e1-4b73-879c-d0ad0c4b4c87
98620412,-0.017373072,-0.07514016,-0.079165965,4023,0,0.116772585,-0.07250339,-10.693566,4023,2203,224c2092-44e1-4b73-879c-d0ad0c4b4c87
98720390,-0.058027707,-0.054589916,-0.06411776,4006,0,-0.3042297,0.0207609,-10.583005,4006,2203,224c2092-44e1-4b73-879c-d0ad0c4b4c87
98824384,0.043047115,0.109296754,0.03695313,4001,0,0.56772983,-0.6248776,-9.829778,4001,2203,224c2092-44e1-4b73-879c-d0ad0c4b4c87
98924384,-0.066720754,0.07834629,-0.00097445754,4000,0,0.5161117,-0.7503309,-9.924853,4000,2203,224c2092-44e1-4b73-879c-d0ad0c4b4c87
99028390,0.05252208,0.01014288,0.062518045,4003,0,0.5241584,0.4991585,-9.007903,4003,2203,224c2092-44e1-4b73-879c-d0ad0c4b4c87
99128384,-0.017108854,-0.027622115,-0.04473428,4000,0,0.7485104,0.12487424,-8.921155,4000,2203,224c2092-44e1-4b73-879c-d0ad0c4b4c87
99228383,0.028480418,0.034287564,0.05350182,3992,0,0.07216977,-0.5837161,-8.066383,3992,2203,224c2092-44e1-4b73-879c-d0ad0c4b4c87
99333183,0.14185138,0.01720863,0.07111862,4000,0,0.5145627,-0.15055631,-8.043455,4000,2203,224c2092-44e1-4b73-879c-d0ad0c4b4c87
99433984,-0.11479411,0.06097086,0.042159807,4000,0,0.040620577,-0.5412316,-8.988399,4000,2203,224c2092-44e1-4b73-879c-d0ad0c4b4c87
99537983,0.091458134,0.17988403,-0.10029428,3999,0,0.8539753,0.10966225,-8.960286,3999,2203,224c2092-44e1-4b73-879c-d0ad0c4b4c87
99638023,0.036530375,0.03598285,-0.088671535,4033,0,0.25144237,1.1636602,-8.377094,4033,2203,224c2092-44e1-4b73-879c-d0ad0c4b4c87
99741986,-0.20114687,-0.07415821,-0.026345719,4002,0,-0.32720998,0.24332677,-8.768032,4002,2203,224c2092-44e1-4b73-879c-d0ad0c4b4c87
99841984,-0.17888266,-0.038077883,-0.066370904,3978,0,0.11641908,-0.8613932,-9.282043,3978,2203,224c2092-44e1-4b73-879c-d0ad0c4b4c87
99945989,0.07244714,0.14010452,-3.639551e-05,4006,0,0.5418953,-0.35107023,-9.14858,4006,2203,224c2092-44e1-4b73-879c-d0ad0c4b4c87
100049983,-0.028327625,-0.05753959,-0.043083373,3999,0,-0.19176225,0.05419849,-9.41909,3999,2203,224c2092-44e1-4b73-879c-d0ad0c4b4c87
100149984,-0.14933616,-0.09711802,-0.101448156,4000,0,0.34429896,0.26767513,-8.755898,4000,2203,224c2092-44e1-4b73-879c-d0ad0c4b4c87
100249984,-0.11785414,-0.029862298,-0.067395404,3998,0,0.4264342,-0.69617546,-9.305911,3998,2203,224c2092-44e1-4b73-879c-d0ad0c4b4c87
100351590,0.1417094,0.040313363,-0.066101804,4006,0,0.28618258,0.438373,-9.352763,4006,2203,224c2092-44e1-4b73-879c-d0ad0c4b4c87
100455584,-0.08743501,-0.19062097,0.3747496,4000,0,0.76445955,0.6836517,-9.992315,4000,2203,224c2092-44e1-4b73-879c-d0ad0c4b4c87
100559584,0.055761553,-0.2165033,0.4865201,4000,0,0.32892206,0.084302604,-9.17661,4000,2203,224c2092-44e1-4b73-879c-d0ad0c4b4c87
100659612,0.103806786,-0.026814325,0.4580548,4028,0,0.14463755,0.022504501,-9.256513,4028,2203,224c2092-44e1-4b73-879c-d0ad0c4b4c87
100763623,0.046896335,0.06211944,0.59168243,4039,0,-0.12659511,-0.2952384,-9.159042,4039,2203,224c2092-44e1-4b73-879c-d0ad0c4b4c87
100863591,0.26183152,-0.25816312,0.5477119,4007,0,0.42254016,0.88381314,-9.392326,4007,2203,224c2092-44e1-4b73-879c-d0ad0c4b4c87
100967591,0.13590012,-0.698769,0.43987852,4007,0,0.28419235,-0.7396483,-8.600779,4007,2203,224c2092-44e1-4b73-879c-d0ad0c4b4c87
101071589,0.13146022,-0.8000706,0.3346584,3990,0,0.11753013,-0.5150377,-9.373884,3990,2203,224c2092-44e1-4b73-879c-d0ad0c4b4c87
101175584,0.09060168,-0.7360259,0.23603758,4000,0,-0.5304583,-0.47220826,-10.161255,4000,2203,224c2092-44e1-4b73-879c-d0ad0c4b4c87
101277186,-0.10053833,-0.6216932,0.2073109,4000,0,-0.5734323,0.28055412,-9.285491,4000,2203,224c2092-44e1-4b73-879c-d0ad0c4b4c87
101377184,-0.051755033,-0.36451703,0.041229855,4001,0,0.15302952,0.05041175,-10.250449,4001,2203,224c2092-44e1-4b73-879c-d0ad0c4b4c87
101481183,0.067097135,-0.3738677,0.1504119,3999,0,-0.8618545,0.024478685,-10.745447,3999,2203,224c2092-44e1-4b73-879c-d0ad0c4b4c87
101581208,-0.03406496,-0.22231705,0.08594868,4025,0,0.5095655,-0.9852871,-9.810561,4025,2203,224c2092-44e1-4b73-879c-d0ad0c4b4c87
101681183,0.0107847005,-0.15854447,-0.006073905,3991,0,-0.61440074,0.028168673,-10.808764,3991,2203,224c2092-44e1-4b73-879c-d0ad0c4b4c87
101785183,-0.040776066,-0.22692691,0.023546312,3999,0,-1.2738008,0.9338024,-10.701168,3999,2203,224c2092-44e1-4b73-879c-d0ad0c4b4c87
101885206,0.028917324,-0.20570952,-0.0410043,4023,0,-0.23122282,-0.41336504,-9.45837,4023,2203,224c2092-44e1-4b73-879c-d0ad0c4b4c87
101989187,0.06352196,-0.14089677,0.012922133,3966,0,-0.5322515,-0.6676991,-9.660841,3966,2203,224c2092-44e1-4b73-879c-d0ad0c4b4c87
102089187,-0.0071890843,-0.04116396,-0.071595795,4001,0,-0.16862683,-0.2201087,-10.46346,4001,2203,224c2092-44e1-4b73-879c-d0ad0c4b4c87
102189186,0.0283893,0.009969011,-0.08363487,3999,0,-0.50469214,-0.38016495,-11.278444,3999,2203,224c2092-44e1-4b73-879c-d0ad0c4b4c87
102290797,0.015439957,-0.07766778,-0.0057383743,3995,0,-0.6672102,-0.036819793,-11.284827,3995,2203,224c2092-44e1-4b73-879c-d0ad0c4b4c87
102394784,-0.13023135,0.08345799,-0.08437725,4000,0,0.11959069,0.05692342,-11.316476,4000,2203,224c2092-44e1-4b73-879c-d0ad0c4b4c87
102494784,0.076511696,-0.011891864,-0.064772695,4000,0,-1.0868176,-0.6118112,-11.104789,4000,2203,224c2092-44e1-4b73-879c-d0ad0c4b4c87
102598817,-0.15799138,0.15995489,-0.062101036,3994,0,-0.45686656,-0.48116532,-10.564782,3994,2203,224c2092-44e1-4b73-879c-d0ad0c4b4c87
102702784,-0.005063891,-0.04661223,0.07555204,3986,0,-0.75254744,-0.4388831,-10.191565,3986,2203,224c2092-44e1-4b73-879c-d0ad0c4b4c87
102802784,-0.15133868,0.10644935,0.038294278,4001,0,-0.2813859,-0.62407935,-10.392394,4001,2203,224c2092-44e1-4b73-879c-d0ad0c4b4c87
102906824,-0.05158195,-0.086566545,-0.001217733,4032,0,-0.5076768,0.6031924,-10.154569,4032,2203,224c2092-44e1-4b73-879c-d0ad0c4b4c87
103010783,-0.063920096,-0.007205682,0.001822566,3971,0,-1.6213665,-0.033657398,-10.703792,3971,2203,224c2092-44e1-4b73-879c-d0ad0c4b4c87
103114784,-0.0117236925,0.15012524,-0.078806944,4001,0,-0.9301706,-1.0236886,-10.603912,4001,2203,224c2092-44e1-4b73-879c-d0ad0c4b4c87
103216422,0.015020806,0.07578724,-0.0051101698,4839,0,-1.4928958,-0.12909064,-10.60011,4839,2203,224c2092-44e1-4b73-879c-d0ad0c4b4c87
103316385,0.022583077,0.25040698,-0.003916847,4001,0,-1.4370823,-0.19890137,-10.651759,4001,2203,224c2092-44e1-4b73-879c-d0ad0c4b4c87
103420384,0.1019101,0.5701238,0.09476478,4001,0,-1.6140941,-1.5739263,-10.427503,4001,2203,224c2092-44e1-4b73-879c-d0ad0c4b4c87
103520383,0.091758326,0.3826368,-0.028322004,3993,0,-1.1346016,0.87061626,-9.148888,3993,2203,224c2092-44e1-4b73-879c-d0ad0c4b4c87
103620407,0.03393393,0.49926567,0.08187382,4024,0,-1.898924,0.22163354,-10.322804,4024,2203,224c2092-44e1-4b73-879c-d0ad0c4b4c87
103724383,-0.010363723,0.53130853,0.06313324,3996,0,-1.0260493,-1.5360051,-10.06987,3996,2203,224c2092-44e1-4b73-879c-d0ad0c4b4c87
103824386,0.10971041,0.1602542,0.2558677,3992,0,-1.6868349,0.6940558,-10.705382,3992,2203,224c2092-44e1-4b73-879c-d0ad0c4b4c87
103928384,0.008356538,0.3107142,0.005859794,4000,0,-1.3551726,1.5519699,-10.320758,4000,2203,224c2092-44e1-4b73-879c-d0ad0c4b4c87
104032388,0.026070694,0.21476728,-0.10533921,4004,0,-1.6662803,0.22767518,-9.65596,4004,2203,224c2092-44e1-4b73-879c-d0ad0c4b4c87
104136383,-0.023030402,0.08079027,0.109632865,3999,0,-2.5270216,0.5248394,-9.862908,3999,2203,224c2092-44e1-4b73-879c-d0ad0c4b4c87
104237997,0.1387358,-0.11255648,0.15165864,4014,0,-1.2868931,1.3165855,-9.061682,4014,2203,224c2092-44e1-4b73-879c-d0ad0c4b4c87
104337984,0.6433548,0.032585274,-0.014317409,3978,0,-2.1553655,-1.1889515,-7.580696,3978,2203,224c2092-44e1-4b73-879c-d0ad0c4b4c87
104441984,-0.24623847,0.05294845,0.02786049,4000,0,-1.0433954,0.32015064,-9.637512,4000,2203,224c2092-44e1-4b73-879c-d0ad0c4b4c87
104545984,0.22369023,-0.06592761,0.16359222,3992,0,-2.5645115,0.5089774,-10.19348,3992,2203,224c2092-44e1-4b73-879c-d0ad0c4b4c87
104645985,0.51199174,0.18466595,-0.1556496,4002,0,0.7774287,-0.83778554,-8.961704,4002,2203,224c2092-44e1-4b73-879c-d0ad0c4b4c87
104749984,0.020080546,0.022967944,-0.019217206,4000,0,-3.4396288,-0.0029307846,-9.008342,4000,2203,224c2092-44e1-4b73-879c-d0ad0c4b4c87
104849984,-0.3705347,0.04451826,0.00045501342,3990,0,0.08805995,0.17482962,-10.872109,3990,2203,224c2092-44e1-4b73-879c-d0ad0c4b4c87
104953984,0.12124659,-0.0027495895,0.12735842,3996,0,-1.4507369,-1.2496891,-9.955918,3996,2203,224c2092-44e1-4b73-879c-d0ad0c4b4c87
105057984,-0.45663932,0.024977475,-0.00928294,3956,0,-1.7950785,-0.14780341,-10.9223175,3956,2203,224c2092-44e1-4b73-879c-d0ad0c4b4c87
105157984,-0.15056181,-0.00095049146,-0.09504909,3998,0,0.4614523,0.84296507,-9.405696,3998,2203,224c2092-44e1-4b73-879c-d0ad0c4b4c87
105259584,-0.13171303,0.14559762,-0.0651374,3968,0,-2.1104875,-1.1681713,-9.880557,3968,2203,224c2092-44e1-4b73-879c-d0ad0c4b4c87
105363584,0.30451944,0.018334216,-0.0899185,4001,0,-1.8481468,-0.6248245,-9.996462,4001,2203,224c2092-44e1-4b73-879c-d0ad0c4b4c87
105463584,-0.15092994,-0.020646755,-0.08573335,4001,0,-0.6483667,1.2420796,-8.875781,4001,2203,224c2092-44e1-4b73-879c-d0ad0c4b4c87
