timestamp,time_utc_usec,lat,lon,alt,alt_ellipsoid,s_variance_m_s,c_variance_rad,eph,epv,hdop,vdop,noise_per_ms,jamming_indicator,vel_m_s,vel_n_m_s,vel_e_m_s,vel_d_m_s,cog_rad,timestamp_time_relative,heading,heading_offset,lat_hp,lon_hp,alt_hp,alt_ellipsoid_hp,fix_type,vel_ned_valid,satellites_used,nav_pvt_flags,basestation,flight_number
59460311,1652271616599785,293754213,-895490927,874,-25360,0.202,3.1415925,0.4016,0.8107,0.55,1.14,73,32,0.017,-0.014,-0.010000001,0.028,0.0,-27,,0.0,-18,-41,5,-1,3,1,26,1,2203,224c2092-44e1-4b73-879c-d0ad0c4b4c87
59541448,1652271616699785,293754213,-895490927,874,-25361,0.147,3.1415925,0.4016,0.8107,0.55,1.14,73,32,0.044000003,0.004,0.043,-0.021000002,0.0,-3907,,0.0,-36,-8,-1,4,3,1,26,1,2203,224c2092-44e1-4b73-879c-d0ad0c4b4c87
59644696,1652271616799785,293754213,-895490927,868,-25366,0.20300001,2.4572916,0.4017,0.8109,0.55,1.14,73,32,0.054,0.046000004,-0.030000001,0.015000001,0.0,-4015,,0.0,-23,12,2,-3,3,1,26,1,2203,224c2092-44e1-4b73-879c-d0ad0c4b4c87
59740800,1652271616899785,293754213,-895490927,870,-25364,0.20400001,3.1415925,0.4017,0.811,0.55,1.14,73,30,0.013,0.0050000004,-0.011000001,-0.020000001,0.0,-4195,,0.0,-12,10,5,-1,3,1,26,1,2203,224c2092-44e1-4b73-879c-d0ad0c4b4c87
59849470,1652271616999786,293754213,-895490927,861,-25374,0.20600002,3.1415925,0.4019,0.8113,0.55,1.14,73,30,0.028,0.022000002,-0.017,0.006,0.0,-3977,,0.0,-19,7,-2,2,3,1,26,1,2203,224c2092-44e1-4b73-879c-d0ad0c4b4c87
59940645,1652271617099785,293754213,-895490927,866,-25369,0.21400002,3.1415925,0.40219998,0.81159997,0.55,1.14,73,30,0.028,-0.027,0.004,0.018000001,0.0,-3952,,0.0,-33,24,1,5,3,1,26,1,2203,224c2092-44e1-4b73-879c-d0ad0c4b4c87
60041464,1652271617199785,293754212,-895490926,859,-25376,0.19900002,3.1415925,0.4025,0.812,0.55,1.14,73,30,0.05,-0.025,0.043,-0.035,0.0,-4437,,0.0,26,-35,-4,1,3,1,26,1,2203,224c2092-44e1-4b73-879c-d0ad0c4b4c87
60138539,1652271617299785,293754212,-895490926,852,-25382,0.21700001,1.2664,0.40269998,0.81229997,0.55,1.14,73,30,0.112,0.094000004,-0.059000004,0.051000003,0.0,-4007,,0.0,49,-29,2,-4,3,1,26,1,2203,224c2092-44e1-4b73-879c-d0ad0c4b4c87
60242489,1652271617399785,293754213,-895490926,855,-25379,0.21300001,2.7972074,0.403,0.81259996,0.55,1.14,73,30,0.046000004,-0.044000003,0.013,0.018000001,0.0,-3943,,0.0,-44,-28,2,-4,3,1,26,1,2203,224c2092-44e1-4b73-879c-d0ad0c4b4c87
60334550,1652271617499785,293754212,-895490926,850,-25384,0.22000001,3.1415925,0.4033,0.8129,0.55,1.14,73,30,0.038000003,0.037,-0.002,0.011000001,0.0,-4032,,0.0,44,-6,4,-1,3,1,26,1,2203,224c2092-44e1-4b73-879c-d0ad0c4b4c87
60438543,1652271617599785,293754212,-895490926,853,-25382,0.22700001,3.1415925,0.40359998,0.8132,0.55,1.14,73,30,0.009000001,-0.009000001,0.0,0.037,0.0,-4053,,0.0,46,15,-2,2,3,1,26,1,2203,224c2092-44e1-4b73-879c-d0ad0c4b4c87
60542091,1652271617699785,293754212,-895490926,860,-25375,0.19100001,2.96274,0.40379998,0.8135,0.55,1.14,73,30,0.057000004,-0.051000003,-0.027,-0.016,0.0,-3919,,0.0,8,23,-4,0,3,1,26,1,2203,224c2092-44e1-4b73-879c-d0ad0c4b4c87
60638470,1652271617799785,293754212,-895490926,845,-25390,0.22500001,1.6914467,0.4041,0.8138,0.55,1.14,73,30,0.076000005,0.076000005,-0.002,0.048,0.0,-27,,0.0,9,20,-3,2,3,1,26,1,2203,224c2092-44e1-4b73-879c-d0ad0c4b4c87
60738469,1652271617899785,293754212,-895490925,852,-25383,0.15100001,3.1415925,0.4043,0.8142,0.55,1.14,74,34,0.018000001,-0.004,0.017,-0.001,0.0,-4012,,0.0,29,-47,-2,2,3,1,26,1,2203,224c2092-44e1-4b73-879c-d0ad0c4b4c87
60846528,1652271617999786,293754212,-895490925,854,-25380,0.20600002,3.1415925,0.40469998,0.8146,0.55,1.14,74,34,0.022000002,0.018000001,-0.013,0.001,0.0,-37,,0.0,26,-26,1,-4,3,1,26,1,2203,224c2092-44e1-4b73-879c-d0ad0c4b4c87
60938471,1652271618099785,293754212,-895490925,843,-25392,0.23400001,3.1415925,0.405,0.815,0.55,1.14,74,34,0.008,0.008,-0.001,0.07300001,0.0,-4199,,0.0,24,-18,-4,0,3,1,26,1,2203,224c2092-44e1-4b73-879c-d0ad0c4b4c87
61038568,1652271618199785,293754212,-895490925,838,-25397,0.21000001,3.1415925,0.40539998,0.8154,0.55,1.14,74,34,0.010000001,-0.001,-0.010000001,-0.017,0.0,-4075,,0.0,13,-7,-2,3,3,1,26,1,2203,224c2092-44e1-4b73-879c-d0ad0c4b4c87
61140550,1652271618299785,293754212,-895490925,840,-25394,0.209,3.1415925,0.4057,0.81579995,0.55,1.14,74,34,0.029000001,-0.015000001,0.026,0.038000003,0.0,-4331,,0.0,-3,23,4,-2,3,1,26,1,2203,224c2092-44e1-4b73-879c-d0ad0c4b4c87
61235456,1652271618399785,293754212,-895490924,835,-25400,0.23500001,3.1415925,0.4059,0.8161,0.55,1.14,74,34,0.029000001,0.028,-0.007,0.061000004,0.0,-3428,,0.0,-6,-50,-4,0,3,1,26,1,2203,224c2092-44e1-4b73-879c-d0ad0c4b4c87
61340594,1652271618499785,293754212,-895490924,831,-25404,0.22500001,3.1415925,0.4062,0.8164,0.55,1.14,74,34,0.009000001,0.007,0.007,0.022000002,0.0,-4021,,0.0,-2,-31,0,5,3,1,26,1,2203,224c2092-44e1-4b73-879c-d0ad0c4b4c87
61443508,1652271618599785,293754212,-895490924,823,-25411,0.224,3.1415925,0.40649998,0.8167,0.55,1.14,74,34,0.025,-0.019000001,0.016,0.056,0.0,-3928,,0.0,-22,-1,3,-2,3,1,26,1,2203,224c2092-44e1-4b73-879c-d0ad0c4b4c87
61540647,1652271618699785,293754212,-895490924,828,-25406,0.22900002,3.1415925,0.4067,0.817,0.55,1.14,74,34,0.028,0.026,-0.010000001,0.023000002,0.0,-4061,,0.0,-24,24,2,-3,3,1,26,1,2203,224c2092-44e1-4b73-879c-d0ad0c4b4c87
61640669,1652271618799785,293754212,-895490924,819,-25416,0.202,3.1415925,0.40699998,0.81729996,0.55,1.14,74,34,0.027,-0.0050000004,0.027,0.036000002,0.0,-4035,,0.0,-28,49,0,5,3,1,26,1,2203,224c2092-44e1-4b73-879c-d0ad0c4b4c87
61744107,1652271618899785,293754212,-895490923,820,-25414,0.23200001,3.1415925,0.40719998,0.81759995,0.55,1.14,74,34,0.010000001,0.0050000004,-0.008,0.030000001,0.0,-4616,,0.0,-35,-22,1,-5,3,1,26,1,2203,224c2092-44e1-4b73-879c-d0ad0c4b4c87
61848751,1652271618999786,293754212,-895490923,815,-25420,0.22000001,3.1415925,0.4075,0.81799996,0.55,1.14,74,34,0.015000001,-0.009000001,-0.011000001,0.035,0.0,-4087,,0.0,-48,-15,0,4,3,1,26,1,2203,224c2092-44e1-4b73-879c-d0ad0c4b4c87
61940573,1652271619099785,293754212,-895490923,821,-25413,0.23400001,3.1415925,0.4078,0.8183,0.55,1.14,74,34,0.019000001,0.018000001,-0.007,0.034,0.0,-3762,,0.0,-49,-2,2,-3,3,1,26,1,2203,224c2092-44e1-4b73-879c-d0ad0c4b4c87
62043517,1652271619199784,293754211,-895490923,816,-25419,0.231,3.1415925,0.40809998,0.8186,0.55,1.14,74,34,0.012,-0.010000001,-0.006,0.106000006,0.0,-3554,,0.0,44,12,-2,2,3,1,26,1,2203,224c2092-44e1-4b73-879c-d0ad0c4b4c87
62133546,1652271619299784,293754211,-895490923,803,-25432,0.202,3.1415925,0.40829998,0.8189,0.55,1.14,74,34,0.010000001,0.009000001,0.003,0.002,0.0,-4001,,0.0,27,25,-5,0,3,1,26,1,2203,224c2092-44e1-4b73-879c-d0ad0c4b4c87
62237495,1652271619399784,293754211,-895490922,804,-25430,0.209,3.0495672,0.4086,0.8192,0.55,1.14,74,34,0.049000002,0.048,0.012,0.011000001,0.0,-3880,,0.0,44,-48,4,-2,3,1,26,1,2203,224c2092-44e1-4b73-879c-d0ad0c4b4c87
62342493,1652271619499784,293754211,-895490922,805,-25430,0.20700002,3.1415925,0.40879998,0.81949997,0.55,1.14,74,34,0.015000001,-0.009000001,-0.012,0.022000002,0.0,-4006,,0.0,48,-27,-5,-1,3,1,26,1,2203,224c2092-44e1-4b73-879c-d0ad0c4b4c87
62437530,1652271619599784,293754211,-895490922,804,-25431,0.23200001,3.1415925,0.4091,0.81979996,0.55,1.14,74,34,0.030000001,0.030000001,0.002,0.041,0.0,-27,,0.0,49,-12,-3,1,3,1,26,1,2203,224c2092-44e1-4b73-879c-d0ad0c4b4c87
62541480,1652271619699784,293754211,-895490922,803,-25432,0.22600001,3.1415925,0.4093,0.82009995,0.55,1.14,74,34,0.011000001,-0.010000001,-0.004,-0.014,0.0,-3967,,0.0,44,5,-1,3,3,1,26,1,2203,224c2092-44e1-4b73-879c-d0ad0c4b4c87
62641632,1652271619799784,293754211,-895490922,798,-25436,0.22600001,3.1415925,0.4095,0.8204,0.55,1.14,74,34,0.018000001,-0.016,0.008,0.055000003,0.0,-4139,,0.0,22,25,3,-2,3,1,26,1,2203,224c2092-44e1-4b73-879c-d0ad0c4b4c87
62737839,1652271619899784,293754211,-895490921,803,-25431,0.192,3.1415925,0.4098,0.8207,0.55,1.14,74,34,0.013,0.010000001,0.008,0.008,0.0,-27,,0.0,11,-46,1,-5,3,1,26,1,2203,224c2092-44e1-4b73-879c-d0ad0c4b4c87
62849485,1652271619999785,293754211,-895490921,806,-25429,0.2,3.1415925,0.41,0.82089996,0.55,1.14,74,34,0.018000001,0.013,-0.012,-0.013,0.0,-3927,,0.0,14,-28,0,4,3,1,26,1,2203,224c2092-44e1-4b73-879c-d0ad0c4b4c87
62941545,1652271620099784,293754211,-895490921,811,-25423,0.18900001,3.1415925,0.41009998,0.8211,0.55,1.14,74,34,0.026,0.017,0.020000001,-0.028,0.0,-3964,,0.0,18,-4,3,-3,3,1,26,1,2203,224c2092-44e1-4b73-879c-d0ad0c4b4c87
63033475,1652271620199784,293754211,-895490921,813,-25422,0.23200001,3.1415925,0.4103,0.82129997,0.55,1.14,74,34,0.021000002,0.021000002,-0.0050000004,0.025,0.0,-3756,,0.0,26,23,-4,0,3,1,26,1,2203,224c2092-44e1-4b73-879c-d0ad0c4b4c87
63138574,1652271620299784,293754211,-895490921,803,-25432,0.231,3.1415925,0.4104,0.8215,0.55,1.14,74,34,0.033,0.032,-0.008,0.032,0.0,-28,,0.0,37,29,0,4,3,1,26,1,2203,224c2092-44e1-4b73-879c-d0ad0c4b4c87
63242357,1652271620399784,293754211,-895490921,807,-25427,0.23300001,3.1415925,0.41059998,0.8217,0.55,1.14,74,34,0.018000001,-0.018000001,-0.001,-0.059000004,0.0,-28,,0.0,29,42,5,-1,3,1,26,1,2203,224c2092-44e1-4b73-879c-d0ad0c4b4c87
63338476,1652271620499784,293754211,-895490921,809,-25426,0.22800002,3.1415925,0.41079998,0.82189995,0.55,1.14,74,34,0.036000002,0.028,-0.022000002,0.054,0.0,-3980,,0.0,27,48,-2,2,3,1,26,1,2203,224c2092-44e1-4b73-879c-d0ad0c4b4c87
63438473,1652271620599784,293754211,-895490920,804,-25430,0.209,3.1415925,0.4109,0.8221,0.55,1.14,74,34,0.024,-0.010000001,0.021000002,-0.027,0.0,-3974,,0.0,19,-38,4,-1,3,1,26,1,2203,224c2092-44e1-4b73-879c-d0ad0c4b4c87
63543449,1652271620699784,293754211,-895490920,801,-25434,0.201,3.1415925,0.4111,0.82229996,0.55,1.14,74,34,0.038000003,-0.032,0.021000002,0.011000001,0.0,-3732,,0.0,-13,-3,0,4,3,1,26,1,2203,224c2092-44e1-4b73-879c-d0ad0c4b4c87
63638472,1652271620799784,293754211,-895490920,794,-25441,0.209,3.1415925,0.4112,0.8225,0.55,1.14,74,34,0.020000001,0.019000001,0.007,-0.030000001,0.0,-4116,,0.0,-32,20,0,5,3,1,26,1,2203,224c2092-44e1-4b73-879c-d0ad0c4b4c87
63738349,1652271620899784,293754210,-895490920,798,-25437,0.21000001,3.0861719,0.4113,0.8226,0.55,1.14,74,34,0.042000003,-0.042000003,-0.001,-0.003,0.0,-184,,0.0,44,40,0,5,3,1,26,1,2203,224c2092-44e1-4b73-879c-d0ad0c4b4c87
63851107,1652271620999785,293754210,-895490919,798,-25437,0.18800001,3.1415925,0.41149998,0.8229,0.55,1.14,74,34,0.013,0.011000001,0.008,-0.012,0.0,-5332,,0.0,20,-42,-3,1,3,1,26,1,2203,224c2092-44e1-4b73-879c-d0ad0c4b4c87
63934470,1652271621099784,293754210,-895490919,795,-25440,0.22700001,3.1415925,0.4116,0.8231,0.55,1.14,74,34,0.034,0.034,0.004,0.033,0.0,-4149,,0.0,29,-23,-4,0,3,1,26,1,2203,224c2092-44e1-4b73-879c-d0ad0c4b4c87
64042347,1652271621199784,293754210,-895490919,793,-25442,0.21900001,3.1415925,0.4118,0.8233,0.55,1.14,74,34,0.021000002,-0.017,0.013,-0.013,0.0,-4644,,0.0,22,-3,-1,3,3,1,26,1,2203,224c2092-44e1-4b73-879c-d0ad0c4b4c87
64142525,1652271621299784,293754210,-895490919,795,-25440,0.20700002,3.1415925,0.41189998,0.8235,0.55,1.14,74,34,0.027,-0.026,0.008,0.015000001,0.0,-3892,,0.0,-10,22,-4,0,3,1,26,1,2203,224c2092-44e1-4b73-879c-d0ad0c4b4c87
64237552,1652271621399784,293754210,-895490919,795,-25440,0.16900001,3.1415925,0.4121,0.8236,0.55,1.14,74,34,0.020000001,-0.012,-0.016,0.014,0.0,-3657,,0.0,-39,32,-1,3,3,1,26,1,2203,224c2092-44e1-4b73-879c-d0ad0c4b4c87
64339458,1652271621499784,293754209,-895490919,793,-25442,0.177,3.1415925,0.4122,0.82379997,0.55,1.14,74,34,0.018000001,0.0050000004,-0.017,-0.012,0.0,-3976,,0.0,45,28,-3,1,3,1,26,1,2203,224c2092-44e1-4b73-879c-d0ad0c4b4c87
64438499,1652271621599784,293754209,-895490919,794,-25441,0.187,3.1415925,0.41239998,0.824,0.55,1.14,74,34,0.029000001,-0.019000001,0.023000002,0.013,0.0,-27,,0.0,26,45,-4,0,3,1,26,1,2203,224c2092-44e1-4b73-879c-d0ad0c4b4c87
64540013,1652271621699784,293754209,-895490918,785,-25449,0.19500001,3.1415925,0.4125,0.8242,0.55,1.14,74,34,0.018000001,0.013,-0.013,-0.011000001,0.0,-4525,,0.0,11,-44,2,-4,3,1,26,1,2203,224c2092-44e1-4b73-879c-d0ad0c4b4c87
64640609,1652271621799784,293754209,-895490918,794,-25441,0.20500001,3.1415925,0.41259998,0.8244,0.55,1.14,74,34,0.022000002,-0.017,0.014,0.021000002,0.0,-3981,,0.0,0,-24,0,4,3,1,26,1,2203,224c2092-44e1-4b73-879c-d0ad0c4b4c87
64740574,1652271621899784,293754209,-895490918,781,-25454,0.20300001,3.1415925,0.4127,0.82449996,0.55,1.14,74,35,0.024,0.004,-0.023000002,0.031000001,0.0,-4009,,0.0,-18,-23,-2,3,3,1,26,1,2203,224c2092-44e1-4b73-879c-d0ad0c4b4c87
64839777,1652271621999785,293754209,-895490918,784,-25451,0.192,3.1415925,0.4129,0.8247,0.55,1.14,74,35,0.040000003,0.037,0.015000001,0.007,0.0,-36,,0.0,-7,-11,-2,2,3,1,26,1,2203,224c2092-44e1-4b73-879c-d0ad0c4b4c87
64936600,1652271622099784,293754209,-895490918,792,-25442,0.165,3.1415925,0.413,0.8249,0.55,1.14,74,35,0.019000001,0.006,-0.018000001,-0.008,0.0,-3887,,0.0,4,6,1,-5,3,1,26,1,2203,224c2092-44e1-4b73-879c-d0ad0c4b4c87
65040673,1652271622199784,293754209,-895490918,788,-25447,0.21400002,3.1415925,0.4131,0.825,0.55,1.14,74,35,0.017,-0.016,0.0050000004,0.024,0.0,-4118,,0.0,-10,11,-2,2,3,1,26,1,2203,224c2092-44e1-4b73-879c-d0ad0c4b4c87
65139877,1652271622299784,293754209,-895490918,796,-25439,0.192,3.1415925,0.4132,0.82519996,0.55,1.14,74,35,0.026,0.025,0.008,-0.013,0.0,-4382,,0.0,-11,35,-3,1,3,1,26,1,2203,224c2092-44e1-4b73-879c-d0ad0c4b4c87
65239456,1652271622399784,293754209,-895490917,791,-25444,0.209,3.1415925,0.41329998,0.8253,0.55,1.14,74,35,0.033,-0.030000001,0.014,0.031000001,0.0,-3527,,0.0,-25,-44,-1,4,3,1,26,1,2203,224c2092-44e1-4b73-879c-d0ad0c4b4c87
65339946,1652271622499784,293754209,-895490917,790,-25445,0.22700001,3.1415925,0.41349998,0.82549995,0.55,1.14,74,35,0.021000002,0.021000002,0.001,0.019000001,0.0,-3997,,0.0,-34,-26,0,4,3,1,26,1,2203,224c2092-44e1-4b73-879c-d0ad0c4b4c87
65439832,1652271622599784,293754209,-895490917,782,-25452,0.224,3.1415925,0.4136,0.82559997,0.55,1.14,74,35,0.017,0.015000001,0.007,-0.079,0.0,-3899,,0.0,-29,-19,2,-4,3,1,26,1,2203,224c2092-44e1-4b73-879c-d0ad0c4b4c87
65537524,1652271622699784,293754209,-895490917,787,-25448,0.21800001,3.1415925,0.41369998,0.8257,0.55,1.14,74,35,0.033,0.020000001,-0.027,0.041,0.0,-3924,,0.0,-14,-17,0,4,3,1,26,1,2203,224c2092-44e1-4b73-879c-d0ad0c4b4c87
65641458,1652271622799784,293754209,-895490917,785,-25450,0.155,3.1415925,0.4138,0.8258,0.55,1.14,74,35,0.010000001,-0.003,0.010000001,0.003,0.0,-3944,,0.0,-15,-15,0,4,3,1,26,1,2203,224c2092-44e1-4b73-879c-d0ad0c4b4c87
65734349,1652271622899784,293754209,-895490917,781,-25453,0.22800002,3.1415925,0.4138,0.82589996,0.55,1.14,73,33,0.010000001,-0.008,-0.006,-0.029000001,0.0,-4825,,0.0,-30,-5,1,-4,3,1,26,1,2203,224c2092-44e1-4b73-879c-d0ad0c4b4c87
65846340,1652271622999785,293754209,-895490917,785,-25450,0.18800001,3.1415925,0.4139,0.826,0.55,1.14,73,33,0.029000001,-0.017,0.024,0.018000001,0.0,-28,,0.0,-48,19,-2,2,3,1,26,1,2203,224c2092-44e1-4b73-879c-d0ad0c4b4c87
65938473,1652271623099784,293754208,-895490917,787,-25447,0.216,3.1415925,0.41399997,0.8261,0.55,1.14,73,33,0.013,0.0050000004,-0.012,-0.030000001,0.0,-3930,,0.0,40,36,3,-3,3,1,26,1,2203,224c2092-44e1-4b73-879c-d0ad0c4b4c87
66037655,1652271623199784,293754209,-895490917,796,-25439,0.208,3.1415925,0.4141,0.82629997,0.55,1.14,73,33,0.028,0.027,-0.007,-0.009000001,0.0,-28,,0.0,-48,43,0,4,3,1,26,1,2203,224c2092-44e1-4b73-879c-d0ad0c4b4c87
66138470,1652271623299784,293754209,-895490917,802,-25432,0.22000001,1.8022265,0.41419998,0.8264,0.55,1.14,73,33,0.07,0.069000006,-0.006,-0.18300001,0.0,-4191,,0.0,-15,45,3,-3,3,1,26,1,2203,224c2092-44e1-4b73-879c-d0ad0c4b4c87
66238377,1652271623399784,293754209,-895490916,847,-25388,0.23600002,1.4709135,0.41419998,0.8271,0.55,1.14,73,33,0.095000006,0.095000006,0.010000001,-0.43,0.0,-28,,0.0,49,-38,-3,1,3,1,26,1,2203,224c2092-44e1-4b73-879c-d0ad0c4b4c87
66337489,1652271623499784,293754210,-895490916,892,-25342,0.22500001,3.1415925,0.41399997,0.8264,0.55,1.14,73,33,0.038000003,-0.004,0.038000003,-0.633,0.0,-3301,,0.0,-25,-12,2,-4,3,1,26,1,2203,224c2092-44e1-4b73-879c-d0ad0c4b4c87
66441523,1652271623599784,293754210,-895490916,1002,-25233,0.22100002,1.473188,0.4136,0.8257,0.55,1.14,73,33,0.091000006,0.09,0.015000001,-0.98200005,0.0,-3798,,0.0,10,36,-2,3,3,1,26,1,2203,224c2092-44e1-4b73-879c-d0ad0c4b4c87
66539468,1652271623699784,293754211,-895490916,1103,-25132,0.22000001,0.8760821,0.4129,0.8249,0.55,1.14,73,33,0.133,0.132,-0.020000001,-1.1960001,0.0,-4006,,0.0,-4,38,0,4,3,1,26,1,2203,224c2092-44e1-4b73-879c-d0ad0c4b4c87
66638962,1652271623799784,293754212,-895490915,1223,-25011,0.22000001,1.2549206,0.4121,0.82409996,0.55,1.14,73,33,0.102000006,0.098000005,0.029000001,-1.245,0.0,-6085,,0.0,-13,-49,2,-3,3,1,26,1,2203,224c2092-44e1-4b73-879c-d0ad0c4b4c87
66740695,1652271623899784,293754212,-895490915,1350,-24885,0.21800001,1.7024943,0.41099998,0.82299995,0.55,1.14,68,34,0.074,0.072000004,0.017,-1.2700001,0.0,-4113,,0.0,46,-10,-2,2,3,1,26,1,2203,224c2092-44e1-4b73-879c-d0ad0c4b4c87
66851487,1652271623999785,293754213,-895490915,1498,-24736,0.216,1.3629258,0.40989998,0.8217,0.55,1.14,68,34,0.09,0.089,0.017,-1.3440001,0.0,-3554,,0.0,-6,34,4,-1,3,1,26,1,2203,224c2092-44e1-4b73-879c-d0ad0c4b4c87
66939501,1652271624099784,293754213,-895490914,1632,-24603,0.215,1.4651452,0.40879998,0.82049996,0.55,1.14,68,34,0.07700001,0.07700001,-0.009000001,-1.35,0.0,-4172,,0.0,48,-44,-1,3,3,1,26,1,2203,224c2092-44e1-4b73-879c-d0ad0c4b4c87
67040544,1652271624199784,293754214,-895490914,1771,-24464,0.21400002,2.2446716,0.4077,0.819,0.55,1.14,68,34,0.049000002,0.049000002,-0.004,-1.4070001,0.0,-3942,,0.0,-18,-33,-5,-1,3,1,26,1,2203,224c2092-44e1-4b73-879c-d0ad0c4b4c87
67144514,1652271624299784,293754214,-895490914,1907,-24328,0.21200001,1.0972244,0.4067,0.8178,0.55,1.14,68,34,0.115,0.109000005,0.038000003,-1.325,0.0,-5008,,0.0,37,5,0,5,3,1,26,1,2203,224c2092-44e1-4b73-879c-d0ad0c4b4c87
67240549,1652271624399784,293754215,-895490913,2056,-24179,0.21200001,0.8261585,0.4057,0.8168,0.55,1.14,68,34,0.142,0.141,0.017,-1.419,0.0,-3990,,0.0,34,-45,-1,3,3,1,26,1,2203,224c2092-44e1-4b73-879c-d0ad0c4b4c87
67339473,1652271624499784,293754216,-895490913,2191,-24043,0.21300001,2.7070844,0.40469998,0.8157,0.55,1.14,68,34,0.042000003,0.042000003,-0.004,-1.468,0.0,-4101,,0.0,1,-26,2,-4,3,1,26,1,2203,224c2092-44e1-4b73-879c-d0ad0c4b4c87
67439783,1652271624599784,293754216,-895490913,2339,-23896,0.21300001,1.3098065,0.4037,0.8146,0.55,1.14,68,34,0.09,0.089,0.007,-1.409,0.0,-4052,,0.0,46,-7,-1,4,3,1,26,1,2203,224c2092-44e1-4b73-879c-d0ad0c4b4c87
67533553,1652271624699784,293754217,-895490913,2480,-23755,0.21300001,3.1415925,0.4028,0.8135,0.55,1.14,68,34,0.030000001,0.029000001,0.007,-1.437,0.0,-4138,,0.0,-18,15,0,5,3,1,26,1,2203,224c2092-44e1-4b73-879c-d0ad0c4b4c87
67637876,1652271624799784,293754217,-895490913,2622,-23613,0.21300001,1.4239048,0.40179998,0.81229997,0.55,1.14,68,34,0.080000006,0.075,-0.028,-1.409,0.0,-258,,0.0,13,18,0,5,3,1,26,1,2203,224c2092-44e1-4b73-879c-d0ad0c4b4c87
67745362,1652271624899784,293754217,-895490913,2756,-23478,0.21300001,1.9734032,0.4008,0.81119996,0.55,1.14,68,32,0.07300001,-0.046000004,-0.057000004,-1.411,0.0,-4681,,0.0,7,-8,5,-1,3,1,26,1,2203,224c2092-44e1-4b73-879c-d0ad0c4b4c87
67849483,1652271624999785,293754217,-895490913,2906,-23328,0.21200001,2.953369,0.3999,0.81009996,0.55,1.14,68,32,0.048,0.019000001,-0.044000003,-1.4070001,0.0,-3982,,0.0,-19,-42,3,-3,3,1,26,1,2203,224c2092-44e1-4b73-879c-d0ad0c4b4c87
67941499,1652271625099784,293754217,-895490914,3048,-23187,0.21300001,2.0968535,0.3989,0.80899996,0.55,1.14,68,32,0.07300001,-0.012,-0.072000004,-1.3750001,0.0,-4013,,0.0,-31,14,0,5,3,1,26,1,2203,224c2092-44e1-4b73-879c-d0ad0c4b4c87
68041545,1652271625199784,293754216,-895490914,3194,-23040,0.21200001,2.025769,0.398,0.80789995,0.55,1.14,68,32,0.075,-0.017,-0.07300001,-1.4590001,0.0,-3960,,0.0,42,-43,2,-3,3,1,26,1,2203,224c2092-44e1-4b73-879c-d0ad0c4b4c87
68140535,1652271625299784,293754216,-895490915,3329,-22905,0.21200001,1.73393,0.39699998,0.8067,0.55,1.14,68,32,0.086,-0.033,-0.079,-1.3980001,0.0,-3739,,0.0,6,-5,4,-1,3,1,26,1,2203,224c2092-44e1-4b73-879c-d0ad0c4b4c87
68241455,1652271625399784,293754216,-895490916,3466,-22769,0.21200001,2.693839,0.396,0.8056,0.55,1.14,68,32,0.056,-0.012,-0.055000003,-1.3410001,0.0,-3977,,0.0,-30,44,-4,0,3,1,26,1,2203,224c2092-44e1-4b73-879c-d0ad0c4b4c87
68340820,1652271625499783,293754215,-895490916,3607,-22628,0.21200001,1.9337158,0.39499998,0.8045,0.55,1.14,68,32,0.065000005,-0.059000004,-0.029000001,-1.4230001,0.0,-249,,0.0,19,20,-4,0,3,1,26,1,2203,224c2092-44e1-4b73-879c-d0ad0c4b4c87
68433515,1652271625599783,293754215,-895490916,3747,-22487,0.21200001,1.6052172,0.39409998,0.8037,0.55,1.14,68,32,0.09200001,-0.034,-0.085,-1.4230001,0.0,-28,,0.0,-35,-22,4,-1,3,1,26,1,2203,224c2092-44e1-4b73-879c-d0ad0c4b4c87
68542451,1652271625699783,293754214,-895490917,3889,-22346,0.21200001,1.2294052,0.3931,0.80259997,0.55,1.14,68,32,0.105000004,-0.087000005,-0.060000002,-1.4330001,0.0,-3887,,0.0,-7,18,-5,0,3,1,26,1,2203,224c2092-44e1-4b73-879c-d0ad0c4b4c87
68643479,1652271625799783,293754213,-895490917,4030,-22205,0.21100001,2.3463368,0.39229998,0.8017,0.55,1.14,68,32,0.07,-0.017,-0.068,-1.393,0.0,-3998,,0.0,33,-30,0,4,3,1,26,1,2203,224c2092-44e1-4b73-879c-d0ad0c4b4c87
68742524,1652271625899783,293754213,-895490918,4189,-22046,0.21100001,1.4045638,0.3915,0.8007,0.55,1.14,68,34,0.11400001,-0.040000003,-0.10700001,-1.4280001,0.0,-3957,,0.0,-10,4,-3,1,3,1,26,1,2203,224c2092-44e1-4b73-879c-d0ad0c4b4c87
68850510,1652271625999784,293754212,-895490919,4315,-21920,0.21200001,1.7970345,0.39069998,0.79969996,0.55,1.14,68,34,0.076000005,-0.066,-0.038000003,-1.4360001,0.0,-4016,,0.0,26,44,-1,3,3,1,26,1,2203,224c2092-44e1-4b73-879c-d0ad0c4b4c87
68942525,1652271626099783,293754212,-895490919,4447,-21788,0.21000001,1.9795055,0.3899,0.7988,0.55,1.14,68,34,0.067,0.038000003,-0.056,-1.4200001,0.0,-3956,,0.0,-2,11,-1,4,3,1,26,1,2203,224c2092-44e1-4b73-879c-d0ad0c4b4c87
69042719,1652271626199783,293754212,-895490919,4589,-21645,0.21300001,2.3455896,0.3891,0.7977,0.55,1.14,68,34,0.057000004,-0.051000003,-0.025,-1.411,0.0,-4247,,0.0,-29,-11,1,-5,3,1,26,1,2203,224c2092-44e1-4b73-879c-d0ad0c4b4c87
69138594,1652271626299783,293754211,-895490919,4728,-21506,0.21300001,3.1415925,0.3884,0.79679996,0.55,1.14,68,34,0.036000002,-0.018000001,-0.032,-1.4080001,0.0,-72,,0.0,26,-23,3,-3,3,1,26,1,2203,224c2092-44e1-4b73-879c-d0ad0c4b4c87
69243249,1652271626399783,293754211,-895490919,4855,-21379,0.21200001,2.2933443,0.3876,0.7959,0.55,1.14,68,34,0.059000004,0.031000001,-0.05,-1.3030001,0.0,-4762,,0.0,20,-48,2,-4,3,1,26,1,2203,224c2092-44e1-4b73-879c-d0ad0c4b4c87
69334477,1652271626499783,293754211,-895490919,4987,-21247,0.21300001,2.6168175,0.38689998,0.7949,0.55,1.14,68,34,0.041,-0.040000003,0.011000001,-1.424,0.0,-3979,,0.0,-2,-49,4,-2,3,1,26,1,2203,224c2092-44e1-4b73-879c-d0ad0c4b4c87
69442500,1652271626599783,293754211,-895490920,5135,-21099,0.21100001,2.032897,0.3861,0.79389995,0.55,1.14,68,34,0.067,0.033,-0.058000002,-1.348,0.0,-4019,,0.0,-16,49,1,-5,3,1,26,1,2203,224c2092-44e1-4b73-879c-d0ad0c4b4c87
69544568,1652271626699783,293754211,-895490920,5276,-20959,0.21200001,2.288525,0.3854,0.793,0.55,1.14,68,34,0.064,-0.048,-0.042000003,-1.3590001,0.0,-3980,,0.0,-38,19,0,5,3,1,26,1,2203,224c2092-44e1-4b73-879c-d0ad0c4b4c87
69644552,1652271626799783,293754210,-895490920,5417,-20817,0.21200001,3.1415925,0.3847,0.79209995,0.55,1.14,68,34,0.017,-0.0050000004,0.016,-1.3800001,0.0,-3980,,0.0,23,28,3,-2,3,1,26,1,2203,224c2092-44e1-4b73-879c-d0ad0c4b4c87
69743454,1652271626899783,293754210,-895490920,5550,-20684,0.21200001,3.1415925,0.384,0.7912,0.55,1.14,68,34,0.027,0.019000001,-0.018000001,-1.422,0.0,-3377,,0.0,13,44,1,-4,3,1,26,1,2203,224c2092-44e1-4b73-879c-d0ad0c4b4c87
69852617,1652271626999784,293754210,-895490919,5694,-20541,0.21300001,2.618219,0.38329998,0.79029995,0.55,1.14,68,34,0.043,-0.038000003,0.021000002,-1.399,0.0,-5127,,0.0,-11,-33,-2,2,3,1,26,1,2203,224c2092-44e1-4b73-879c-d0ad0c4b4c87
69940697,1652271627099783,293754209,-895490919,5823,-20411,0.21300001,2.1279867,0.38259998,0.7895,0.55,1.14,68,34,0.061000004,-0.038000003,0.047000002,-1.3570001,0.0,-5065,,0.0,40,21,3,-2,3,1,26,1,2203,224c2092-44e1-4b73-879c-d0ad0c4b4c87
70040498,1652271627199783,293754209,-895490918,5966,-20268,0.21300001,3.1415925,0.382,0.78859997,0.55,1.14,68,34,0.046000004,-0.001,0.046000004,-1.371,0.0,-3708,,0.0,8,-8,3,-3,3,1,26,1,2203,224c2092-44e1-4b73-879c-d0ad0c4b4c87
70144450,1652271627299783,293754209,-895490918,6101,-20133,0.21300001,3.1415925,0.3813,0.78779995,0.55,1.14,68,34,0.030000001,-0.017,0.025,-1.3620001,0.0,-4178,,0.0,-16,48,3,-2,3,1,26,1,2203,224c2092-44e1-4b73-879c-d0ad0c4b4c87
70236610,1652271627399783,293754209,-895490917,6245,-19990,0.21300001,3.1415925,0.3807,0.787,0.55,1.14,68,34,0.020000001,0.013,0.015000001,-1.404,0.0,-4001,,0.0,-33,-11,0,4,3,1,26,1,2203,224c2092-44e1-4b73-879c-d0ad0c4b4c87
70340413,1652271627499783,293754208,-895490917,6399,-19836,0.21300001,2.0408242,0.38009998,0.7862,0.55,1.14,68,34,0.061000004,-0.059000004,-0.018000001,-1.429,0.0,-4336,,0.0,30,11,-2,3,3,1,26,1,2203,224c2092-44e1-4b73-879c-d0ad0c4b4c87
70444075,1652271627599783,293754208,-895490917,6543,-19692,0.21300001,3.1415925,0.37939999,0.7854,0.55,1.14,68,34,0.019000001,-0.017,0.009000001,-1.36,0.0,-4323,,0.0,-19,28,-4,0,3,1,26,1,2203,224c2092-44e1-4b73-879c-d0ad0c4b4c87
70541807,1652271627699783,293754207,-895490916,6690,-19545,0.21400002,2.2818217,0.3788,0.78459996,0.55,1.14,68,34,0.048,-0.045,0.017,-1.5000001,0.0,-4321,,0.0,36,-39,0,5,3,1,26,1,2203,224c2092-44e1-4b73-879c-d0ad0c4b4c87
70641461,1652271627799783,293754207,-895490916,6849,-19385,0.21300001,3.1415925,0.3782,0.78389996,0.55,1.14,68,34,0.038000003,0.0,0.038000003,-1.5170001,0.0,-3728,,0.0,4,12,4,-1,3,1,26,1,2203,224c2092-44e1-4b73-879c-d0ad0c4b4c87
70741572,1652271627899783,293754207,-895490916,7000,-19235,0.21400002,2.4152424,0.37759998,0.7831,0.55,1.14,68,34,0.047000002,-0.047000002,-0.002,-1.534,0.0,-27,,0.0,-33,50,-4,1,3,1,26,1,2203,224c2092-44e1-4b73-879c-d0ad0c4b4c87
70850541,1652271627999784,293754206,-895490915,7135,-19100,0.21300001,2.2474554,0.377,0.7823,0.55,1.14,68,34,0.07,-0.001,0.07,-1.4940001,0.0,-4043,,0.0,29,1,-1,4,3,1,26,1,2203,224c2092-44e1-4b73-879c-d0ad0c4b4c87
70942217,1652271628099783,293754206,-895490914,7289,-18945,0.21300001,3.1415925,0.3764,0.7816,0.55,1.14,68,34,0.025,0.011000001,0.023000002,-1.521,0.0,-4688,,0.0,19,-32,5,-1,3,1,26,1,2203,224c2092-44e1-4b73-879c-d0ad0c4b4c87
71046496,1652271628199783,293754206,-895490914,7436,-18799,0.21400002,1.5830003,0.3759,0.7808,0.55,1.14,68,34,0.078,-0.056,0.054,-1.5580001,0.0,-4008,,0.0,-20,24,-2,2,3,1,26,1,2203,224c2092-44e1-4b73-879c-d0ad0c4b4c87
71137458,1652271628299783,293754206,-895490913,7581,-18653,0.21300001,2.7996354,0.3752,0.78,0.55,1.14,68,34,0.05,0.042000003,0.027,-1.4970001,0.0,-3106,,0.0,-39,-18,3,-3,3,1,26,1,2203,224c2092-44e1-4b73-879c-d0ad0c4b4c87
71242602,1652271628399783,293754205,-895490913,7729,-18505,0.21300001,2.9861877,0.37469998,0.7793,0.55,1.14,68,34,0.038000003,-0.038000003,-0.002,-1.5130001,0.0,-4249,,0.0,47,14,1,-5,3,1,26,1,2203,224c2092-44e1-4b73-879c-d0ad0c4b4c87
71342401,1652271628499783,293754205,-895490913,7880,-18355,0.21300001,3.1415925,0.3742,0.7787,0.55,1.14,68,34,0.029000001,0.029000001,-0.002,-1.557,0.0,-28,,0.0,31,29,-2,3,3,1,26,1,2203,224c2092-44e1-4b73-879c-d0ad0c4b4c87
71442536,1652271628599783,293754205,-895490912,8043,-18192,0.21200001,3.047984,0.3737,0.7779,0.55,1.14,68,34,0.047000002,0.037,0.030000001,-1.608,0.0,-28,,0.0,47,-38,-1,3,3,1,26,1,2203,224c2092-44e1-4b73-879c-d0ad0c4b4c87
71543765,1652271628699783,293754206,-895490912,8193,-18042,0.21200001,3.1415925,0.37309998,0.7772,0.55,1.14,68,34,0.022000002,0.021000002,-0.002,-1.5680001,0.0,-27,,0.0,-43,-10,-1,3,3,1,26,1,2203,224c2092-44e1-4b73-879c-d0ad0c4b4c87
71647517,1652271628799783,293754206,-895490912,8361,-17874,0.21100001,1.5294794,0.3725,0.7765,0.55,1.14,68,34,0.071,0.07,-0.013,-1.598,0.0,-4037,,0.0,-15,-1,0,4,3,1,26,1,2203,224c2092-44e1-4b73-879c-d0ad0c4b4c87
71744200,1652271628899783,293754206,-895490912,8517,-17717,0.21100001,1.5028101,0.37199998,0.7757,0.55,1.14,68,33,0.081,0.079,0.019000001,-1.6330001,0.0,-4690,,0.0,34,19,2,-4,3,1,26,1,2203,224c2092-44e1-4b73-879c-d0ad0c4b4c87
71850964,1652271628999784,293754207,-895490912,8680,-17554,0.21200001,3.1415925,0.3714,0.775,0.55,1.14,68,33,0.042000003,0.014,-0.040000003,-1.58,0.0,-291,,0.0,-39,27,2,-4,3,1,26,1,2203,224c2092-44e1-4b73-879c-d0ad0c4b4c87
71943438,1652271629099783,293754207,-895490912,8850,-17384,0.21100001,0.7592309,0.3709,0.77419996,0.55,1.14,68,33,0.142,0.13800001,-0.037,-1.6370001,6.0236454,-29,,0.0,16,8,2,-4,3,1,26,1,2203,224c2092-44e1-4b73-879c-d0ad0c4b4c87
72039456,1652271629199783,293754208,-895490912,9020,-17214,0.21200001,3.1415925,0.3703,0.7734,0.55,1.14,68,33,0.044000003,0.016,-0.041,-1.728,6.0391684,-3499,,0.0,-31,-12,4,-2,3,1,26,1,2203,224c2092-44e1-4b73-879c-d0ad0c4b4c87
72143960,1652271629299783,293754208,-895490912,9194,-17041,0.21100001,1.9203277,0.3698,0.7726,0.55,1.14,68,33,0.057000004,0.052,-0.023000002,-1.733,6.0391684,-4437,,0.0,-14,-22,0,5,3,1,26,1,2203,224c2092-44e1-4b73-879c-d0ad0c4b4c87
72247801,1652271629399783,293754208,-895490912,9365,-16870,0.21100001,1.1959589,0.36929998,0.7718,0.55,1.14,68,33,0.091000006,0.085,-0.032,-1.695,6.0391684,-4321,,0.0,33,-33,-2,2,3,1,26,1,2203,224c2092-44e1-4b73-879c-d0ad0c4b4c87
72343623,1652271629499783,293754209,-895490912,9528,-16706,0.21100001,3.1415925,0.36879998,0.7711,0.55,1.14,68,33,0.041,0.023000002,-0.033,-1.743,6.0391684,-4133,,0.0,-35,-49,3,-3,3,1,26,1,2203,224c2092-44e1-4b73-879c-d0ad0c4b4c87
72444458,1652271629599783,293754209,-895490913,9698,-16537,0.21000001,1.522475,0.3683,0.7704,0.55,1.14,68,33,0.072000004,0.069000006,-0.018000001,-1.7760001,6.0391684,-3903,,0.0,-9,39,-4,1,3,1,26,1,2203,224c2092-44e1-4b73-879c-d0ad0c4b4c87
72545495,1652271629699783,293754209,-895490913,9883,-16352,0.21100001,3.1415925,0.3678,0.7697,0.55,1.14,68,33,0.025,-0.002,-0.025,-1.7590001,6.0391684,-4007,,0.0,7,35,-3,1,3,1,26,1,2203,224c2092-44e1-4b73-879c-d0ad0c4b4c87
72645448,1652271629799783,293754209,-895490913,10061,-16173,0.21100001,1.1415708,0.3674,0.76909995,0.55,1.14,68,33,0.10300001,0.083000004,-0.061000004,-1.7590001,6.0391684,-3866,,0.0,34,5,1,-5,3,1,26,1,2203,224c2092-44e1-4b73-879c-d0ad0c4b4c87
72745535,1652271629899783,293754210,-895490913,10250,-15985,0.21100001,2.4485488,0.3669,0.7685,0.55,1.14,68,34,0.058000002,0.023000002,-0.054,-1.8090001,6.0391684,-4020,,0.0,-30,-36,-4,1,3,1,26,1,2203,224c2092-44e1-4b73-879c-d0ad0c4b4c87
72856955,1652271629999784,293754210,-895490914,10437,-15797,0.21200001,2.0881557,0.3664,0.7678,0.55,1.14,68,34,0.074,0.008,-0.074,-1.8270001,6.0391684,-4258,,0.0,-29,16,4,-2,3,1,26,1,2203,224c2092-44e1-4b73-879c-d0ad0c4b4c87
72937557,1652271630099783,293754210,-895490914,10624,-15610,0.21100001,3.1415925,0.366,0.7672,0.55,1.14,68,34,0.043,0.002,-0.043,-1.8420001,6.0391684,-4057,,0.0,-38,-28,5,-1,3,1,26,1,2203,224c2092-44e1-4b73-879c-d0ad0c4b4c87
73045593,1652271630199783,293754210,-895490915,10819,-15415,0.21100001,1.5654132,0.3655,0.7664,0.55,1.14,68,34,0.091000006,0.035,-0.08400001,-1.8700001,6.0391684,-4499,,0.0,-36,24,4,-2,3,1,26,1,2203,224c2092-44e1-4b73-879c-d0ad0c4b4c87
73145620,1652271630299783,293754210,-895490915,11005,-15230,0.21100001,1.5886935,0.36499998,0.7658,0.55,1.14,68,34,0.089,0.036000002,-0.082,-1.9290001,6.0391684,-4083,,0.0,-22,-47,-3,1,3,1,26,1,2203,224c2092-44e1-4b73-879c-d0ad0c4b4c87
73245486,1652271630399783,293754210,-895490916,11203,-15031,0.21100001,2.8735597,0.3645,0.7651,0.55,1.14,68,34,0.055000003,-0.008,-0.055000003,-1.9850001,6.0391684,-3953,,0.0,-25,1,5,-1,3,1,26,1,2203,224c2092-44e1-4b73-879c-d0ad0c4b4c87
73345530,1652271630499783,293754210,-895490916,11396,-14839,0.21200001,3.1415925,0.36409998,0.7644,0.55,1.14,68,34,0.043,-0.012,-0.041,-1.9640001,6.0391684,-3777,,0.0,-44,-34,-1,4,3,1,26,1,2203,224c2092-44e1-4b73-879c-d0ad0c4b4c87
73444794,1652271630599783,293754209,-895490917,11588,-14646,0.21100001,2.7745993,0.3636,0.7639,0.55,1.14,68,34,0.057000004,-0.009000001,-0.057000004,-1.9570001,6.0391684,-28,,0.0,36,31,1,-5,3,1,26,1,2203,224c2092-44e1-4b73-879c-d0ad0c4b4c87
73545838,1652271630699783,293754209,-895490917,11781,-14453,0.21200001,2.2093287,0.36319998,0.7633,0.55,1.14,68,34,0.072000004,-0.0050000004,-0.072000004,-1.9020001,6.0391684,-4360,,0.0,24,-21,3,-3,3,1,26,1,2203,224c2092-44e1-4b73-879c-d0ad0c4b4c87
73646458,1652271630799783,293754209,-895490918,11980,-14255,0.21200001,2.3436642,0.3628,0.7628,0.55,1.14,68,34,0.068,-0.009000001,-0.068,-1.9650002,6.0391684,-3916,,0.0,10,18,0,5,3,1,26,1,2203,224c2092-44e1-4b73-879c-d0ad0c4b4c87
73745747,1652271630899783,293754209,-895490918,12184,-14050,0.21100001,1.6654625,0.3624,0.76229995,0.55,1.14,68,30,0.086,0.035,-0.078,-1.9860001,6.0391684,-4205,,0.0,12,-45,4,-2,3,1,26,1,2203,224c2092-44e1-4b73-879c-d0ad0c4b4c87
73845501,1652271630999784,293754209,-895490919,12376,-13859,0.21200001,2.6994123,0.362,0.7619,0.55,1.14,68,30,0.055000003,0.015000001,-0.053000003,-1.9990001,6.0391684,-3890,,0.0,22,-2,-2,3,3,1,26,1,2203,224c2092-44e1-4b73-879c-d0ad0c4b4c87
73946450,1652271631099783,293754209,-895490920,12566,-13668,0.21200001,2.1046503,0.36159998,0.7614,0.55,1.14,68,30,0.071,0.020000001,-0.068,-1.983,6.0391684,-7838,,0.0,29,48,4,-1,3,1,26,1,2203,224c2092-44e1-4b73-879c-d0ad0c4b4c87
74046613,1652271631199783,293754209,-895490920,12765,-13469,0.21200001,2.2119837,0.3612,0.76089996,0.55,1.14,68,30,0.067,0.020000001,-0.064,-1.9860001,6.0391684,-4218,,0.0,39,-6,2,-3,3,1,26,1,2203,224c2092-44e1-4b73-879c-d0ad0c4b4c87
74146260,1652271631299783,293754209,-895490921,12956,-13279,0.21200001,2.0648367,0.3608,0.7603,0.55,1.14,68,30,0.07300001,0.018000001,-0.071,-1.9360001,6.0391684,-4664,,0.0,30,17,0,4,4,1,26,3,2203,224c2092-44e1-4b73-879c-d0ad0c4b4c87
74242531,1652271631399783,293754209,-895490922,13140,-13095,0.21200001,2.609069,0.3604,0.7599,0.55,1.14,68,30,0.058000002,0.011000001,-0.057000004,-1.9820001,6.0391684,-27,,0.0,18,42,0,4,4,1,26,3,2203,224c2092-44e1-4b73-879c-d0ad0c4b4c87
74346483,1652271631499783,293754209,-895490922,13333,-12901,0.21200001,2.3057725,0.35999998,0.7594,0.55,1.14,68,30,0.060000002,0.028,-0.053000003,-1.9670001,6.0391684,-3962,,0.0,12,-23,4,-2,4,1,26,3,2203,224c2092-44e1-4b73-879c-d0ad0c4b4c87
74445491,1652271631599783,293754209,-895490923,13532,-12703,0.21100001,2.3990343,0.3595,0.75879997,0.55,1.14,68,30,0.064,0.009000001,-0.063,-1.9440001,6.0391684,-3885,,0.0,1,7,-1,4,4,1,26,3,2203,224c2092-44e1-4b73-879c-d0ad0c4b4c87
74546374,1652271631699783,293754209,-895490924,13729,-12505,0.21000001,3.1415925,0.35909998,0.7583,0.55,1.14,68,30,0.041,0.006,-0.041,-1.9990001,6.0391684,-4821,,0.0,-21,45,3,-2,4,1,26,3,2203,224c2092-44e1-4b73-879c-d0ad0c4b4c87
74646713,1652271631799782,293754208,-895490924,13924,-12310,0.21000001,3.1415925,0.35869998,0.75769997,0.55,1.14,68,30,0.044000003,-0.004,-0.043,-1.9860001,6.0391684,-4152,,0.0,49,-9,1,-5,4,1,26,3,2203,224c2092-44e1-4b73-879c-d0ad0c4b4c87
74737613,1652271631899782,293754208,-895490925,14123,-12112,0.21000001,2.2560432,0.3583,0.7572,0.55,1.14,68,34,0.067,0.013,-0.066,-1.973,6.0391684,-4094,,0.0,28,24,-4,1,4,1,26,3,2203,224c2092-44e1-4b73-879c-d0ad0c4b4c87
74852041,1652271631999783,293754208,-895490925,14316,-11918,0.21000001,2.7462015,0.3579,0.75659996,0.55,1.14,68,34,0.056,0.003,-0.056,-2.013,6.0391684,-28,,0.0,4,-50,1,-4,4,1,26,3,2203,224c2092-44e1-4b73-879c-d0ad0c4b4c87
74947455,1652271632099782,293754208,-895490926,14504,-11731,0.21000001,3.1415925,0.3575,0.7561,0.55,1.14,68,34,0.027,-0.013,-0.024,-1.9280001,6.0391684,-3978,,0.0,-31,-1,1,5,4,1,26,3,2203,224c2092-44e1-4b73-879c-d0ad0c4b4c87
75043626,1652271632199782,293754207,-895490926,14701,-11534,0.208,3.1415925,0.3572,0.75549996,0.55,1.14,68,34,0.043,-0.032,-0.029000001,-1.8160001,6.0391684,-4125,,0.0,21,-34,-3,1,4,1,26,3,2203,224c2092-44e1-4b73-879c-d0ad0c4b4c87
75147462,1652271632299782,293754207,-895490927,14871,-11363,0.20700002,3.0073664,0.3567,0.7549,0.53999996,1.14,68,34,0.047000002,-0.037,-0.030000001,-1.6550001,6.0391684,-3984,,0.0,-34,31,2,-3,4,1,27,3,2203,224c2092-44e1-4b73-879c-d0ad0c4b4c87
75247507,1652271632399782,293754206,-895490927,15023,-11212,0.209,3.1415925,0.35619998,0.75439996,0.53999996,1.14,68,34,0.041,-0.020000001,-0.036000002,-1.4820001,6.0391684,-3825,,0.0,21,-10,-3,1,4,1,27,3,2203,224c2092-44e1-4b73-879c-d0ad0c4b4c87
75348559,1652271632499782,293754206,-895490927,15143,-11091,0.209,3.1415925,0.3558,0.7539,0.53999996,1.14,68,34,0.014,-0.014,0.001,-1.2980001,6.0391684,-5077,,0.0,-13,-38,3,-3,4,1,27,3,2203,224c2092-44e1-4b73-879c-d0ad0c4b4c87
75447618,1652271632599782,293754205,-895490927,15256,-10978,0.21000001,2.9460862,0.3554,0.75329995,0.53999996,1.14,68,34,0.038000003,-0.037,0.007,-1.074,6.0391684,-4447,,0.0,47,-41,2,-4,4,1,27,3,2203,224c2092-44e1-4b73-879c-d0ad0c4b4c87
75548565,1652271632699782,293754205,-895490928,15360,-10874,0.21000001,3.1415925,0.355,0.7528,0.53999996,1.14,68,34,0.045,-0.033,-0.031000001,-0.95100003,6.0391684,-3848,,0.0,0,37,5,-1,4,1,27,3,2203,224c2092-44e1-4b73-879c-d0ad0c4b4c87
75639513,1652271632799782,293754204,-895490928,15440,-10795,0.21000001,2.1756604,0.3545,0.75229996,0.53999996,1.14,68,34,0.05,-0.048,0.012,-0.799,6.0391684,-4231,,0.0,45,15,-4,0,4,1,27,3,2203,224c2092-44e1-4b73-879c-d0ad0c4b4c87
75747566,1652271632899782,293754204,-895490928,15518,-10717,0.21000001,3.1415925,0.3541,0.75189996,0.53999996,1.14,68,30,0.008,-0.004,0.007,-0.69500005,6.0391684,-5003,,0.0,4,12,-3,1,4,1,27,3,2203,224c2092-44e1-4b73-879c-d0ad0c4b4c87
75857472,1652271632999783,293754204,-895490928,15578,-10656,0.209,1.6347077,0.35369998,0.7513,0.53999996,1.14,68,30,0.065000005,-0.063,0.018000001,-0.592,6.0391684,-3955,,0.0,-45,17,1,-5,4,1,27,3,2203,224c2092-44e1-4b73-879c-d0ad0c4b4c87
75949459,1652271633099782,293754203,-895490928,15622,-10612,0.209,3.1415925,0.3532,0.75079995,0.53999996,1.14,68,30,0.025,0.006,0.024,-0.43800002,6.0391684,-3915,,0.0,16,28,2,-4,4,1,27,3,2203,224c2092-44e1-4b73-879c-d0ad0c4b4c87
76045676,1652271633199782,293754203,-895490928,15653,-10581,0.208,3.1415925,0.35279998,0.7503,0.53999996,1.14,68,30,0.036000002,0.027,-0.023000002,-0.39100003,6.0391684,-4148,,0.0,13,13,1,-5,4,1,27,3,2203,224c2092-44e1-4b73-879c-d0ad0c4b4c87
76149603,1652271633299782,293754203,-895490928,15685,-10550,0.20600002,1.7603282,0.3525,0.75,0.53999996,1.14,68,30,0.079,-0.037,0.069000006,-0.3,6.0391684,-3993,,0.0,-10,25,-3,1,4,1,27,3,2203,224c2092-44e1-4b73-879c-d0ad0c4b4c87
76245480,1652271633399782,293754203,-895490927,15727,-10507,0.20700002,2.7987256,0.3522,0.7496,0.53999996,1.14,68,30,0.054,0.035,0.041,-0.293,6.0391684,-3969,,0.0,-22,-27,4,-1,4,1,27,3,2203,224c2092-44e1-4b73-879c-d0ad0c4b4c87
76349677,1652271633499782,293754203,-895490927,15740,-10495,0.21000001,3.1415925,0.35189998,0.7493,0.53999996,1.14,68,30,0.013,0.010000001,0.009000001,-0.26000002,6.0391684,-4980,,0.0,-20,-14,-4,1,4,1,27,3,2203,224c2092-44e1-4b73-879c-d0ad0c4b4c87
76449461,1652271633599782,293754203,-895490927,15757,-10478,0.18,0.77273923,0.3515,0.7489,0.53999996,1.14,68,30,0.17600001,0.15300001,0.087000005,-0.20700002,0.5190783,-3930,,0.0,44,27,-5,-1,4,1,27,3,2203,224c2092-44e1-4b73-879c-d0ad0c4b4c87
76544451,1652271633699782,293754205,-895490926,15782,-10453,0.178,0.43278787,0.35119998,0.7486,0.53999996,1.14,68,30,0.316,0.27400002,0.157,-0.35300002,0.5206683,-3479,,0.0,24,45,-3,2,4,1,27,3,2203,224c2092-44e1-4b73-879c-d0ad0c4b4c87
76649449,1652271633799782,293754208,-895490923,15845,-10390,0.201,0.4233769,0.35099998,0.7486,0.53999996,1.14,68,30,0.36,0.254,0.25500003,-0.84300005,0.7863835,-3870,,0.0,-49,-50,-2,2,4,1,27,3,2203,224c2092-44e1-4b73-879c-d0ad0c4b4c87
76749463,1652271633899782,293754210,-895490920,15957,-10278,0.2,0.2690287,0.3509,0.7485,0.53999996,1.14,68,38,0.57100004,0.437,0.36800003,-1.34,0.70040196,-3969,,0.0,49,-35,-2,3,4,1,27,3,2203,224c2092-44e1-4b73-879c-d0ad0c4b4c87
76855466,1652271633999783,293754215,-895490916,16106,-10128,0.19800001,0.19579138,0.3509,0.7484,0.53999996,1.14,68,38,0.77000004,0.615,0.46300003,-1.6140001,0.6447565,-3978,,0.0,14,-12,3,-2,4,1,27,3,2203,224c2092-44e1-4b73-879c-d0ad0c4b4c87
76951447,1652271634099782,293754221,-895490911,16271,-9963,0.19800001,0.1887509,0.3509,0.74829996,0.53999996,1.14,68,38,0.81200004,0.625,0.518,-1.743,0.69159555,-4895,,0.0,-39,-14,5,-1,4,1,27,3,2203,224c2092-44e1-4b73-879c-d0ad0c4b4c87
77047405,1652271634199782,293754226,-895490906,16452,-9782,0.19900002,0.17989124,0.35079998,0.7482,0.53999996,1.14,68,38,0.85400003,0.65400004,0.549,-1.863,0.6985219,-4904,,0.0,27,31,3,-3,4,1,27,3,2203,224c2092-44e1-4b73-879c-d0ad0c4b4c87
77147508,1652271634299782,293754232,-895490900,16636,-9598,0.19800001,0.17276141,0.35079998,0.7482,0.53999996,1.14,68,38,0.88600004,0.689,0.55700004,-1.9110001,0.68002737,-4014,,0.0,24,-11,2,-4,4,1,27,3,2203,224c2092-44e1-4b73-879c-d0ad0c4b4c87
77247504,1652271634399782,293754238,-895490894,16830,-9405,0.19800001,0.1781981,0.35079998,0.7482,0.53999996,1.14,68,38,0.87600005,0.646,0.591,-1.868,0.7405133,-4968,,0.0,20,-26,-4,0,4,1,27,3,2203,224c2092-44e1-4b73-879c-d0ad0c4b4c87
77346519,1652271634499782,293754244,-895490889,17014,-9220,0.2,0.1870129,0.3507,0.7481,0.53999996,1.14,68,38,0.823,0.63000005,0.53000003,-1.917,0.69946057,-3853,,0.0,-15,38,4,-1,4,1,27,3,2203,224c2092-44e1-4b73-879c-d0ad0c4b4c87
77442975,1652271634599782,293754249,-895490884,17207,-9027,0.20300001,0.20386526,0.3505,0.74799997,0.53999996,1.14,68,38,0.717,0.55700004,0.45100003,-1.9690001,0.6806047,-3842,,0.0,11,32,2,-4,4,1,27,3,2203,224c2092-44e1-4b73-879c-d0ad0c4b4c87
77547461,1652271634699782,293754254,-895490879,17404,-8831,0.202,0.20798668,0.35029998,0.7477,0.53999996,1.14,68,38,0.68600005,0.559,0.397,-1.9800001,0.6177517,-4175,,0.0,4,-42,-4,0,4,1,27,3,2203,224c2092-44e1-4b73-879c-d0ad0c4b4c87
77651710,1652271634799782,293754258,-895490876,17598,-8637,0.20400001,0.26493067,0.34989998,0.7474,0.53999996,1.14,68,38,0.546,0.42100003,0.347,-1.95,0.6881201,-4323,,0.0,31,26,-3,1,4,1,27,3,2203,224c2092-44e1-4b73-879c-d0ad0c4b4c87
77746514,1652271634899782,293754262,-895490873,17784,-8451,0.20500001,0.28199667,0.3495,0.7471,0.53999996,1.14,68,40,0.49400002,0.42000002,0.26000002,-2.003,0.55413485,-3684,,0.0,-6,19,-4,0,4,1,27,3,2203,224c2092-44e1-4b73-879c-d0ad0c4b4c87
77856026,1652271634999783,293754265,-895490871,17984,-8251,0.20600002,0.33829853,0.3491,0.7468,0.53999996,1.14,68,40,0.40300003,0.356,0.18900001,-1.932,0.488563,-3194,,0.0,33,36,-3,1,4,1,27,3,2203,224c2092-44e1-4b73-879c-d0ad0c4b4c87
77948882,1652271635099782,293754268,-895490869,18174,-8061,0.208,0.43213388,0.3487,0.74649996,0.53999996,1.14,68,40,0.305,0.28100002,0.117000006,-1.9430001,0.39563662,-4309,,0.0,6,-24,-2,2,4,1,27,3,2203,224c2092-44e1-4b73-879c-d0ad0c4b4c87
78047880,1652271635199782,293754270,-895490869,18364,-7871,0.208,0.5339288,0.34829998,0.74619997,0.53999996,1.14,68,40,0.22600001,0.223,0.036000002,-2.0040002,0.16047639,-4065,,0.0,19,36,-1,3,4,1,27,3,2203,224c2092-44e1-4b73-879c-d0ad0c4b4c87
78147460,1652271635299782,293754272,-895490869,18561,-7674,0.209,0.68686956,0.3479,0.7459,0.53999996,1.14,68,40,0.162,0.16100001,-0.017,-1.9350001,6.176155,-3939,,0.0,-20,29,-5,-1,4,1,27,3,2203,224c2092-44e1-4b73-879c-d0ad0c4b4c87
78248626,1652271635399782,293754273,-895490869,18755,-7480,0.209,0.89889914,0.3475,0.7456,0.53999996,1.14,68,40,0.123,0.104,-0.066,-1.927,0.18735428,-3859,,0.0,-12,-32,-3,1,4,1,27,3,2203,224c2092-44e1-4b73-879c-d0ad0c4b4c87
78343451,1652271635499782,293754273,-895490870,18942,-7293,0.209,1.0072495,0.34719998,0.7453,0.53999996,1.14,68,40,0.134,0.053000003,-0.124000005,-1.9690001,0.18735428,-3976,,0.0,45,-49,-2,2,4,1,27,3,2203,224c2092-44e1-4b73-879c-d0ad0c4b4c87
78447463,1652271635599782,293754274,-895490872,19139,-7096,0.209,1.1887969,0.3468,0.745,0.53999996,1.14,68,40,0.128,-0.008,-0.128,-1.963,0.18735428,-3961,,0.0,-47,3,-1,3,4,1,27,3,2203,224c2092-44e1-4b73-879c-d0ad0c4b4c87
78548554,1652271635699782,293754273,-895490873,19325,-6910,0.209,1.2219243,0.3464,0.74469995,0.53999996,1.14,68,40,0.124000005,-0.0050000004,-0.124000005,-1.9110001,0.18735428,-4393,,0.0,37,-46,-4,0,4,1,27,3,2203,224c2092-44e1-4b73-879c-d0ad0c4b4c87
78647460,1652271635799782,293754273,-895490875,19511,-6724,0.209,0.7900384,0.3461,0.74439996,0.53999996,1.14,68,40,0.19700001,-0.07300001,-0.18200001,-1.9380001,0.18735428,-3982,,0.0,-9,-24,-3,1,4,1,27,3,2203,224c2092-44e1-4b73-879c-d0ad0c4b4c87
78747467,1652271635899782,293754272,-895490877,19703,-6531,0.209,0.9162074,0.3457,0.7441,0.53999996,1.14,68,43,0.16900001,-0.057000004,-0.15900001,-1.9760001,0.18735428,-3983,,0.0,24,-19,4,-2,4,1,27,3,2203,224c2092-44e1-4b73-879c-d0ad0c4b4c87
78855916,1652271635999783,293754272,-895490879,19895,-6340,0.209,0.7130558,0.3453,0.7439,0.53999996,1.14,68,43,0.215,-0.030000001,-0.21300001,-1.937,4.5705338,-4073,,0.0,-23,-30,-4,0,4,1,27,3,2203,224c2092-44e1-4b73-879c-d0ad0c4b4c87
78948840,1652271636099782,293754271,-895490881,20090,-6145,0.209,0.94412935,0.345,0.7436,0.53999996,1.14,68,43,0.16100001,-0.098000005,-0.128,-1.9710001,5.555688,-4647,,0.0,9,-20,0,4,4,1,27,3,2203,224c2092-44e1-4b73-879c-d0ad0c4b4c87
79047767,1652271636199782,293754270,-895490883,20280,-5954,0.209,0.94998825,0.34469998,0.7434,0.53999996,1.14,68,43,0.163,-0.07700001,-0.143,-1.937,5.555688,-4291,,0.0,21,23,2,-4,4,1,27,3,2203,224c2092-44e1-4b73-879c-d0ad0c4b4c87
79145534,1652271636299782,293754270,-895490884,20471,-5764,0.209,1.010724,0.3443,0.7432,0.53999996,1.14,68,43,0.15300001,-0.047000002,-0.14600001,-1.909,5.555688,-4043,,0.0,-47,-40,-1,3,4,1,27,3,2203,224c2092-44e1-4b73-879c-d0ad0c4b4c87
79241516,1652271636399782,293754269,-895490886,20661,-5573,0.209,1.4428042,0.34399998,0.74289995,0.53999996,1.14,68,43,0.10700001,-0.048,-0.096,-2.0240002,5.555688,-3944,,0.0,-5,21,5,-1,4,1,27,3,2203,224c2092-44e1-4b73-879c-d0ad0c4b4c87
79345563,1652271636499782,293754268,-895490887,20862,-5372,0.209,1.178253,0.3437,0.74259996,0.53999996,1.14,68,43,0.127,-0.082,-0.097,-1.96,5.555688,-4895,,0.0,22,10,3,-3,4,1,27,3,2203,224c2092-44e1-4b73-879c-d0ad0c4b4c87
79449641,1652271636599782,293754268,-895490888,21059,-5176,0.209,1.7134783,0.3434,0.7423,0.53999996,1.14,68,43,0.09,-0.032,-0.08400001,-1.945,5.555688,-4112,,0.0,-42,2,-3,1,4,1,27,3,2203,224c2092-44e1-4b73-879c-d0ad0c4b4c87
79545874,1652271636699782,293754267,-895490889,21257,-4978,0.209,1.9463513,0.34309998,0.7421,0.53999996,1.14,68,43,0.079,-0.047000002,-0.063,-1.9770001,5.555688,-5260,,0.0,7,13,-3,1,4,1,27,3,2203,224c2092-44e1-4b73-879c-d0ad0c4b4c87
79645488,1652271636799782,293754266,-895490890,21459,-4776,0.209,1.7818627,0.34289998,0.74189997,0.53999996,1.14,68,43,0.086,-0.05,-0.07,-1.9970001,5.555688,-4038,,0.0,49,31,-4,0,4,1,27,3,2203,224c2092-44e1-4b73-879c-d0ad0c4b4c87
79749626,1652271636899782,293754266,-895490890,21648,-4587,0.209,1.7973053,0.3427,0.7416,0.53999996,1.14,68,42,0.063,-0.063,0.006,-2.012,5.555688,-4131,,0.0,-18,-11,-2,2,4,1,27,3,2203,224c2092-44e1-4b73-879c-d0ad0c4b4c87
79857546,1652271636999783,293754265,-895490890,21854,-4380,0.209,3.1415925,0.3425,0.7413,0.53999996,1.14,68,42,0.006,0.006,0.0,-2.023,5.555688,-4058,,0.0,45,-20,3,-3,4,1,27,3,2203,224c2092-44e1-4b73-879c-d0ad0c4b4c87
79945492,1652271637099782,293754265,-895490890,22047,-4188,0.21000001,3.1415925,0.3423,0.74109995,0.53999996,1.14,68,42,0.026,-0.016,0.021000002,-2.032,5.555688,-4003,,0.0,23,-23,-1,3,4,1,27,3,2203,224c2092-44e1-4b73-879c-d0ad0c4b4c87
80046494,1652271637199782,293754265,-895490890,22241,-3993,0.21000001,1.9688674,0.34219998,0.7409,0.53999996,1.14,68,42,0.058000002,-0.052,0.027,-1.922,5.555688,-4249,,0.0,-23,-9,4,-2,4,1,27,3,2203,224c2092-44e1-4b73-879c-d0ad0c4b4c87
80138597,1652271637299782,293754264,-895490890,22430,-3805,0.21100001,2.4129705,0.34219998,0.7407,0.53999996,1.14,68,42,0.054,-0.036000002,0.040000003,-1.937,5.555688,-3796,,0.0,31,17,-1,3,4,1,27,3,2203,224c2092-44e1-4b73-879c-d0ad0c4b4c87
80247469,1652271637399782,293754264,-895490889,22618,-3617,0.21100001,1.835918,0.3421,0.7405,0.53999996,1.14,68,42,0.072000004,-0.045,0.057000004,-1.9310001,5.555688,-3947,,0.0,-13,-43,1,5,4,1,27,3,2203,224c2092-44e1-4b73-879c-d0ad0c4b4c87
80347480,1652271637499782,293754264,-895490889,22813,-3421,0.21100001,2.8166273,0.34199998,0.7403,0.53999996,1.14,68,42,0.059000004,0.012,0.058000002,-1.9580001,5.555688,-3954,,0.0,-30,7,3,-3,4,1,27,3,2203,224c2092-44e1-4b73-879c-d0ad0c4b4c87
80447465,1652271637599782,293754264,-895490889,23008,-3226,0.21100001,2.8407626,0.3419,0.74009997,0.53999996,1.14,68,42,0.041,-0.041,0.003,-1.9820001,5.555688,-4179,,0.0,-49,28,4,-2,4,1,27,3,2203,224c2092-44e1-4b73-879c-d0ad0c4b4c87
80547471,1652271637699782,293754263,-895490888,23209,-3026,0.21100001,2.6930938,0.3419,0.7399,0.53999996,1.14,68,42,0.062000003,0.019000001,0.059000004,-1.9840001,5.555688,-3985,,0.0,40,-50,-1,3,4,1,27,3,2203,224c2092-44e1-4b73-879c-d0ad0c4b4c87
80647459,1652271637799782,293754263,-895490888,23407,-2828,0.21400002,2.7155998,0.3418,0.7399,0.53999996,1.14,68,42,0.057000004,-0.018000001,0.054,-2.0340002,5.555688,-3964,,0.0,28,0,-3,1,4,1,27,3,2203,224c2092-44e1-4b73-879c-d0ad0c4b4c87
80747527,1652271637899782,293754263,-895490888,23603,-2631,0.21400002,3.1415925,0.3418,0.7399,0.53999996,1.14,68,41,0.029000001,-0.014,0.026,-1.996,5.555688,-4051,,0.0,3,32,3,-2,4,1,27,3,2203,224c2092-44e1-4b73-879c-d0ad0c4b4c87
80855475,1652271637999782,293754263,-895490888,23804,-2430,0.21400002,3.1415925,0.3419,0.7399,0.53999996,1.14,68,41,0.019000001,-0.010000001,0.016,-1.978,5.555688,-3997,,0.0,-19,42,2,-4,4,1,27,3,2203,224c2092-44e1-4b73-879c-d0ad0c4b4c87
80947476,1652271638099781,293754263,-895490887,24010,-2224,0.21400002,3.1415925,0.3419,0.74,0.53999996,1.14,68,41,0.033,-0.014,0.030000001,-1.9430001,5.555688,-3996,,0.0,-37,-43,1,-5,4,1,27,3,2203,224c2092-44e1-4b73-879c-d0ad0c4b4c87
81038521,1652271638199781,293754262,-895490887,24202,-2032,0.215,2.5037465,0.3419,0.74009997,0.53999996,1.14,68,41,0.055000003,-0.032,0.044000003,-2.042,5.555688,-3944,,0.0,31,-14,1,-5,4,1,27,3,2203,224c2092-44e1-4b73-879c-d0ad0c4b4c87
81148814,1652271638299781,293754262,-895490887,24396,-1839,0.215,3.1415925,0.3419,0.7402,0.53999996,1.14,68,41,0.046000004,0.001,0.046000004,-2.0070002,5.555688,-3848,,0.0,8,23,-4,0,4,1,27,3,2203,224c2092-44e1-4b73-879c-d0ad0c4b4c87
81249464,1652271638399781,293754262,-895490886,24591,-1644,0.215,3.1415925,0.34199998,0.7403,0.53999996,1.14,68,41,0.042000003,-0.003,0.042000003,-1.9860001,5.555688,-4817,,0.0,0,-40,-3,1,4,1,27,3,2203,224c2092-44e1-4b73-879c-d0ad0c4b4c87
81348641,1652271638499781,293754262,-895490886,24803,-1431,0.215,3.1415925,0.34199998,0.74039996,0.53999996,1.14,68,41,0.012,0.0,0.012,-1.9700001,5.555688,-3911,,0.0,-1,-16,3,-3,4,1,27,3,2203,224c2092-44e1-4b73-879c-d0ad0c4b4c87
81444874,1652271638599781,293754262,-895490886,24994,-1241,0.216,2.1882894,0.34199998,0.7405,0.53999996,1.14,68,41,0.067,-0.031000001,0.059000004,-1.9990001,5.555688,-27,,0.0,-25,13,-1,3,4,1,27,3,2203,224c2092-44e1-4b73-879c-d0ad0c4b4c87
81548662,1652271638699781,293754261,-895490885,25186,-1049,0.216,2.723434,0.34199998,0.7406,0.53999996,1.14,68,41,0.051000003,-0.029000001,0.042000003,-1.9940001,5.555688,-4087,,0.0,42,-44,-1,3,4,1,27,3,2203,224c2092-44e1-4b73-879c-d0ad0c4b4c87
81648571,1652271638799781,293754261,-895490885,25378,-856,0.216,2.3599894,0.3421,0.7407,0.53999996,1.14,68,41,0.07,-0.0050000004,0.07,-1.9590001,5.555688,-3879,,0.0,23,5,1,-5,4,1,27,3,2203,224c2092-44e1-4b73-879c-d0ad0c4b4c87
81748670,1652271638899781,293754261,-895490884,25576,-659,0.21700001,2.480948,0.3421,0.7409,0.53999996,1.14,68,41,0.057000004,-0.030000001,0.048,-1.9800001,5.555688,-4014,,0.0,1,-45,-3,1,4,1,27,3,2203,224c2092-44e1-4b73-879c-d0ad0c4b4c87
81857466,1652271638999782,293754261,-895490884,25772,-463,0.216,3.1415925,0.3421,0.741,0.53999996,1.14,68,41,0.015000001,0.009000001,0.013,-2.0340002,5.555688,-4083,,0.0,-13,-25,0,4,4,1,27,3,2203,224c2092-44e1-4b73-879c-d0ad0c4b4c87
81941121,1652271639099781,293754261,-895490884,25962,-273,0.21700001,3.1415925,0.34219998,0.7412,0.53999996,1.14,68,41,0.046000004,-0.009000001,0.046000004,-1.927,5.555688,-27,,0.0,-19,-7,0,4,4,1,27,3,2203,224c2092-44e1-4b73-879c-d0ad0c4b4c87
82049595,1652271639199781,293754261,-895490884,26163,-71,0.216,3.100198,0.34219998,0.7413,0.53999996,1.14,68,41,0.055000003,0.006,0.054,-2.022,5.555688,-4789,,0.0,-25,36,1,-4,4,1,27,3,2203,224c2092-44e1-4b73-879c-d0ad0c4b4c87
82149472,1652271639299781,293754261,-895490883,26368,133,0.216,3.1415925,0.34219998,0.7414,0.53999996,1.14,68,41,0.020000001,0.017,0.010000001,-2.028,5.555688,-3894,,0.0,-19,-41,-5,-1,4,1,27,3,2203,224c2092-44e1-4b73-879c-d0ad0c4b4c87
82249454,1652271639399781,293754261,-895490883,26561,326,0.215,2.1851187,0.3423,0.74149996,0.53999996,1.14,68,41,0.065000005,0.058000002,0.030000001,-1.973,5.555688,-3861,,0.0,8,-30,-2,2,4,1,27,3,2203,224c2092-44e1-4b73-879c-d0ad0c4b4c87
82345564,1652271639499781,293754261,-895490883,26780,546,0.215,3.1415925,0.3423,0.7416,0.53999996,1.14,68,41,0.004,0.004,0.002,-2.0410001,5.555688,-4068,,0.0,33,-18,4,-2,4,1,27,3,2203,224c2092-44e1-4b73-879c-d0ad0c4b4c87
82449786,1652271639599781,293754262,-895490883,26969,734,0.215,1.4671586,0.3423,0.7417,0.53999996,1.14,68,41,0.079,0.07,-0.037,-1.9290001,5.555688,-4305,,0.0,-40,-48,-4,0,4,1,27,3,2203,224c2092-44e1-4b73-879c-d0ad0c4b4c87
82545508,1652271639699781,293754262,-895490884,27168,934,0.216,2.0985045,0.34239998,0.7418,0.53999996,1.14,68,41,0.054,0.052,-0.014,-1.9670001,5.555688,-3931,,0.0,9,18,4,-2,4,1,27,3,2203,224c2092-44e1-4b73-879c-d0ad0c4b4c87
82645718,1652271639799781,293754263,-895490884,27358,1123,0.216,1.6939135,0.34239998,0.74189997,0.53999996,1.14,68,41,0.068,0.061000004,-0.031000001,-1.9990001,5.555688,-28,,0.0,-50,-17,-4,0,4,1,27,3,2203,224c2092-44e1-4b73-879c-d0ad0c4b4c87
82749595,1652271639899781,293754263,-895490885,27548,1314,0.216,1.1859075,0.34239998,0.742,0.53999996,1.14,68,40,0.096,0.08800001,-0.038000003,-1.9920001,5.555688,-4119,,0.0,9,35,3,-3,4,1,27,3,2203,224c2092-44e1-4b73-879c-d0ad0c4b4c87
82849602,1652271639999782,293754264,-895490885,27755,1521,0.216,0.9946102,0.3425,0.7421,0.53999996,1.14,68,40,0.11400001,0.108,-0.035,-1.968,5.555688,-4369,,0.0,-5,-11,2,-4,4,1,27,3,2203,224c2092-44e1-4b73-879c-d0ad0c4b4c87
82945507,1652271640099781,293754264,-895490886,27942,1708,0.21700001,2.5936756,0.3425,0.74219996,0.53999996,1.14,68,40,0.051000003,0.034,-0.038000003,-1.9990001,5.555688,-3376,,0.0,47,39,3,-3,4,1,27,3,2203,224c2092-44e1-4b73-879c-d0ad0c4b4c87
83045508,1652271640199781,293754265,-895490886,28136,1901,0.21700001,1.5124387,0.3426,0.7423,0.53999996,1.14,68,40,0.09,0.056,-0.07,-1.9640001,5.555688,-70,,0.0,-18,-29,-2,2,4,1,27,3,2203,224c2092-44e1-4b73-879c-d0ad0c4b4c87
83145478,1652271640299781,293754265,-895490887,28334,2100,0.21800001,2.0839543,0.3426,0.7425,0.53999996,1.14,68,40,0.055000003,0.052,-0.017,-1.963,5.555688,-3597,,0.0,28,19,2,-4,4,1,27,3,2203,224c2092-44e1-4b73-879c-d0ad0c4b4c87
83245720,1652271640399781,293754266,-895490887,28527,2292,0.21800001,1.1280963,0.3427,0.7427,0.53999996,1.14,68,40,0.102000006,0.093,-0.042000003,-1.9870001,5.555688,-4945,,0.0,-13,-20,0,4,4,1,27,3,2203,224c2092-44e1-4b73-879c-d0ad0c4b4c87
83349503,1652271640499781,293754267,-895490888,28718,2483,0.21800001,1.4866889,0.3428,0.743,0.53999996,1.14,68,40,0.08400001,0.064,-0.055000003,-1.9390001,5.555688,-3956,,0.0,-47,23,-5,-1,4,1,27,3,2203,224c2092-44e1-4b73-879c-d0ad0c4b4c87
83446493,1652271640599781,293754267,-895490888,28917,2682,0.21900001,3.1415925,0.3428,0.74329996,0.53999996,1.14,68,40,0.028,0.028,-0.0050000004,-1.9810001,5.555688,-3678,,0.0,-10,-12,0,4,4,1,27,3,2203,224c2092-44e1-4b73-879c-d0ad0c4b4c87
83547462,1652271640699781,293754267,-895490888,29110,2875,0.21800001,1.6167532,0.34289998,0.7435,0.53999996,1.14,68,40,0.071,0.068,-0.020000001,-1.9480001,5.555688,-3986,,0.0,30,-32,-2,3,4,1,27,3,2203,224c2092-44e1-4b73-879c-d0ad0c4b4c87
83646516,1652271640799781,293754268,-895490888,29299,3065,0.21900001,3.1415925,0.34289998,0.7438,0.53999996,1.14,68,40,0.053000003,0.003,0.053000003,-2.01,5.555688,-28,,0.0,-47,-23,5,-1,4,1,27,3,2203,224c2092-44e1-4b73-879c-d0ad0c4b4c87
83742453,1652271640899781,293754268,-895490888,29498,3263,0.21700001,3.1415925,0.34289998,0.7439,0.53999996,1.14,68,40,0.022000002,0.022000002,0.003,-1.9540001,5.555688,-3802,,0.0,-37,-1,-1,3,4,1,27,3,2203,224c2092-44e1-4b73-879c-d0ad0c4b4c87
83855463,1652271640999782,293754268,-895490888,29698,3464,0.21700001,3.1415925,0.3428,0.74399996,0.53999996,1.14,68,40,0.042000003,0.039,0.014,-1.937,5.555688,-3671,,0.0,-10,3,4,-2,4,1,27,3,2203,224c2092-44e1-4b73-879c-d0ad0c4b4c87
83947136,1652271641099781,293754268,-895490888,29891,3657,0.21800001,3.1415925,0.34289998,0.7443,0.53999996,1.14,68,40,0.025,0.003,0.025,-2.009,5.555688,-4639,,0.0,3,15,2,-4,4,1,27,3,2203,224c2092-44e1-4b73-879c-d0ad0c4b4c87
84046536,1652271641199781,293754268,-895490888,30088,3854,0.21700001,3.1415925,0.34289998,0.7445,0.53999996,1.14,68,40,0.043,0.004,0.043,-1.9570001,5.555688,-3457,,0.0,3,43,4,-1,4,1,27,3,2203,224c2092-44e1-4b73-879c-d0ad0c4b4c87
84147199,1652271641299781,293754268,-895490887,30284,4050,0.21700001,3.1415925,0.34289998,0.7448,0.53999996,1.14,68,40,0.033,0.021000002,0.025,-1.9560001,5.555688,-4715,,0.0,13,-28,4,-2,4,1,27,3,2203,224c2092-44e1-4b73-879c-d0ad0c4b4c87
84247500,1652271641399781,293754268,-895490887,30482,4248,0.21700001,2.325538,0.3428,0.7449,0.53999996,1.14,68,40,0.052,-0.040000003,0.033,-1.968,5.555688,-4040,,0.0,1,-3,2,-4,4,1,27,3,2203,224c2092-44e1-4b73-879c-d0ad0c4b4c87
84346655,1652271641499781,293754268,-895490887,30676,4441,0.216,1.8897254,0.3428,0.745,0.53999996,1.14,68,40,0.07,-0.042000003,0.056,-1.917,5.555688,-4032,,0.0,-38,37,1,5,4,1,27,3,2203,224c2092-44e1-4b73-879c-d0ad0c4b4c87
84444781,1652271641599781,293754267,-895490886,30875,4640,0.21700001,3.1415925,0.3428,0.7453,0.53999996,1.14,68,40,0.030000001,-0.026,0.015000001,-1.9510001,5.555688,-4160,,0.0,32,-31,1,5,4,1,27,3,2203,224c2092-44e1-4b73-879c-d0ad0c4b4c87
84544782,1652271641699781,293754267,-895490886,31064,4829,0.21700001,3.0342956,0.34289998,0.74549997,0.53999996,1.14,68,40,0.051000003,-0.017,0.048,-1.9760001,5.555688,-28,,0.0,10,-5,-5,-1,4,1,27,3,2203,224c2092-44e1-4b73-879c-d0ad0c4b4c87
84640781,1652271641799781,293754267,-895490886,31256,5021,0.21700001,2.5417688,0.34289998,0.7457,0.53999996,1.14,68,40,0.053000003,-0.033,0.042000003,-1.9050001,5.555688,-4221,,0.0,-11,40,-4,0,4,1,27,3,2203,224c2092-44e1-4b73-879c-d0ad0c4b4c87
84744567,1652271641899781,293754266,-895490885,31448,5214,0.21700001,1.6741438,0.343,0.7459,0.53999996,1.14,68,40,0.075,-0.055000003,0.051000003,-2.026,5.555688,-3919,,0.0,47,-14,3,-3,4,1,27,3,2203,224c2092-44e1-4b73-879c-d0ad0c4b4c87
84856576,1652271641999782,293754266,-895490885,31642,5407,0.21700001,2.0836885,0.343,0.7461,0.53999996,1.14,68,40,0.058000002,-0.047000002,0.035,-1.9580001,5.555688,-3992,,0.0,3,27,0,4,4,1,27,3,2203,224c2092-44e1-4b73-879c-d0ad0c4b4c87
84948590,1652271642099781,293754266,-895490884,31843,5608,0.21700001,3.1415925,0.34309998,0.7463,0.53999996,1.14,68,40,0.020000001,0.004,0.020000001,-1.988,5.555688,-3994,,0.0,-13,-50,-4,0,4,1,27,3,2203,224c2092-44e1-4b73-879c-d0ad0c4b4c87
85044548,1652271642199781,293754266,-895490884,32054,5820,0.21700001,3.1415925,0.34309998,0.7466,0.53999996,1.14,68,40,0.028,-0.012,0.025,-2.042,5.555688,-3405,,0.0,-14,-29,1,-4,4,1,27,3,2203,224c2092-44e1-4b73-879c-d0ad0c4b4c87
85144753,1652271642299781,293754266,-895490884,32245,6010,0.21700001,3.1415925,0.3432,0.7468,0.53999996,1.14,68,40,0.038000003,-0.027,0.026,-1.9940001,5.555688,-79,,0.0,-35,-10,-4,0,4,1,27,3,2203,224c2092-44e1-4b73-879c-d0ad0c4b4c87
85245573,1652271642399781,293754266,-895490884,32442,6207,0.21700001,3.1415925,0.34329998,0.74689996,0.53999996,1.14,68,40,0.028,0.001,0.028,-1.9670001,5.555688,-4976,,0.0,-43,17,-2,2,4,1,27,3,2203,224c2092-44e1-4b73-879c-d0ad0c4b4c87
