timestamp,ref_timestamp,ref_lat,ref_lon,x,y,z,delta_xy0,delta_xy1,delta_z,vx,vy,vz,z_deriv,delta_vxy0,delta_vxy1,delta_vz,ax,ay,az,yaw,ref_alt,dist_bottom,dist_bottom_rate,eph,epv,evh,evv,vxy_max,xy_valid,z_valid,v_xy_valid,v_z_valid,xy_reset_counter,z_reset_counter,vxy_reset_counter,vz_reset_counter,xy_global,z_global,dist_bottom_valid,limit_hagl,basestation,flight_number
59527276,13347301,29.3754284,-89.5490994,-0.7699651,0.6336445,0.57380825,0.002658458,0.0024949773,0.0,0.012097441,0.00229223,0.01859678,-0.0065752505,-0.025008326,-0.022564378,0.061152168,0.14021043,0.052934337,0.10286214,-1.5725805,3.5881357,0.1,-0.01859678,0.19186763,0.14723681,0.118056566,0.05322466,0.0,1,1,1,1,2,0,2,2,1,1,1,0,2203,224c2092-44e1-4b73-879c-d0ad0c4b4c87
59627359,13347301,29.3754284,-89.5490994,-0.7709586,0.6349948,0.5731086,0.002658458,0.0024949773,0.0,0.011492921,0.004032134,0.01735978,-0.007315314,-0.025008326,-0.022564378,0.061152168,-0.15616639,0.25920632,-0.020316055,-1.5722295,3.5881357,0.1,-0.01735978,0.19225824,0.1471945,0.11824749,0.05320803,0.0,1,1,1,1,2,0,2,2,1,1,1,0,2203,224c2092-44e1-4b73-879c-d0ad0c4b4c87
59727263,13347301,29.3754284,-89.5490994,-0.77156436,0.63647604,0.57201976,0.002658458,0.0024949773,0.0,0.012814183,0.0024109066,0.01608863,-0.008672359,-0.025008326,-0.022564378,0.061152168,0.23513798,-0.18454947,0.040926907,-1.5723909,3.5881357,0.1,-0.01608863,0.19192384,0.14703526,0.118092656,0.05318481,0.0,1,1,1,1,2,0,2,2,1,1,1,0,2203,224c2092-44e1-4b73-879c-d0ad0c4b4c87
59831470,13347301,29.3754284,-89.5490994,-0.7719137,0.6377555,0.5700907,0.002658458,0.0024949773,0.0,0.011557062,0.003791031,0.014273312,-0.011101718,-0.025008326,-0.022564378,0.061152168,0.040576592,0.06637218,0.028169088,-1.5727751,3.5881357,0.1,-0.014273312,0.19231369,0.14699535,0.118290305,0.05317191,0.0,1,1,1,1,2,0,2,2,1,1,1,0,2203,224c2092-44e1-4b73-879c-d0ad0c4b4c87
59931437,13347301,29.3754284,-89.5490994,-0.772199,0.638829,0.56890535,0.002658458,0.0024949773,0.0,0.014144521,0.006672484,0.014887737,-0.010156124,-0.025008326,-0.022564378,0.061152168,0.1751039,0.8543566,-0.06464261,-1.5725913,3.5881357,0.1,-0.014887737,0.19261906,0.1469548,0.118421115,0.05315973,0.0,1,1,1,1,2,0,2,2,1,1,1,0,2203,224c2092-44e1-4b73-879c-d0ad0c4b4c87
60035598,13347301,29.3754284,-89.5490994,-0.7726292,0.6399397,0.5679456,0.002658458,0.0024949773,0.0,0.011751899,0.0037684166,0.013764683,-0.010710283,-0.025008326,-0.022564378,0.061152168,-0.14492649,-0.00020657999,0.033222076,-1.5726757,3.5881357,0.1,-0.013764683,0.19301149,0.14691456,0.118615,0.05314881,0.0,1,1,1,1,2,0,2,2,1,1,1,0,2203,224c2092-44e1-4b73-879c-d0ad0c4b4c87
60136840,13347301,29.3754284,-89.5490994,-0.773441,0.64127964,0.56659395,0.002658458,0.0024949773,0.0,0.013125163,0.0049441033,0.012967207,-0.011553171,-0.025008326,-0.022564378,0.061152168,0.36905575,-0.114040695,0.021289969,-1.5728317,3.5881357,0.1,-0.012967207,0.19267209,0.14715524,0.11846291,0.053164154,0.0,1,1,1,1,2,0,2,2,1,1,1,0,2203,224c2092-44e1-4b73-879c-d0ad0c4b4c87
60237032,13347301,29.3754284,-89.5490994,-0.77408814,0.64266646,0.56454706,0.002658458,0.0024949773,0.0,0.01197865,0.004104147,0.010916864,-0.014044245,-0.025008326,-0.022564378,0.061152168,-0.16730401,0.08057266,-0.1855882,-1.5721456,3.5881357,0.1,-0.010916864,0.19306208,0.14711764,0.11864686,0.053155445,0.0,1,1,1,1,2,0,2,2,1,1,1,0,2203,224c2092-44e1-4b73-879c-d0ad0c4b4c87
60336909,13347301,29.3754284,-89.5490994,-0.7743398,0.6437347,0.5632664,0.002658458,0.0024949773,0.0,0.01101304,0.00548566,0.009964658,-0.01463051,-0.025008326,-0.022564378,0.061152168,-0.0719589,0.14576158,-0.11650094,-1.5726964,3.5881357,0.1,-0.009964658,0.19284764,0.14700116,0.11855305,0.053166043,0.0,1,1,1,1,2,0,2,2,1,1,1,0,2203,224c2092-44e1-4b73-879c-d0ad0c4b4c87
60440899,13347301,29.3754284,-89.5490994,-0.7749136,0.64513475,0.56339085,0.002658458,0.0024949773,0.0,0.011892837,0.00440243,0.011497523,-0.011301019,-0.025008326,-0.022564378,0.061152168,0.019051794,-0.16230181,0.14148077,-1.5722382,3.5881357,0.10426921,-0.011497523,0.19328158,0.14696404,0.11877967,0.053155236,0.0,1,1,1,1,2,0,2,2,1,1,1,0,2203,224c2092-44e1-4b73-879c-d0ad0c4b4c87
60541010,13347301,29.3754284,-89.5490994,-0.7754138,0.6465218,0.5656233,0.002658458,0.0024949773,0.0,0.011682247,0.0038208168,0.011535817,-0.0077146557,-0.025008326,-0.022564378,0.061152168,-0.04102913,0.06624728,0.02300174,-1.5720624,3.5881357,0.107722044,-0.011535817,0.19368136,0.14692976,0.11897321,0.05314633,0.0,1,1,1,1,2,0,2,2,1,1,1,0,2203,224c2092-44e1-4b73-879c-d0ad0c4b4c87
60640858,13347301,29.3754284,-89.5490994,-0.77625936,0.6476947,0.5689262,0.002658458,0.0024949773,0.0,0.012449522,0.0042155967,0.013531841,-0.001822863,-0.025008326,-0.022564378,0.061152168,0.24213052,0.2730818,0.14018448,-1.5718024,3.5881357,0.10872364,-0.013531841,0.19334604,0.14678094,0.11881392,0.053129986,0.0,1,1,1,1,2,0,2,2,1,1,1,0,2203,224c2092-44e1-4b73-879c-d0ad0c4b4c87
60745016,13347301,29.3754284,-89.5490994,-0.7770361,0.6488071,0.57151264,0.002658458,0.0024949773,0.0,0.013064599,0.0060681975,0.013098714,0.00052615127,-0.025008326,-0.022564378,0.061152168,0.181945,0.26148456,0.12543939,-1.5724341,3.5881357,0.10788059,-0.013098714,0.19374453,0.14675093,0.119006775,0.05312375,0.0,1,1,1,1,2,0,2,2,1,1,1,0,2203,224c2092-44e1-4b73-879c-d0ad0c4b4c87
60844926,13347301,29.3754284,-89.5490994,-0.7774822,0.6501941,0.57594675,0.002658458,0.0024949773,0.0,0.01110051,0.006150329,0.014096132,0.0057112034,-0.025008326,-0.022564378,0.061152168,-0.18698862,0.01746582,-0.06024729,-1.5720845,3.5881357,0.10928953,-0.014096132,0.19410947,0.14672327,0.11917573,0.053118236,0.0,1,1,1,1,2,0,2,2,1,1,1,0,2203,224c2092-44e1-4b73-879c-d0ad0c4b4c87
60948940,13347301,29.3754284,-89.5490994,-0.7778485,0.6517086,0.58198655,0.002658458,0.0024949773,0.0,0.012383712,0.006175438,0.015795665,0.012453569,-0.025008326,-0.022564378,0.061152168,-0.09251252,0.0032965012,-0.12193758,-1.5721709,3.5881357,0.11286652,-0.015795665,0.1944475,0.1466983,0.11932892,0.05311432,0.0,1,1,1,1,2,0,2,2,1,1,1,0,2203,224c2092-44e1-4b73-879c-d0ad0c4b4c87
61052898,13347301,29.3754284,-89.5490994,-0.7781015,0.6532832,0.59008497,0.002658458,0.0024949773,0.0,0.013275208,0.007218085,0.018478641,0.02148879,-0.025008326,-0.022564378,0.061152168,0.3149683,0.034624375,0.28087658,-1.5721467,3.5881357,0.116903484,-0.018478641,0.19481526,0.14667866,0.11949144,0.05311234,0.0,1,1,1,1,2,0,2,2,1,1,1,0,2203,224c2092-44e1-4b73-879c-d0ad0c4b4c87
61154647,13347301,29.3754284,-89.5490994,-0.7783303,0.6548118,0.59982795,0.002658458,0.0024949773,0.0,0.013909935,0.008471514,0.019490803,0.02970408,-0.025008326,-0.022564378,0.061152168,-0.008762332,0.08538484,0.22814643,-1.5719919,3.5881357,0.118704915,-0.019490803,0.1945003,0.14654039,0.11934928,0.05310019,0.0,1,1,1,1,2,0,2,2,1,1,1,0,2203,224c2092-44e1-4b73-879c-d0ad0c4b4c87
61254557,13347301,29.3754284,-89.5490994,-0.7789691,0.6567069,0.60925794,0.002658458,0.0024949773,0.0,0.013965911,0.008088673,0.02091865,0.0369998,-0.025008326,-0.022564378,0.061152168,0.29869533,-0.16604626,0.24696825,-1.5722435,3.5881357,0.11510295,-0.02091865,0.19486427,0.14652225,0.11951698,0.053098205,0.0,1,1,1,1,2,0,2,2,1,1,1,0,2203,224c2092-44e1-4b73-879c-d0ad0c4b4c87
61358584,13347301,29.3754284,-89.5490994,-0.77940804,0.65881205,0.6202002,0.002658458,0.0024949773,0.0,0.013122102,0.010921601,0.0225507,0.04508714,-0.025008326,-0.022564378,0.061152168,-0.14893173,0.20939769,-0.21879736,-1.5720781,3.5881357,0.11780274,-0.0225507,0.19538766,0.14654966,0.11977418,0.05312574,0.0,1,1,1,1,2,0,2,2,1,1,1,0,2203,224c2092-44e1-4b73-879c-d0ad0c4b4c87
61458486,13347301,29.3754284,-89.5490994,-0.77969277,0.66088116,0.63200635,0.002658458,0.0024949773,0.0,0.012967093,0.011780528,0.025968641,0.055161625,-0.025008326,-0.022564378,0.061152168,0.111393645,0.18919997,0.33976313,-1.5722888,3.5881357,0.11873484,-0.025968641,0.195026,0.14641543,0.11959319,0.05311144,0.0,1,1,1,1,2,0,2,2,1,1,1,0,2203,224c2092-44e1-4b73-879c-d0ad0c4b4c87
61558456,13347301,29.3754284,-89.5490994,-0.7802953,0.6633292,0.6443449,0.002658458,0.0024949773,0.0,0.013788895,0.012015147,0.028188262,0.06329656,-0.025008326,-0.022564378,0.061152168,0.092472136,-0.04357951,-0.023886623,-1.5720592,3.5881357,0.11611557,-0.028188262,0.1953476,0.14640005,0.1197319,0.053106673,0.0,1,1,1,1,2,0,2,2,1,1,1,0,2203,224c2092-44e1-4b73-879c-d0ad0c4b4c87
61662468,13347301,29.3754284,-89.5490994,-0.7808829,0.6658351,0.6581965,0.002658458,0.0024949773,0.0,0.012167965,0.013491706,0.030204255,0.07168251,-0.025008326,-0.022564378,0.061152168,-0.3602854,0.19391952,-0.35716793,-1.5722337,3.5881357,0.118887186,-0.030204255,0.1957031,0.14638169,0.119889416,0.05310115,0.0,1,1,1,1,2,0,2,2,1,1,1,0,2203,224c2092-44e1-4b73-879c-d0ad0c4b4c87
61762570,13347301,29.3754284,-89.5490994,-0.78134143,0.6684843,0.67067707,0.002658458,0.0024949773,0.0,0.01281416,0.013730023,0.031790525,0.077831775,-0.025008326,-0.022564378,0.061152168,-0.26815253,-0.050103866,-0.12707995,-1.5722616,3.5881357,0.11373091,-0.031790525,0.19531125,0.1466357,0.1196963,0.053118788,0.0,1,1,1,1,2,0,2,2,1,1,1,0,2203,224c2092-44e1-4b73-879c-d0ad0c4b4c87
61862530,13347301,29.3754284,-89.5490994,-0.78209764,0.67121136,0.68395156,0.002658458,0.0024949773,0.0,0.011919531,0.016017243,0.033497576,0.08384662,-0.025008326,-0.022564378,0.061152168,-0.049443446,0.22178079,-0.1239102,-1.5723116,3.5881357,0.11276859,-0.033497576,0.19566625,0.14661475,0.11985493,0.053112768,0.0,1,1,1,1,2,0,2,2,1,1,1,0,2203,224c2092-44e1-4b73-879c-d0ad0c4b4c87
61966708,13347301,29.3754284,-89.5490994,-0.7828771,0.673829,0.6967187,0.002658458,0.0024949773,0.0,0.012868755,0.016415963,0.03458755,0.08795472,-0.025008326,-0.022564378,0.061152168,0.08882596,0.020872267,-0.2363604,-1.5723238,3.5881357,0.10952735,-0.03458755,0.195935,0.14659235,0.11996017,0.053106267,0.0,1,1,1,1,2,0,2,2,1,1,1,0,2203,224c2092-44e1-4b73-879c-d0ad0c4b4c87
62066548,13347301,29.3754284,-89.5490994,-0.78362256,0.67609483,0.7074509,0.002658458,0.0024949773,0.0,0.0122150555,0.01566827,0.036879804,0.09144802,-0.025008326,-0.022564378,0.061152168,0.13255344,0.18828028,-0.24458092,-1.5722795,3.5881357,0.10506588,-0.036879804,0.19558059,0.14645003,0.11979135,0.053089872,0.0,1,1,1,1,2,0,2,2,1,1,1,0,2203,224c2092-44e1-4b73-879c-d0ad0c4b4c87
62168317,13347301,29.3754284,-89.5490994,-0.7845765,0.6783465,0.7193566,0.002658458,0.0024949773,0.0,0.01140142,0.015571558,0.037727114,0.093950525,-0.025008326,-0.022564378,0.061152168,0.06838765,0.058650464,-0.106007054,-1.572224,3.5881357,0.10910165,-0.037727114,0.19591253,0.14682005,0.11994362,0.053117473,0.0,1,1,1,1,2,0,2,2,1,1,1,0,2203,224c2092-44e1-4b73-879c-d0ad0c4b4c87
62272126,13347301,29.3754284,-89.5490994,-0.78560823,0.680646,0.7314122,0.002658458,0.0024949773,0.0,0.011394469,0.016880874,0.04279591,0.10024157,-0.025008326,-0.022564378,0.061152168,0.1371738,0.18511392,0.42468393,-1.5721924,3.5881357,0.10176593,-0.04279591,0.19633342,0.14679343,0.1201583,0.053110298,0.0,1,1,1,1,2,0,2,2,1,1,1,0,2203,224c2092-44e1-4b73-879c-d0ad0c4b4c87
62376076,13347301,29.3754284,-89.5490994,-0.78605485,0.6831188,0.740904,0.002658458,0.0024949773,0.0,0.011262496,0.017132027,0.041723885,0.097556114,-0.025008326,-0.022564378,0.061152168,0.066583484,0.026331384,-0.31357783,-1.5723599,3.5881357,0.1,-0.041723885,0.1968615,0.14680618,0.120421335,0.053131185,0.0,1,1,1,1,2,0,2,2,1,1,1,0,2203,224c2092-44e1-4b73-879c-d0ad0c4b4c87
62476066,13347301,29.3754284,-89.5490994,-0.78665376,0.6853576,0.7485364,0.002658458,0.0024949773,0.0,0.010795427,0.016734537,0.042691648,0.09592965,-0.025008326,-0.022564378,0.061152168,0.124528825,-0.28649676,-0.18432343,-1.5723779,3.5881357,0.1,-0.042691648,0.19648917,0.14665826,0.12024138,0.053110894,0.0,1,1,1,1,2,0,2,2,1,1,1,0,2203,224c2092-44e1-4b73-879c-d0ad0c4b4c87
62580168,13347301,29.3754284,-89.5490994,-0.7871091,0.68771386,0.7563749,0.002658458,0.0024949773,0.0,0.010686742,0.017841017,0.043147698,0.093674876,-0.025008326,-0.022564378,0.061152168,0.17552096,0.03513822,0.08565833,-1.5723519,3.5881357,0.1,-0.043147698,0.19686608,0.14662866,0.120419905,0.05310053,0.0,1,1,1,1,2,0,2,2,1,1,1,0,2203,224c2092-44e1-4b73-879c-d0ad0c4b4c87
62680189,13347301,29.3754284,-89.5490994,-0.78781295,0.689949,0.76235837,0.002658458,0.0024949773,0.0,0.008909202,0.01819771,0.043245543,0.089743316,-0.025008326,-0.022564378,0.061152168,0.013281472,0.14015056,0.02929934,-1.5723741,3.5881357,0.1,-0.043245543,0.19721432,0.14660248,0.12057102,0.053092226,0.0,1,1,1,1,2,0,2,2,1,1,1,0,2203,224c2092-44e1-4b73-879c-d0ad0c4b4c87
62780106,13347301,29.3754284,-89.5490994,-0.7887721,0.6922006,0.768468,0.002658458,0.0024949773,0.0,0.008553961,0.018718854,0.043521762,0.08701784,-0.025008326,-0.022564378,0.061152168,-0.304028,-0.010588384,0.073952205,-1.5724692,3.5881357,0.1,-0.043521762,0.19687083,0.14685069,0.120417364,0.053108163,0.0,1,1,1,1,2,0,2,2,1,1,1,0,2203,224c2092-44e1-4b73-879c-d0ad0c4b4c87
62884178,13347301,29.3754284,-89.5490994,-0.789773,0.6946742,0.7751717,0.002658458,0.0024949773,0.0,0.008630476,0.018793106,0.043748327,0.0846325,-0.025008326,-0.022564378,0.061152168,0.03150227,-0.023293499,0.20738125,-1.5724076,3.5881357,0.1,-0.043748327,0.19727692,0.14682284,0.12061427,0.05310012,0.0,1,1,1,1,2,0,2,2,1,1,1,0,2203,224c2092-44e1-4b73-879c-d0ad0c4b4c87
62984151,13347301,29.3754284,-89.5490994,-0.7906943,0.69684905,0.77990776,0.002658458,0.0024949773,0.0,0.007974634,0.019482436,0.04251061,0.079403624,-0.025008326,-0.022564378,0.061152168,-0.03926524,-0.038662527,0.086219266,-1.5724422,3.5881357,0.1,-0.04251061,0.19759458,0.14679423,0.12074475,0.05309264,0.0,1,1,1,1,2,0,2,2,1,1,1,0,2203,224c2092-44e1-4b73-879c-d0ad0c4b4c87
63084038,13347301,29.3754284,-89.5490994,-0.7913074,0.6992761,0.7833851,0.002658458,0.0024949773,0.0,0.008280343,0.019389955,0.040911086,0.073441185,-0.025008326,-0.022564378,0.061152168,0.120626666,-0.006120806,0.12720557,-1.5724473,3.5881357,0.1,-0.040911086,0.19721818,0.14703864,0.12056455,0.053108178,0.0,1,1,1,1,2,0,2,2,1,1,1,0,2203,224c2092-44e1-4b73-879c-d0ad0c4b4c87
63188874,13347301,29.3754284,-89.5490994,-0.7917823,0.701732,0.7862976,0.002658458,0.0024949773,0.0,0.0077003418,0.019659879,0.039407473,0.06736217,-0.025008326,-0.022564378,0.061152168,-0.1783995,0.20920989,0.06552127,-1.5724537,3.5881357,0.1,-0.039407473,0.19765683,0.1470065,0.12078716,0.053100478,0.0,1,1,1,1,2,0,2,2,1,1,1,0,2203,224c2092-44e1-4b73-879c-d0ad0c4b4c87
63288863,13347301,29.3754284,-89.5490994,-0.7918995,0.7039342,0.78978837,0.002658458,0.0024949773,0.0,0.008331387,0.020432184,0.038943376,0.06385685,-0.025008326,-0.022564378,0.061152168,0.19327852,0.2351125,0.19947521,-1.5724804,3.5881357,0.1,-0.038943376,0.1980724,0.14699394,0.1209801,0.05310788,0.0,1,1,1,1,2,0,2,2,1,1,1,0,2203,224c2092-44e1-4b73-879c-d0ad0c4b4c87
63389017,13347301,29.3754284,-89.5490994,-0.79240793,0.70602155,0.7916531,0.002658458,0.0024949773,0.0,0.0083493255,0.019795962,0.03744733,0.058257125,-0.025008326,-0.022564378,0.061152168,-0.039864868,-0.054450534,0.02721225,-1.5724956,3.5881357,0.1,-0.03744733,0.1977169,0.14684334,0.12081171,0.053089358,0.0,1,1,1,1,2,0,2,2,1,1,1,0,2203,224c2092-44e1-4b73-879c-d0ad0c4b4c87
63492987,13347301,29.3754284,-89.5490994,-0.79263884,0.7079441,0.7924464,0.002658458,0.0024949773,0.0,0.009272803,0.020352695,0.034478996,0.050639547,-0.025008326,-0.022564378,0.061152168,0.07107359,-0.122194566,-0.08638395,-1.5723765,3.5881357,0.1,-0.034478996,0.19811617,0.14681461,0.12100451,0.05308212,0.0,1,1,1,1,2,0,2,2,1,1,1,0,2203,224c2092-44e1-4b73-879c-d0ad0c4b4c87
63592903,13347301,29.3754284,-89.5490994,-0.7932383,0.71004814,0.79328185,0.002658458,0.0024949773,0.0,0.008152046,0.01978303,0.03249981,0.044835027,-0.025008326,-0.022564378,0.061152168,-0.011194907,-0.16982111,-0.2147847,-1.5723715,3.5881357,0.1,-0.03249981,0.19848347,0.14639716,0.12116941,0.053042807,0.0,1,1,1,1,2,0,2,2,1,1,1,0,2203,224c2092-44e1-4b73-879c-d0ad0c4b4c87
63692855,13347301,29.3754284,-89.5490994,-0.79421645,0.7124457,0.7938904,0.002658458,0.0024949773,0.0,0.008538522,0.02193902,0.030939003,0.03991957,-0.025008326,-0.022564378,0.061152168,0.12648813,-0.17097418,-0.048304517,-1.5722841,3.5881357,0.1,-0.030939003,0.19809397,0.14665096,0.12098089,0.053062677,0.0,1,1,1,1,2,0,2,2,1,1,1,0,2203,224c2092-44e1-4b73-879c-d0ad0c4b4c87
63796835,13347301,29.3754284,-89.5490994,-0.79516023,0.7149744,0.7956176,0.002658458,0.0024949773,0.0,0.008955308,0.020901017,0.029080944,0.03620319,-0.025008326,-0.022564378,0.061152168,0.14717776,-0.2363276,-0.07716357,-1.5722407,3.5881357,0.1,-0.029080944,0.18965374,0.14663237,0.116990924,0.05305954,0.0,1,1,1,1,2,0,2,2,1,1,1,0,2203,224c2092-44e1-4b73-879c-d0ad0c4b4c87
63896833,13347301,29.3754284,-89.5490994,-0.79669815,0.7173365,0.79922277,0.002658458,0.0024949773,0.0,0.008203834,0.022450916,0.0277463,0.035361376,-0.025008326,-0.022564378,0.061152168,-0.17525212,0.16641602,0.2622754,-1.5721171,3.5881357,0.1,-0.0277463,0.19886433,0.14622402,0.12134357,0.053023748,0.0,1,1,1,1,2,0,2,2,1,1,1,0,2203,224c2092-44e1-4b73-879c-d0ad0c4b4c87
64001061,13347301,29.3754284,-89.5490994,-0.7980897,0.71971864,0.8026897,0.002658458,0.0024949773,0.0,0.006523746,0.021191815,0.025563441,0.033550434,-0.025008326,-0.022564378,0.061152168,-0.0077719404,0.034804314,-0.013569824,-1.5722148,3.5881357,0.1,-0.025563441,0.19027202,0.14621289,0.117270775,0.05302253,0.0,1,1,1,1,2,0,2,2,1,1,1,0,2203,224c2092-44e1-4b73-879c-d0ad0c4b4c87
64105039,13347301,29.3754284,-89.5490994,-0.79909563,0.72214836,0.80683035,0.002658458,0.0024949773,0.0,0.0089555215,0.022134244,0.02445724,0.033727452,-0.025008326,-0.022564378,0.061152168,0.016256224,0.044783473,0.2663376,-1.5722331,3.5881357,0.1,-0.02445724,0.19062345,0.14620377,0.11743963,0.053021878,0.0,1,1,1,1,2,0,2,2,1,1,1,0,2203,224c2092-44e1-4b73-879c-d0ad0c4b4c87
64205012,13347301,29.3754284,-89.5490994,-0.80027926,0.7245302,0.81159174,0.002658458,0.0024949773,0.0,0.006133629,0.022663072,0.024989553,0.036062423,-0.025008326,-0.022564378,0.061152168,-0.17415327,0.39204395,0.18398456,-1.5721587,3.5881357,0.1,-0.024989553,0.1902573,0.14607544,0.11725935,0.05301088,0.0,1,1,1,1,2,0,2,2,1,1,1,0,2203,224c2092-44e1-4b73-879c-d0ad0c4b4c87
64308910,13347301,29.3754284,-89.5490994,-0.80206984,0.7269334,0.81710696,0.002658458,0.0024949773,0.0,0.0059102615,0.023229139,0.022556305,0.035896856,-0.025008326,-0.022564378,0.061152168,-0.19091538,0.16081148,-0.14773434,-1.5722767,3.5881357,0.1,-0.022556305,0.19061007,0.14606734,0.11742877,0.053010084,0.0,1,1,1,1,2,0,2,2,1,1,1,0,2203,224c2092-44e1-4b73-879c-d0ad0c4b4c87
64408860,13347301,29.3754284,-89.5490994,-0.8039977,0.72888285,0.82235664,0.002658458,0.0024949773,0.0,0.0055018878,0.022357374,0.021802468,0.03699658,-0.025008326,-0.022564378,0.061152168,0.14632246,0.11094786,-0.19329864,-1.5723146,3.5881357,0.1,-0.021802468,0.19093631,0.14605977,0.11757932,0.05300905,0.0,1,1,1,1,2,0,2,2,1,1,1,0,2203,224c2092-44e1-4b73-879c-d0ad0c4b4c87
64510466,13347301,29.3754284,-89.5490994,-0.8057528,0.7306535,0.82731915,0.002658458,0.0024949773,0.0,0.0035720156,0.02260459,0.022603687,0.039175082,-0.025008326,-0.022564378,0.061152168,-0.26045287,-0.02630298,0.10896746,-1.5722784,3.5881357,0.1,-0.022603687,0.19059801,0.14632343,0.11741952,0.05303099,0.0,1,1,1,1,2,0,2,2,1,1,1,0,2203,224c2092-44e1-4b73-879c-d0ad0c4b4c87
64610399,13347301,29.3754284,-89.5490994,-0.8078421,0.7325683,0.83164114,0.002658458,0.0024949773,0.0,0.00400585,0.021687001,0.023845505,0.040855955,-0.025008326,-0.022564378,0.061152168,0.16367172,-0.21483563,0.2310027,-1.5722823,3.5881357,0.1,-0.023845505,0.19092447,0.14631635,0.11756915,0.053029627,0.0,1,1,1,1,2,0,2,2,1,1,1,0,2203,224c2092-44e1-4b73-879c-d0ad0c4b4c87
64714543,13347301,29.3754284,-89.5490994,-0.8098066,0.73431635,0.8349265,0.002658458,0.0024949773,0.0,0.0032429118,0.021720603,0.02371572,0.040026497,-0.025008326,-0.022564378,0.061152168,-0.03321718,0.13918586,0.32997733,-1.5722586,3.5881357,0.1,-0.02371572,0.19140804,0.14635119,0.11781335,0.05305646,0.0,1,1,1,1,2,0,2,2,1,1,1,0,2203,224c2092-44e1-4b73-879c-d0ad0c4b4c87
64814452,13347301,29.3754284,-89.5490994,-0.81167555,0.7360622,0.83741385,0.002658458,0.0024949773,0.0,0.0040057097,0.021309134,0.021979833,0.037161417,-0.025008326,-0.022564378,0.061152168,0.6276432,-0.13068582,0.15303765,-1.5723016,3.5881357,0.1,-0.021979833,0.19103143,0.14622363,0.11762265,0.05304098,0.0,1,1,1,1,2,0,2,2,1,1,1,0,2203,224c2092-44e1-4b73-879c-d0ad0c4b4c87
64914939,13347301,29.3754284,-89.5490994,-0.8135833,0.737457,0.8399182,0.002658458,0.0024949773,0.0,0.0030836056,0.020946875,0.02154504,0.035712697,-0.025008326,-0.022564378,0.061152168,0.11572848,-0.08275897,0.13758981,-1.5723236,3.5881357,0.1,-0.02154504,0.19137822,0.14621514,0.11778915,0.053035513,0.0,1,1,1,1,2,0,2,2,1,1,1,0,2203,224c2092-44e1-4b73-879c-d0ad0c4b4c87
65018502,13347301,29.3754284,-89.5490994,-0.81495,0.73902464,0.8419256,0.002658458,0.0024949773,0.0,0.0036761526,0.021577409,0.02105043,0.03370503,-0.025008326,-0.022564378,0.061152168,-0.11639444,0.100301236,-0.14933755,-1.5722977,3.5881357,0.1,-0.02105043,0.1917536,0.14620596,0.117979236,0.053029917,0.0,1,1,1,1,2,0,2,2,1,1,1,0,2203,224c2092-44e1-4b73-879c-d0ad0c4b4c87
65118625,13347301,29.3754284,-89.5490994,-0.816176,0.7403987,0.8438461,0.002658458,0.0024949773,0.0,0.0029006838,0.022178499,0.021762986,0.0331119,-0.025008326,-0.022564378,0.061152168,-0.07123308,0.32267478,-0.1147514,-1.5722135,3.5881357,0.1,-0.021762986,0.19140652,0.14646693,0.11781107,0.053048257,0.0,1,1,1,1,2,0,2,2,1,1,1,0,2203,224c2092-44e1-4b73-879c-d0ad0c4b4c87
65222484,13347301,29.3754284,-89.5490994,-0.81754535,0.7418492,0.84663975,0.002658458,0.0024949773,0.0,0.0035653282,0.020158274,0.020563481,0.0314543,-0.025008326,-0.022564378,0.061152168,0.20864229,-0.05514701,-0.18714915,-1.5722826,3.5881357,0.1,-0.020563481,0.19177859,0.1464545,0.11799382,0.05304192,0.0,1,1,1,1,2,0,2,2,1,1,1,0,2203,224c2092-44e1-4b73-879c-d0ad0c4b4c87
65322470,13347301,29.3754284,-89.5490994,-0.81882906,0.74336886,0.8501127,0.002658458,0.0024949773,0.0,0.0033196777,0.0218497,0.019512463,0.030779032,-0.025008326,-0.022564378,0.061152168,-0.114927195,-0.11549611,-0.27481937,-1.5723611,3.5881357,0.1,-0.019512463,0.19212423,0.1464398,0.118151225,0.05303527,0.0,1,1,1,1,2,0,2,2,1,1,1,0,2203,224c2092-44e1-4b73-879c-d0ad0c4b4c87
65422450,13347301,29.3754284,-89.5490994,-0.8201852,0.74505335,0.85441583,0.002658458,0.0024949773,0.0,0.0023122872,0.02146992,0.019980635,0.0325563,-0.025008326,-0.022564378,0.061152168,-0.073828876,0.2205228,-0.0071498263,-1.5723383,3.5881357,0.100514114,-0.019980635,0.1918003,0.14630368,0.11800589,0.053018272,0.0,1,1,1,1,2,0,2,2,1,1,1,0,2203,224c2092-44e1-4b73-879c-d0ad0c4b4c87
65524029,13347301,29.3754284,-89.5490994,-0.82135975,0.7466775,0.85949504,0.002658458,0.0024949773,0.0,0.0032654929,0.021028688,0.021881403,0.03613094,-0.025008326,-0.022564378,0.061152168,0.041118216,-0.3965403,0.33802488,-1.5724525,3.5881357,0.1,-0.021881403,0.19214465,0.1462879,0.118168786,0.05301201,0.0,1,1,1,1,2,0,2,2,1,1,1,0,2203,224c2092-44e1-4b73-879c-d0ad0c4b4c87
65628161,13347301,29.3754284,-89.5490994,-0.8222266,0.74816304,0.8624361,0.002658458,0.0024949773,0.0,0.0020220024,0.020629324,0.019320725,0.032867886,-0.025008326,-0.022564378,0.061152168,0.043978643,0.08485128,-0.37972713,-1.5723941,3.5881357,0.1,-0.019320725,0.19251929,0.1466636,0.118350826,0.053039543,0.0,1,1,1,1,2,0,2,2,1,1,1,0,2203,224c2092-44e1-4b73-879c-d0ad0c4b4c87
65728005,13347301,29.3754284,-89.5490994,-0.82290596,0.7493435,0.8658581,0.002658458,0.0024949773,0.0,0.003134532,0.019929359,0.019658845,0.03341797,-0.025008326,-0.022564378,0.061152168,0.025014944,-0.034754187,0.04739647,-1.5722717,3.5881357,0.1,-0.019658845,0.19229168,0.14656606,0.11824625,0.053050995,0.0,1,1,1,1,2,0,2,2,1,1,1,0,2203,224c2092-44e1-4b73-879c-d0ad0c4b4c87
65828195,13347301,29.3754284,-89.5490994,-0.8233669,0.7504816,0.8671532,0.002658458,0.0024949773,0.0,-0.0033449496,0.016806109,-0.0066845347,0.007631572,-0.025008326,-0.022564378,0.061152168,-0.94976103,-0.44270816,3.2433167,-1.5729883,3.5881357,0.1,0.0066845347,0.19265695,0.14654729,0.118417665,0.053041838,0.0,1,1,1,1,2,0,2,2,1,1,1,0,2203,224c2092-44e1-4b73-879c-d0ad0c4b4c87
65932420,13347301,29.3754284,-89.5490994,-0.82367146,0.75165087,0.8706069,0.002658458,0.0024949773,0.0,0.013366875,0.014543583,-0.013169591,0.002155074,-0.025008326,-0.022564378,0.061152168,1.1908004,-0.19874048,-0.3630305,-1.5726576,3.5881357,0.10405481,0.013169591,0.19298734,0.1465259,0.11860877,0.05303217,0.0,1,1,1,1,2,0,2,2,1,1,1,0,2203,224c2092-44e1-4b73-879c-d0ad0c4b4c87
66032200,13347301,29.3754284,-89.5490994,-0.82251465,0.75295794,0.8723958,0.002658458,0.0024949773,0.0,0.041903883,0.02304578,-0.12256489,-0.10138167,-0.025008326,-0.022564378,0.061152168,0.8292759,0.73950976,-2.8077881,-1.5761204,3.5881357,0.12814921,0.12256489,0.19265066,0.14678025,0.11831243,0.053048205,0.0,1,1,1,1,2,0,2,2,1,1,1,0,2203,224c2092-44e1-4b73-879c-d0ad0c4b4c87
66136120,13347301,29.3754284,-89.5490994,-0.8185126,0.7546199,0.87688667,0.002658458,0.0024949773,0.0,0.05915626,0.021014923,-0.33831745,-0.292069,-0.025008326,-0.022564378,0.061152168,0.31875595,-0.7997472,-1.296848,-1.5806957,3.5881357,0.2051807,0.33831745,0.19304286,0.14675787,0.118773594,0.053041685,0.0,1,1,1,1,2,0,2,2,1,1,1,0,2203,224c2092-44e1-4b73-879c-d0ad0c4b4c87
66236296,13347301,29.3754284,-89.5490994,-0.81242734,0.7560217,0.8828694,0.002658458,0.0024949773,0.0,0.07216542,0.02838698,-0.59579563,-0.50327563,-0.025008326,-0.022564378,0.061152168,-0.1868524,0.52316433,-3.5376775,-1.5849752,3.5881357,0.2927459,0.59579563,0.19341601,0.14673178,0.119565845,0.053045776,0.0,1,1,1,1,2,0,2,2,1,1,1,0,2203,224c2092-44e1-4b73-879c-d0ad0c4b4c87
66336192,13347301,29.3754284,-89.5490994,-0.8046826,0.757833,0.8746933,0.002658458,0.0024949773,0.0,0.0882857,0.022057064,-0.862186,-0.7157088,-0.025008326,-0.022564378,0.061152168,0.100102745,0.31078938,-2.60907,-1.5889713,3.5881357,0.36529684,0.862186,0.19307315,0.14698115,0.12049801,0.05307988,0.0,1,1,1,1,2,0,2,2,1,1,1,0,2203,224c2092-44e1-4b73-879c-d0ad0c4b4c87
66440159,13347301,29.3754284,-89.5490994,-0.7958972,0.75942916,0.84768486,0.002658458,0.0024949773,0.0,0.09561161,0.020505982,-1.0531487,-0.8511216,-0.025008326,-0.022564378,0.061152168,-0.22661765,-0.25399977,-1.9465163,-1.5928087,3.5881357,0.40727437,1.0531487,0.19349866,0.14695111,0.122390755,0.053099222,0.0,1,1,1,1,2,0,2,2,1,1,1,0,2203,224c2092-44e1-4b73-879c-d0ad0c4b4c87
66541767,13347301,29.3754284,-89.5490994,-0.7874639,0.760513,0.80690753,0.002658458,0.0024949773,0.0,0.097024046,0.0058190157,-1.1539612,-0.9041881,-0.025008326,-0.022564378,0.061152168,0.45513067,-0.26904976,0.017430628,-1.5974646,3.5881357,0.4480517,1.1539612,0.19393256,0.14691767,0.12450942,0.053119782,0.0,1,1,1,1,2,0,2,2,1,1,1,0,2203,224c2092-44e1-4b73-879c-d0ad0c4b4c87
66645769,13347301,29.3754284,-89.5490994,-0.7788555,0.76068544,0.73890114,0.002658458,0.0024949773,0.0,0.088258915,0.007188041,-1.2209642,-0.9443612,-0.025008326,-0.022564378,0.061152168,-0.68109787,-0.07382437,-1.7816515,-1.6011018,3.5881357,0.5160581,1.2209642,0.19457507,0.14692323,0.1259588,0.05317281,0.0,1,1,1,1,2,0,2,2,1,1,1,0,2203,224c2092-44e1-4b73-879c-d0ad0c4b4c87
66745770,13347301,29.3754284,-89.5490994,-0.770704,0.7611943,0.6467666,0.002658458,0.0024949773,0.0,0.09593483,0.008796156,-1.2647032,-0.9848833,-0.025008326,-0.022564378,0.061152168,0.025272286,-0.009025857,0.46867013,-1.6027917,3.5881357,0.6081926,1.2647032,0.19437496,0.14716361,0.12622097,0.053204365,0.0,1,1,1,1,2,0,2,2,1,1,1,0,2203,224c2092-44e1-4b73-879c-d0ad0c4b4c87
66849791,13347301,29.3754284,-89.5490994,-0.76209104,0.76242757,0.5293031,0.002658458,0.0024949773,0.0,0.08323072,0.017440824,-1.3124473,-1.0462538,-0.025008326,-0.022564378,0.061152168,-0.9426016,0.38826284,-0.47252104,-1.6034306,3.5881357,0.72565615,1.3124473,0.1948807,0.14712664,0.126388,0.05322894,0.0,1,1,1,1,2,0,2,2,1,1,1,0,2203,224c2092-44e1-4b73-879c-d0ad0c4b4c87
66949684,13347301,29.3754284,-89.5490994,-0.7557092,0.7646244,0.40107238,0.002658458,0.0024949773,0.0,0.07420777,0.024596905,-1.3309557,-1.0891204,-0.025008326,-0.022564378,0.061152168,0.039492447,0.5628808,-1.2590673,-1.6021103,3.5881357,0.85388684,1.3309557,0.1952963,0.14708757,0.12649544,0.053273004,0.0,1,1,1,1,2,0,2,2,1,1,1,0,2203,224c2092-44e1-4b73-879c-d0ad0c4b4c87
67049804,13347301,29.3754284,-89.5490994,-0.7491794,0.76755095,0.26272145,0.002658458,0.0024949773,0.0,0.08556979,0.026255773,-1.3419926,-1.1283783,-0.025008326,-0.022564378,0.061152168,0.4452237,0.83839417,-0.82610744,-1.6001037,3.5881357,0.9922378,1.3419926,0.19506527,0.1469304,0.12610221,0.053259224,0.0,1,1,1,1,2,0,2,2,1,1,0,0,2203,224c2092-44e1-4b73-879c-d0ad0c4b4c87
67153790,13347301,29.3754284,-89.5490994,-0.74327326,0.770794,0.113152556,0.002658458,0.0024949773,0.0,0.06657611,0.031903483,-1.3507681,-1.1686846,-0.025008326,-0.022564378,0.061152168,-1.0654647,-0.09505484,0.6428523,-1.5975807,3.5881357,1.1418067,1.3507681,0.19553187,0.146892,0.12574849,0.053290017,0.0,1,1,1,1,2,0,2,2,1,1,0,0,2203,224c2092-44e1-4b73-879c-d0ad0c4b4c87
67253669,13347301,29.3754284,-89.5490994,-0.73853177,0.77366465,-0.036442265,0.002658458,0.0024949773,0.0,0.06488492,0.024329523,-1.369817,-1.2197455,-0.025008326,-0.022564378,0.061152168,0.028852297,0.01198998,0.34674135,-1.5957825,3.5881357,1.2914015,1.369817,0.19595315,0.14685233,0.12541412,0.053318866,0.0,1,1,1,1,2,0,2,2,1,1,0,0,2203,224c2092-44e1-4b73-879c-d0ad0c4b4c87
67357793,13347301,29.3754284,-89.5490994,-0.7331353,0.7763316,-0.19306964,0.002658458,0.0024949773,0.0,0.058780115,0.016063128,-1.3848983,-1.2629704,-0.025008326,-0.022564378,0.061152168,0.28510228,-0.14077306,0.6058072,-1.5942734,3.5881357,1.4480288,1.3848983,0.19639204,0.14681531,0.12514485,0.053324863,0.0,1,1,1,1,2,0,2,2,1,1,0,0,2203,224c2092-44e1-4b73-879c-d0ad0c4b4c87
67462614,13347301,29.3754284,-89.5490994,-0.7288316,0.77730393,-0.35568216,0.002658458,0.0024949773,0.0,0.045677535,0.0020155385,-1.3980693,-1.3047079,-0.025008326,-0.022564378,0.061152168,-0.47740608,0.08445178,-0.7211788,-1.5940343,3.5881357,1.6106414,1.3980693,0.19684762,0.14717436,0.12490874,0.053398144,0.0,1,1,1,1,2,0,2,2,1,1,0,0,2203,224c2092-44e1-4b73-879c-d0ad0c4b4c87
67563389,13347301,29.3754284,-89.5490994,-0.72584516,0.77716917,-0.51876235,0.002658458,0.0024949773,0.0,0.03200775,-0.0071384013,-1.4010135,-1.3378742,-0.025008326,-0.022564378,0.061152168,-0.42325267,0.15317056,-0.55427605,-1.5941515,3.5881357,1.7737216,1.4010135,0.19651824,0.14701647,0.124363154,0.05340244,0.0,1,1,1,1,2,0,2,2,1,1,0,0,2203,224c2092-44e1-4b73-879c-d0ad0c4b4c87
67663636,13347301,29.3754284,-89.5490994,-0.72474223,0.77621496,-0.6817947,0.002658458,0.0024949773,0.0,0.015996087,-0.015244574,-1.4001611,-1.3652519,-0.025008326,-0.022564378,0.061152168,-0.026667695,0.09322317,-0.120682895,-1.5942225,3.5881357,1.936754,1.4001611,0.1971498,0.14701827,0.12424354,0.05346742,0.0,1,1,1,1,2,0,2,2,1,1,0,0,2203,224c2092-44e1-4b73-879c-d0ad0c4b4c87
67763451,13347301,29.3754284,-89.5490994,-0.72511667,0.7746796,-0.8415376,0.002658458,0.0024949773,0.0,-0.0020667687,-0.019456515,-1.4021147,-1.3889011,-0.025008326,-0.022564378,0.061152168,0.3194578,-0.1685963,0.1093442,-1.5943002,3.5881357,2.0964968,1.4021147,0.1968323,0.14725557,0.12366289,0.05350959,0.0,1,1,1,1,2,0,2,2,1,1,0,0,2203,224c2092-44e1-4b73-879c-d0ad0c4b4c87
67867261,13347301,29.3754284,-89.5490994,-0.7282894,0.7726323,-1.008552,0.002658458,0.0024949773,0.0,-0.024890725,-0.0190349,-1.4022272,-1.4098645,-0.025008326,-0.022564378,0.061152168,0.40544316,0.059989095,-0.49515373,-1.5940863,3.5881357,2.2635112,1.4022272,0.19720422,0.14721453,0.123367526,0.053534135,0.0,1,1,1,1,2,0,2,2,1,1,0,0,2203,224c2092-44e1-4b73-879c-d0ad0c4b4c87
67967304,13347301,29.3754284,-89.5490994,-0.7332534,0.7704212,-1.1676172,0.002658458,0.0024949773,0.0,-0.040219475,-0.020198187,-1.4007398,-1.4248263,-0.025008326,-0.022564378,0.061152168,0.1971492,-0.21388106,0.6038124,-1.5937128,3.5881357,2.4225764,1.4007398,0.1974707,0.14717303,0.123034894,0.05355375,0.0,1,1,1,1,2,0,2,2,1,1,0,0,2203,224c2092-44e1-4b73-879c-d0ad0c4b4c87
68071404,13347301,29.3754284,-89.5490994,-0.7399587,0.76767516,-1.3310748,0.002658458,0.0024949773,0.0,-0.05701732,-0.015423969,-1.4020756,-1.4396399,-0.025008326,-0.022564378,0.061152168,0.03310441,1.0539935,-0.26123837,-1.5943997,3.5881357,2.586034,1.4020756,0.1978185,0.14712748,0.12280577,0.053563803,0.0,1,1,1,1,2,0,2,2,1,1,0,0,2203,224c2092-44e1-4b73-879c-d0ad0c4b4c87
68175311,13347301,29.3754284,-89.5490994,-0.74764574,0.76468575,-1.4915797,0.002658458,0.0024949773,0.0,-0.062229637,-0.015171425,-1.4062047,-1.4531397,-0.025008326,-0.022564378,0.061152168,0.37521622,0.46506777,-1.1137563,-1.594651,3.5881357,2.7465389,1.4062047,0.19812292,0.14747863,0.12262578,0.053613883,0.0,1,1,1,1,2,0,2,2,1,1,0,0,2203,224c2092-44e1-4b73-879c-d0ad0c4b4c87
68275382,13347301,29.3754284,-89.5490994,-0.7554566,0.7614619,-1.6484483,0.002658458,0.0024949773,0.0,-0.06967561,-0.014001168,-1.4050399,-1.4626756,-0.025008326,-0.022564378,0.061152168,-0.07032035,0.74394625,-0.42911702,-1.5949991,3.5881357,2.9034076,1.4050399,0.19771434,0.14731021,0.122159526,0.05360746,0.0,1,1,1,1,2,0,2,2,1,1,0,0,2203,224c2092-44e1-4b73-879c-d0ad0c4b4c87
68379254,13347301,29.3754284,-89.5490994,-0.7633448,0.7580501,-1.8080583,0.002658458,0.0024949773,0.0,-0.06973534,-0.013552102,-1.4058887,-1.4696345,-0.025008326,-0.022564378,0.061152168,-0.21866032,0.049963385,-0.19716384,-1.595316,3.5881357,3.0630174,1.4058887,0.19799924,0.14725907,0.12203587,0.053615246,0.0,1,1,1,1,2,0,2,2,1,1,0,0,2203,224c2092-44e1-4b73-879c-d0ad0c4b4c87
68480870,13347301,29.3754284,-89.5490994,-0.7708633,0.7550744,-1.9608494,0.002658458,0.0024949773,0.0,-0.068521164,-0.012692232,-1.4075319,-1.473257,-0.025008326,-0.022564378,0.061152168,-0.4390457,-0.00088017527,-0.7765896,-1.5960937,3.5881357,3.2158086,1.4075319,0.19831234,0.14720863,0.12197413,0.05362611,0.0,1,1,1,1,2,0,2,2,1,1,0,0,2203,224c2092-44e1-4b73-879c-d0ad0c4b4c87
68584938,13347301,29.3754284,-89.5490994,-0.7779325,0.751754,-2.1133869,0.002658458,0.0024949773,0.0,-0.06363865,-0.012099184,-1.4056711,-1.4699005,-0.025008326,-0.022564378,0.061152168,0.2642052,-0.6840253,-0.3527756,-1.596381,3.5881357,3.3683462,1.4056711,0.19864388,0.14755628,0.121977724,0.053666342,0.0,1,1,1,1,2,0,2,2,1,1,0,0,2203,224c2092-44e1-4b73-879c-d0ad0c4b4c87
68684939,13347301,29.3754284,-89.5490994,-0.7842632,0.74860084,-2.2611067,0.002658458,0.0024949773,0.0,-0.0548249,-0.010514294,-1.4045371,-1.4690202,-0.025008326,-0.022564378,0.061152168,-0.15739053,-0.1210607,-0.44047654,-1.5960628,3.5881357,3.516066,1.4045371,0.19835728,0.14742452,0.121723235,0.05367905,0.0,1,1,1,1,2,0,2,2,1,1,0,0,2203,224c2092-44e1-4b73-879c-d0ad0c4b4c87
68789382,13347301,29.3754284,-89.5490994,-0.78971887,0.7450864,-2.4161625,0.002658458,0.0024949773,0.0,-0.047415413,-0.011979709,-1.4003628,-1.4662822,-0.025008326,-0.022564378,0.061152168,0.20464075,-0.20618138,0.60357225,-1.5959716,3.5881357,3.6711216,1.4003628,0.19861175,0.14737166,0.12170847,0.053687863,0.0,1,1,1,1,2,0,2,2,1,1,0,0,2203,224c2092-44e1-4b73-879c-d0ad0c4b4c87
68888856,13347301,29.3754284,-89.5490994,-0.79398733,0.7407251,-2.567019,0.002658458,0.0024949773,0.0,-0.03930427,-0.013702723,-1.400292,-1.4689821,-0.025008326,-0.022564378,0.061152168,0.17241511,-0.72161055,0.29633602,-1.5957422,3.5881357,3.821978,1.400292,0.19889587,0.14731853,0.121742606,0.053675547,0.0,1,1,1,1,2,0,2,2,1,1,0,0,2203,224c2092-44e1-4b73-879c-d0ad0c4b4c87
68989063,13347301,29.3754284,-89.5490994,-0.7977797,0.73677534,-2.7201412,0.002658458,0.0024949773,0.0,-0.028910732,-0.012462232,-1.403804,-1.4777677,-0.025008326,-0.022564378,0.061152168,0.47054237,-0.29937756,-0.012657531,-1.5955323,3.5881357,3.9751005,1.403804,0.19841975,0.1471513,0.12142435,0.053664364,0.0,1,1,1,1,2,0,2,2,1,1,0,0,2203,224c2092-44e1-4b73-879c-d0ad0c4b4c87
69093026,13347301,29.3754284,-89.5490994,-0.80004525,0.7327001,-2.8823926,0.002658458,0.0024949773,0.0,-0.02250883,-0.011259935,-1.4047647,-1.4858952,-0.025008326,-0.022564378,0.061152168,0.34110808,0.17567699,0.6601311,-1.5955971,3.5881357,4.137352,1.4047647,0.19870608,0.14710644,0.121514656,0.0536681,0.0,1,1,1,1,2,0,2,2,1,1,0,0,2203,224c2092-44e1-4b73-879c-d0ad0c4b4c87
69192890,13347301,29.3754284,-89.5490994,-0.80209035,0.7292361,-3.0408006,0.002658458,0.0024949773,0.0,-0.016883852,-0.010199804,-1.4059823,-1.4949472,-0.025008326,-0.022564378,0.061152168,0.08064023,-0.3610179,0.87511164,-1.5956264,3.5881357,4.2957597,1.4059823,0.19014634,0.14706635,0.11745562,0.05366064,0.0,1,1,1,1,2,0,2,2,1,1,0,0,2203,224c2092-44e1-4b73-879c-d0ad0c4b4c87
69293036,13347301,29.3754284,-89.5490994,-0.803689,0.7264949,-3.1960096,0.002658458,0.0024949773,0.0,-0.011071049,-0.007979966,-1.4070364,-1.5006392,-0.025008326,-0.022564378,0.061152168,0.57953906,-0.54406863,0.079389036,-1.5949689,3.5881357,4.4509687,1.4070364,0.19864245,0.14690614,0.12147086,0.05364842,0.0,1,1,1,1,2,0,2,2,1,1,0,0,2203,224c2092-44e1-4b73-879c-d0ad0c4b4c87
69396981,13347301,29.3754284,-89.5490994,-0.8044763,0.7239067,-3.354347,0.002658458,0.0024949773,0.0,-0.008619102,-0.0038799841,-1.4033282,-1.4978002,-0.025008326,-0.022564378,0.061152168,0.14660262,0.20324516,0.84041256,-1.5941125,3.5881357,4.6093063,1.4033282,0.19003858,0.14726232,0.11740851,0.05367228,0.0,1,1,1,1,2,0,2,2,1,1,0,0,2203,224c2092-44e1-4b73-879c-d0ad0c4b4c87
69498478,13347301,29.3754284,-89.5490994,-0.80556995,0.72237045,-3.5107336,0.002658458,0.0024949773,0.0,-0.0068409373,-0.0019952077,-1.40312,-1.5000725,-0.025008326,-0.022564378,0.061152168,0.52103674,-0.5513559,0.9540495,-1.5936092,3.5881357,4.7656927,1.40312,0.19034633,0.14722107,0.11757764,0.05366064,0.0,1,1,1,1,2,0,2,2,1,1,0,0,2203,224c2092-44e1-4b73-879c-d0ad0c4b4c87
69602480,13347301,29.3754284,-89.5490994,-0.8062868,0.72102886,-3.6681354,0.002658458,0.0024949773,0.0,-0.007070933,0.004504546,-1.4053078,-1.502046,-0.025008326,-0.022564378,0.061152168,-0.59105194,0.2781768,-0.17925331,-1.5929286,3.5881357,4.9230947,1.4053078,0.19062965,0.14717807,0.11773792,0.05365261,0.0,1,1,1,1,2,0,2,2,1,1,0,0,2203,224c2092-44e1-4b73-879c-d0ad0c4b4c87
69702570,13347301,29.3754284,-89.5490994,-0.807702,0.72023654,-3.8128047,0.002658458,0.0024949773,0.0,-0.009399733,0.008079948,-1.4040619,-1.4947058,-0.025008326,-0.022564378,0.061152168,-0.32171443,0.12528355,0.30519155,-1.5917866,3.5881357,5.067764,1.4040619,0.19929592,0.14706145,0.1218746,0.053669486,0.0,1,1,1,1,2,0,2,2,1,1,0,0,2203,224c2092-44e1-4b73-879c-d0ad0c4b4c87
69806668,13347301,29.3754284,-89.5490994,-0.80948836,0.72054654,-3.9592154,0.002658458,0.0024949773,0.0,-0.009150555,0.015813485,-1.4065799,-1.4873803,-0.025008326,-0.022564378,0.061152168,0.74699306,0.92810875,-1.1781241,-1.5906073,3.5881357,5.2141747,1.4065799,0.19061153,0.14702353,0.117786326,0.053653587,0.0,1,1,1,1,2,0,2,2,1,1,0,0,2203,224c2092-44e1-4b73-879c-d0ad0c4b4c87
69906958,13347301,29.3754284,-89.5490994,-0.8112295,0.72144514,-4.1044807,0.002658458,0.0024949773,0.0,-0.011727375,0.02053067,-1.4052025,-1.4817635,-0.025008326,-0.022564378,0.061152168,0.3995057,0.44964314,-0.39123607,-1.5900152,3.5881357,5.35944,1.4052025,0.19986399,0.14698641,0.12219263,0.053640362,0.0,1,1,1,1,2,0,2,2,1,1,0,0,2203,224c2092-44e1-4b73-879c-d0ad0c4b4c87
70010639,13347301,29.3754284,-89.5490994,-0.8140906,0.7237462,-4.256537,0.002658458,0.0024949773,0.0,-0.015279871,0.028359577,-1.4093732,-1.4832971,-0.025008326,-0.022564378,0.061152168,0.4482951,0.50666255,-0.5786103,-1.5894778,3.5881357,5.511496,1.4093732,0.19111852,0.14694871,0.11809629,0.053622276,0.0,1,1,1,1,2,0,2,2,1,1,0,0,2203,224c2092-44e1-4b73-879c-d0ad0c4b4c87
70114505,13347301,29.3754284,-89.5490994,-0.8176639,0.727515,-4.4094124,0.002658458,0.0024949773,0.0,-0.020983834,0.034080938,-1.4110442,-1.483097,-0.025008326,-0.022564378,0.061152168,-0.6745303,-0.16935262,-0.57980573,-1.5888594,3.5881357,5.6643715,1.4110442,0.19145426,0.14691015,0.11832302,0.053610783,0.0,1,1,1,1,2,0,2,2,1,1,0,0,2203,224c2092-44e1-4b73-879c-d0ad0c4b4c87
70214565,13347301,29.3754284,-89.5490994,-0.82133615,0.73215497,-4.5549455,0.002658458,0.0024949773,0.0,-0.025514571,0.041261688,-1.4101931,-1.479437,-0.025008326,-0.022564378,0.061152168,-0.20619917,0.7392274,-0.39013577,-1.5873964,3.5881357,5.8099046,1.4101931,0.19106817,0.14715116,0.11817688,0.053611536,0.0,1,1,1,1,2,0,2,2,1,1,0,0,2203,224c2092-44e1-4b73-879c-d0ad0c4b4c87
70318424,13347301,29.3754284,-89.5490994,-0.82553047,0.7375472,-4.7072864,0.002658458,0.0024949773,0.0,-0.027191857,0.045551706,-1.4156343,-1.4827229,-0.025008326,-0.022564378,0.061152168,-0.0006904837,0.48871174,-0.98071,-1.5867405,3.5881357,5.9622455,1.4156343,0.1914657,0.14711244,0.118437394,0.053593066,0.0,1,1,1,1,2,0,2,2,1,1,0,0,2203,224c2092-44e1-4b73-879c-d0ad0c4b4c87
70418453,13347301,29.3754284,-89.5490994,-0.82968765,0.7427401,-4.85558,0.002658458,0.0024949773,0.0,-0.029441655,0.047891337,-1.421355,-1.4877951,-0.025008326,-0.022564378,0.061152168,-0.06145533,0.8560364,-0.69249916,-1.5863677,3.5881357,6.110539,1.421355,0.19183598,0.14707145,0.11867129,0.05357173,0.0,1,1,1,1,2,0,2,2,1,1,0,0,2203,224c2092-44e1-4b73-879c-d0ad0c4b4c87
70520009,13347301,29.3754284,-89.5490994,-0.8343561,0.74765354,-5.0080414,0.002658458,0.0024949773,0.0,-0.031401236,0.047316566,-1.4337424,-1.5010703,-0.025008326,-0.022564378,0.061152168,0.20507921,0.7824716,-0.8913748,-1.585827,3.5881357,6.2630005,1.4337424,0.19148369,0.14730841,0.118548736,0.05357776,0.0,1,1,1,1,2,0,2,2,1,1,0,0,2203,224c2092-44e1-4b73-879c-d0ad0c4b4c87
70620297,13347301,29.3754284,-89.5490994,-0.83901244,0.75206333,-5.1615925,0.002658458,0.0024949773,0.0,-0.030283207,0.043628093,-1.4468966,-1.5162549,-0.025008326,-0.022564378,0.061152168,0.85631573,0.12131951,-0.06163535,-1.5853242,3.5881357,6.4165516,1.4468966,0.1918036,0.1472681,0.118733786,0.053552322,0.0,1,1,1,1,2,0,2,2,1,1,0,0,2203,224c2092-44e1-4b73-879c-d0ad0c4b4c87
70724179,13347301,29.3754284,-89.5490994,-0.8437203,0.7561966,-5.3244843,0.002658458,0.0024949773,0.0,-0.028818758,0.04066472,-1.4657599,-1.5388027,-0.025008326,-0.022564378,0.061152168,-0.25639528,0.5306831,-0.39943776,-1.5850595,3.5881357,6.5794435,1.4657599,0.19228582,0.14726765,0.1189912,0.05356745,0.0,1,1,1,1,2,0,2,2,1,1,0,0,2203,224c2092-44e1-4b73-879c-d0ad0c4b4c87
70828160,13347301,29.3754284,-89.5490994,-0.84783804,0.75972426,-5.4940248,0.002658458,0.0024949773,0.0,-0.023615036,0.033822082,-1.4873947,-1.568159,-0.025008326,-0.022564378,0.061152168,0.026108578,0.1541979,-0.9445429,-1.5853436,3.5881357,6.748984,1.4873947,0.19266486,0.14722669,0.1192201,0.053543493,0.0,1,1,1,1,2,0,2,2,1,1,0,0,2203,224c2092-44e1-4b73-879c-d0ad0c4b4c87
70928199,13347301,29.3754284,-89.5490994,-0.8512326,0.76245457,-5.6590333,0.002658458,0.0024949773,0.0,-0.016419183,0.027955256,-1.5044322,-1.5923705,-0.025008326,-0.022564378,0.061152168,0.050771296,0.68914545,-1.1606996,-1.5860507,3.5881357,6.9139924,1.5044322,0.1922525,0.14706464,0.11903671,0.053507194,0.0,1,1,1,1,2,0,2,2,1,1,0,0,2203,224c2092-44e1-4b73-879c-d0ad0c4b4c87
71032197,13347301,29.3754284,-89.5490994,-0.8535851,0.76525956,-5.8315935,0.002658458,0.0024949773,0.0,-0.009387429,0.020177435,-1.5213848,-1.6144814,-0.025008326,-0.022564378,0.061152168,-0.09847184,-0.3315429,-0.50539505,-1.5868988,3.5881357,7.0865526,1.5213848,0.1925834,0.14702441,0.11921242,0.053481873,0.0,1,1,1,1,2,0,2,2,1,1,0,0,2203,224c2092-44e1-4b73-879c-d0ad0c4b4c87
71132100,13347301,29.3754284,-89.5490994,-0.85500085,0.7675426,-5.996765,0.002658458,0.0024949773,0.0,0.000119578195,0.015425782,-1.5366975,-1.6313323,-0.025008326,-0.022564378,0.061152168,0.27820787,-0.100995764,-0.7978974,-1.5875559,3.5881357,7.2517242,1.5366975,0.19288379,0.14698146,0.119372554,0.053458147,0.0,1,1,1,1,2,0,2,2,1,1,0,0,2203,224c2092-44e1-4b73-879c-d0ad0c4b4c87
71232035,13347301,29.3754284,-89.5490994,-0.8557793,0.76974,-6.162682,0.002658458,0.0024949773,0.0,0.008981481,0.010575315,-1.553615,-1.6495931,-0.025008326,-0.022564378,0.061152168,-0.13124786,0.23394607,-0.72227114,-1.5878443,3.5881357,7.417641,1.553615,0.19257277,0.14721757,0.11925524,0.05345528,0.0,1,1,1,1,2,0,2,2,1,1,0,0,2203,224c2092-44e1-4b73-879c-d0ad0c4b4c87
71336157,13347301,29.3754284,-89.5490994,-0.85567456,0.7714719,-6.3341603,0.002658458,0.0024949773,0.0,0.014753577,0.0009845067,-1.5686053,-1.6625774,-0.025008326,-0.022564378,0.061152168,-0.085701,-0.52170575,-0.21377629,-1.5880593,3.5881357,7.5891194,1.5686053,0.19293787,0.1471728,0.119458914,0.05343167,0.0,1,1,1,1,2,0,2,2,1,1,0,0,2203,224c2092-44e1-4b73-879c-d0ad0c4b4c87
71436180,13347301,29.3754284,-89.5490994,-0.8550489,0.77238095,-6.4986815,0.002658458,0.0024949773,0.0,0.023592094,-0.004325403,-1.5820656,-1.6722571,-0.025008326,-0.022564378,0.061152168,0.12513807,-0.41154352,-0.53571165,-1.5881282,3.5881357,7.7536407,1.5820656,0.19327681,0.14712733,0.11964178,0.05340601,0.0,1,1,1,1,2,0,2,2,1,1,0,0,2203,224c2092-44e1-4b73-879c-d0ad0c4b4c87
71538138,13347301,29.3754284,-89.5490994,-0.8531658,0.7726784,-6.667522,0.002658458,0.0024949773,0.0,0.03142775,-0.012557363,-1.5949416,-1.6830821,-0.025008326,-0.022564378,0.061152168,-0.31572273,-0.35900012,-0.024372429,-1.5874958,3.5881357,7.922481,1.5949416,0.1929407,0.1473614,0.11949824,0.05339895,0.0,1,1,1,1,2,0,2,2,1,1,0,0,2203,224c2092-44e1-4b73-879c-d0ad0c4b4c87
71641646,13347301,29.3754284,-89.5490994,-0.8505984,0.77266705,-6.8424134,0.002658458,0.0024949773,0.0,0.037947807,-0.018991888,-1.6039232,-1.6905651,-0.025008326,-0.022564378,0.061152168,0.51544493,-0.55003077,1.0071412,-1.5865532,3.5881357,8.097373,1.6039232,0.19328704,0.14731649,0.11967592,0.053373847,0.0,1,1,1,1,2,0,2,2,1,1,0,0,2203,224c2092-44e1-4b73-879c-d0ad0c4b4c87
71741835,13347301,29.3754284,-89.5490994,-0.84748995,0.77215296,-7.0084195,0.002658458,0.0024949773,0.0,0.04258542,-0.025846269,-1.6196053,-1.7010425,-0.025008326,-0.022564378,0.061152168,0.54538095,-0.4317826,0.6887782,-1.5850945,3.5881357,8.263379,1.6196053,0.19378638,0.14691561,0.119910136,0.05333793,0.0,1,1,1,1,2,0,2,2,1,1,0,0,2203,224c2092-44e1-4b73-879c-d0ad0c4b4c87
71841734,13347301,29.3754284,-89.5490994,-0.84358543,0.7710247,-7.1780214,0.002658458,0.0024949773,0.0,0.04316629,-0.03322826,-1.6330794,-1.7127762,-0.025008326,-0.022564378,0.061152168,-0.22770315,-0.69631106,0.95308995,-1.584296,3.5881357,8.432981,1.6330794,0.19341432,0.14715323,0.11972151,0.053333726,0.0,1,1,1,1,2,0,2,2,1,1,0,0,2203,224c2092-44e1-4b73-879c-d0ad0c4b4c87
71945706,13347301,29.3754284,-89.5490994,-0.8395036,0.76953566,-7.3614507,0.002658458,0.0024949773,0.0,0.043398596,-0.034380354,-1.6519439,-1.7349267,-0.025008326,-0.022564378,0.061152168,0.4168222,0.3838306,-0.5881544,-1.5827863,3.5881357,8.61641,1.6519439,0.19371952,0.1471098,0.11985804,0.05330105,0.0,1,1,1,1,2,0,2,2,1,1,0,0,2203,224c2092-44e1-4b73-879c-d0ad0c4b4c87
72045744,13347301,29.3754284,-89.5490994,-0.83537865,0.7679064,-7.5412664,0.002658458,0.0024949773,0.0,0.044012673,-0.034589734,-1.6699207,-1.7570882,-0.025008326,-0.022564378,0.061152168,0.60995865,0.71666926,-0.36974627,-1.5815767,3.5881357,8.796226,1.6699207,0.19411696,0.14706846,0.12004723,0.053262644,0.0,1,1,1,1,2,0,2,2,1,1,0,0,2203,224c2092-44e1-4b73-879c-d0ad0c4b4c87
72145646,13347301,29.3754284,-89.5490994,-0.83126146,0.76594174,-7.7206507,0.002658458,0.0024949773,0.0,0.040632334,-0.03552024,-1.6853857,-1.7749714,-0.025008326,-0.022564378,0.061152168,0.30196714,0.39316702,0.06076992,-1.5805062,3.5881357,8.97561,1.6853857,0.19383022,0.14730518,0.11992108,0.05326467,0.0,1,1,1,1,2,0,2,2,1,1,0,0,2203,224c2092-44e1-4b73-879c-d0ad0c4b4c87
72249881,13347301,29.3754284,-89.5490994,-0.82757,0.76408017,-7.908436,0.002658458,0.0024949773,0.0,0.03836869,-0.033713765,-1.7085447,-1.7994691,-0.025008326,-0.022564378,0.061152168,0.4118706,0.06550241,-0.928723,-1.5802137,3.5881357,9.163395,1.7085447,0.194165,0.14726213,0.12005034,0.053231318,0.0,1,1,1,1,2,0,2,2,1,1,0,0,2203,224c2092-44e1-4b73-879c-d0ad0c4b4c87
72349679,13347301,29.3754284,-89.5490994,-0.82418436,0.7625982,-8.088068,0.002658458,0.0024949773,0.0,0.03228188,-0.03204113,-1.7275515,-1.8162119,-0.025008326,-0.022564378,0.061152168,-0.32899857,0.5496291,-0.48832306,-1.5805391,3.5881357,9.343027,1.7275515,0.19447577,0.14721926,0.120161004,0.05320275,0.0,1,1,1,1,2,0,2,2,1,1,0,0,2203,224c2092-44e1-4b73-879c-d0ad0c4b4c87
72453769,13347301,29.3754284,-89.5490994,-0.8212359,0.7611533,-8.276403,0.002658458,0.0024949773,0.0,0.026397629,-0.031856913,-1.7476037,-1.8339931,-0.025008326,-0.022564378,0.061152168,-0.31552872,-0.34328786,-0.44629174,-1.5807245,3.5881357,9.531363,1.7476037,0.1948131,0.14717303,0.12030144,0.05317082,0.0,1,1,1,1,2,0,2,2,1,1,0,0,2203,224c2092-44e1-4b73-879c-d0ad0c4b4c87
72555372,13347301,29.3754284,-89.5490994,-0.8188956,0.75985605,-8.461181,0.002658458,0.0024949773,0.0,0.020821998,-0.031576365,-1.76988,-1.8535609,-0.025008326,-0.022564378,0.061152168,-0.5460147,-0.09461247,-0.2641675,-1.5811466,3.5881357,9.71614,1.76988,0.1944688,0.14740406,0.120121956,0.05315811,0.0,1,1,1,1,2,0,2,2,1,1,0,0,2203,224c2092-44e1-4b73-879c-d0ad0c4b4c87
72659261,13347301,29.3754284,-89.5490994,-0.8173416,0.7588302,-8.652942,0.002658458,0.0024949773,0.0,0.016395092,-0.031359028,-1.7877531,-1.8685963,-0.025008326,-0.022564378,0.061152168,0.55482984,-0.3271557,1.1617885,-1.5813061,3.5881357,9.907901,1.7877531,0.19495173,0.14739962,0.12031986,0.053158734,0.0,1,1,1,1,2,0,2,2,1,1,0,0,2203,224c2092-44e1-4b73-879c-d0ad0c4b4c87
72759296,13347301,29.3754284,-89.5490994,-0.8164036,0.7577467,-8.834767,0.002658458,0.0024949773,0.0,0.010023838,-0.03175351,-1.8067548,-1.8803065,-0.025008326,-0.022564378,0.061152168,0.3141363,-0.72329,0.5473689,-1.5820006,3.5881357,10.089726,1.8067548,0.19531107,0.14735287,0.120487355,0.053120058,0.0,1,1,1,1,2,0,2,2,1,1,0,0,2203,224c2092-44e1-4b73-879c-d0ad0c4b4c87
72859398,13347301,29.3754284,-89.5490994,-0.8158729,0.7561935,-9.0197,0.002658458,0.0024949773,0.0,0.001822931,-0.029102527,-1.8233819,-1.8924044,-0.025008326,-0.022564378,0.061152168,-0.34803534,-0.36259317,1.258256,-1.5819772,3.5881357,10.274659,1.8233819,0.19492398,0.14718834,0.12027535,0.053072557,0.0,1,1,1,1,2,0,2,2,1,1,0,0,2203,224c2092-44e1-4b73-879c-d0ad0c4b4c87
72963511,13347301,29.3754284,-89.5490994,-0.81610286,0.7543642,-9.213365,0.002658458,0.0024949773,0.0,-0.00082372746,-0.02580111,-1.8461102,-1.9100448,-0.025008326,-0.022564378,0.061152168,0.46771622,0.68966687,-0.790448,-1.5818958,3.5881357,10.468324,1.8461102,0.19522625,0.14714028,0.1203944,0.053035084,0.0,1,1,1,1,2,0,2,2,1,1,0,0,2203,224c2092-44e1-4b73-879c-d0ad0c4b4c87
73063315,13347301,29.3754284,-89.5490994,-0.81707394,0.7523437,-9.397992,0.002658458,0.0024949773,0.0,-0.005027769,-0.028326094,-1.8616505,-1.9177748,-0.025008326,-0.022564378,0.061152168,0.12662764,0.4115315,-0.46907285,-1.5820625,3.5881357,10.652951,1.8616505,0.19561951,0.14709277,0.12057457,0.052999903,0.0,1,1,1,1,2,0,2,2,1,1,0,0,2203,224c2092-44e1-4b73-879c-d0ad0c4b4c87
73167303,13347301,29.3754284,-89.5490994,-0.81830186,0.7496429,-9.590955,0.002658458,0.0024949773,0.0,-0.011248107,-0.028158318,-1.8804467,-1.9290078,-0.025008326,-0.022564378,0.061152168,-0.26020113,-0.041259397,-0.6327141,-1.5820396,3.5881357,10.845914,1.8804467,0.19598275,0.14704578,0.12073195,0.05296339,0.0,1,1,1,1,2,0,2,2,1,1,0,0,2203,224c2092-44e1-4b73-879c-d0ad0c4b4c87
73271731,13347301,29.3754284,-89.5490994,-0.81927663,0.746257,-9.791004,0.002658458,0.0024949773,0.0,-0.011483059,-0.030629108,-1.8935086,-1.9405499,-0.025008326,-0.022564378,0.061152168,-0.27218276,-0.4105452,0.32380858,-1.5817325,3.5881357,11.045963,1.8935086,0.19631666,0.14739795,0.12087495,0.05296265,0.0,1,1,1,1,2,0,2,2,1,1,0,0,2203,224c2092-44e1-4b73-879c-d0ad0c4b4c87
73371414,13347301,29.3754284,-89.5490994,-0.8203784,0.7429027,-9.988751,0.002658458,0.0024949773,0.0,-0.013150374,-0.029356495,-1.9030837,-1.9532455,-0.025008326,-0.022564378,0.061152168,-0.18294117,-0.065842465,0.2877048,-1.5813138,3.5881357,11.2437105,1.9030837,0.19596098,0.14723033,0.12068525,0.052916665,0.0,1,1,1,1,2,0,2,2,1,1,0,0,2203,224c2092-44e1-4b73-879c-d0ad0c4b4c87
73472194,13347301,29.3754284,-89.5490994,-0.8216835,0.73947835,-10.193063,0.002658458,0.0024949773,0.0,-0.0119286645,-0.032017954,-1.9104077,-1.9669002,-0.025008326,-0.022564378,0.061152168,0.108545564,-0.37884787,0.31799456,-1.5806563,3.5881357,11.448022,1.9104077,0.1963531,0.14718097,0.12085169,0.05287866,0.0,1,1,1,1,2,0,2,2,1,1,0,0,2203,224c2092-44e1-4b73-879c-d0ad0c4b4c87
73576223,13347301,29.3754284,-89.5490994,-0.82331437,0.73579085,-10.404798,0.002658458,0.0024949773,0.0,-0.012587204,-0.029640323,-1.916093,-1.9785736,-0.025008326,-0.022564378,0.061152168,0.06011407,0.34145093,0.5017623,-1.5795689,3.5881357,11.659757,1.916093,0.1967145,0.14713027,0.120978795,0.05283781,0.0,1,1,1,1,2,0,2,2,1,1,0,0,2203,224c2092-44e1-4b73-879c-d0ad0c4b4c87
73676072,13347301,29.3754284,-89.5490994,-0.8249365,0.732172,-10.605329,0.002658458,0.0024949773,0.0,-0.010376072,-0.030474128,-1.9159652,-1.9801829,-0.025008326,-0.022564378,0.061152168,0.17984553,0.13161634,1.1425117,-1.5789052,3.5881357,11.860288,1.9159652,0.19639376,0.14738072,0.120774925,0.05284178,0.0,1,1,1,1,2,0,2,2,1,1,0,0,2203,224c2092-44e1-4b73-879c-d0ad0c4b4c87
73780133,13347301,29.3754284,-89.5490994,-0.82652295,0.7280337,-10.81018,0.002658458,0.0024949773,0.0,-0.009891788,-0.03011073,-1.9166166,-1.978758,-0.025008326,-0.022564378,0.061152168,-0.022403728,0.50707847,-0.63315827,-1.5785687,3.5881357,12.065139,1.9166166,0.19674735,0.14732772,0.12088902,0.052797344,0.0,1,1,1,1,2,0,2,2,1,1,0,0,2203,224c2092-44e1-4b73-879c-d0ad0c4b4c87
73880101,13347301,29.3754284,-89.5490994,-0.8274621,0.7238445,-11.0049925,0.002658458,0.0024949773,0.0,-0.0068770987,-0.028236603,-1.9121275,-1.9705449,-0.025008326,-0.022564378,0.061152168,-0.037221186,0.37482953,-0.4452436,-1.5778211,3.5881357,12.259952,1.9121275,0.19712995,0.1472757,0.12100721,0.05275534,0.0,1,1,1,1,2,0,2,2,1,1,0,0,2203,224c2092-44e1-4b73-879c-d0ad0c4b4c87
73980075,13347301,29.3754284,-89.5490994,-0.82774216,0.72003,-11.201979,0.002658458,0.0024949773,0.0,-0.0027806484,-0.024424516,-1.9100398,-1.9679836,-0.025008326,-0.022564378,0.061152168,-0.16781843,0.75759435,0.33063713,-1.5770162,3.5881357,12.456938,1.9100398,0.1967548,0.14750317,0.1207768,0.052738924,0.0,1,1,1,1,2,0,2,2,1,1,0,0,2203,224c2092-44e1-4b73-879c-d0ad0c4b4c87
74084167,13347301,29.3754284,-89.5490994,-0.8272923,0.7162453,-11.406467,0.002658458,0.0024949773,0.0,0.0019005751,-0.021775132,-1.9130282,-1.9699318,-0.025008326,-0.022564378,0.061152168,-0.39344206,0.008800619,-0.8636632,-1.5766045,3.5881357,12.661427,1.9130282,0.19707319,0.14744636,0.12085391,0.052694768,0.0,1,1,1,1,2,0,2,2,1,1,0,0,2203,224c2092-44e1-4b73-879c-d0ad0c4b4c87
74184077,13347301,29.3754284,-89.5490994,-0.8263088,0.71272105,-11.600378,0.002658458,0.0024949773,0.0,0.006094506,-0.018223248,-1.911951,-1.9652416,-0.025008326,-0.022564378,0.061152168,-0.49327403,0.25375384,-1.0360031,-1.5761856,3.5881357,12.855337,1.911951,0.19742177,0.14738908,0.12096061,0.05265227,0.0,1,1,1,1,2,0,2,2,1,1,0,0,2203,224c2092-44e1-4b73-879c-d0ad0c4b4c87
74284212,13347301,29.3754284,-89.5490994,-0.82501346,0.7092518,-11.795093,0.002658458,0.0024949773,0.0,0.008135046,-0.016883183,-1.9128608,-1.9641452,-0.025008326,-0.022564378,0.061152168,-0.39353123,0.5600104,-1.1941634,-1.5764447,3.5881357,13.050052,1.9128608,0.19701657,0.14761323,0.12071948,0.052638598,0.0,1,1,1,1,2,0,2,2,1,1,0,0,2203,224c2092-44e1-4b73-879c-d0ad0c4b4c87
74388312,13347301,29.3754284,-89.5490994,-0.8236623,0.7053672,-11.995389,0.002658458,0.0024949773,0.0,0.008827782,-0.018916123,-1.9143677,-1.9609566,-0.025008326,-0.022564378,0.061152168,-0.040795848,-0.44259447,-0.07450744,-1.5768164,3.5881357,13.250348,1.9143677,0.19736359,0.14755258,0.12082896,0.052598212,0.0,1,1,1,1,2,0,2,2,1,1,0,0,2203,224c2092-44e1-4b73-879c-d0ad0c4b4c87
74488103,13347301,29.3754284,-89.5490994,-0.82276565,0.7014662,-12.189252,0.002658458,0.0024949773,0.0,0.0031953785,-0.019372579,-1.9147189,-1.9584962,-0.025008326,-0.022564378,0.061152168,-0.72660595,-0.24366365,0.23600918,-1.5769645,3.5881357,13.444211,1.9147189,0.19768171,0.14748745,0.12094292,0.052557044,0.0,1,1,1,1,2,0,2,2,1,1,0,0,2203,224c2092-44e1-4b73-879c-d0ad0c4b4c87
74592080,13347301,29.3754284,-89.5490994,-0.82257414,0.69712144,-12.391837,0.002658458,0.0024949773,0.0,1.0005942e-06,-0.019231258,-1.9094267,-1.9515952,-0.025008326,-0.022564378,0.061152168,0.41550663,-0.54497886,1.1729718,-1.5770056,3.5881357,13.646796,1.9094267,0.19803117,0.1478257,0.12107643,0.052550513,0.0,1,1,1,1,2,0,2,2,1,1,0,0,2203,224c2092-44e1-4b73-879c-d0ad0c4b4c87
74696088,13347301,29.3754284,-89.5490994,-0.823254,0.6929727,-12.589164,0.002658458,0.0024949773,0.0,-0.005045239,-0.015659332,-1.9102802,-1.946151,-0.025008326,-0.022564378,0.061152168,-0.15348378,0.6070929,-0.6617064,-1.5768741,3.5881357,13.844123,1.9102802,0.19835155,0.14775892,0.1211794,0.052508797,0.0,1,1,1,1,2,0,2,2,1,1,0,0,2203,224c2092-44e1-4b73-879c-d0ad0c4b4c87
74796100,13347301,29.3754284,-89.5490994,-0.82493705,0.68911546,-12.77778,0.002658458,0.0024949773,0.0,-0.01202653,-0.0114392275,-1.8916818,-1.9219753,-0.025008326,-0.022564378,0.061152168,0.00085930555,0.83704305,-0.09547662,-1.5766373,3.5881357,14.032739,1.8916818,0.1892296,0.1475724,0.116856836,0.052461386,0.0,1,1,1,1,2,0,2,2,1,1,0,0,2203,224c2092-44e1-4b73-879c-d0ad0c4b4c87
74897689,13347301,29.3754284,-89.5490994,-0.82726544,0.6851714,-12.96508,0.002658458,0.0024949773,0.0,-0.017229846,-0.009392255,-1.8090247,-1.8345208,-0.025008326,-0.022564378,0.061152168,0.73619944,0.6519013,0.9314645,-1.5761104,3.5881357,14.220039,1.8090247,0.19841468,0.1475053,0.12117258,0.052418128,0.0,1,1,1,1,2,0,2,2,1,1,0,0,2203,224c2092-44e1-4b73-879c-d0ad0c4b4c87
75001645,13347301,29.3754284,-89.5490994,-0.83018357,0.6814314,-13.144708,0.002658458,0.0024949773,0.0,-0.022046708,-0.00651591,-1.671756,-1.6923684,-0.025008326,-0.022564378,0.061152168,-0.14572218,-0.3341611,2.1329558,-1.5753349,3.5881357,14.399667,1.671756,0.18998753,0.14747931,0.11707745,0.05240571,0.0,1,1,1,1,2,0,2,2,1,1,0,0,2203,224c2092-44e1-4b73-879c-d0ad0c4b4c87
75105787,13347301,29.3754284,-89.5490994,-0.8338189,0.67819923,-13.308402,0.002658458,0.0024949773,0.0,-0.022174219,0.00082537625,-1.503285,-1.5197512,-0.025008326,-0.022564378,0.061152168,-0.66892016,0.3282178,1.4819571,-1.5739341,3.5881357,14.563361,1.503285,0.19035918,0.1474163,0.11711504,0.052345276,0.0,1,1,1,1,2,0,2,2,1,1,0,0,2203,224c2092-44e1-4b73-879c-d0ad0c4b4c87
75205909,13347301,29.3754284,-89.5490994,-0.83794606,0.6757527,-13.448497,0.002658458,0.0024949773,0.0,-0.03401515,0.0052769477,-1.323293,-1.3366053,-0.025008326,-0.022564378,0.061152168,-2.6495996,-0.09742634,2.5430841,-1.5727043,3.5881357,14.703456,1.323293,0.1900039,0.14763613,0.11685538,0.052310605,0.0,1,1,1,1,2,0,2,2,1,1,0,0,2203,224c2092-44e1-4b73-879c-d0ad0c4b4c87
75309740,13347301,29.3754284,-89.5490994,-0.8430505,0.67383224,-13.580355,0.002658458,0.0024949773,0.0,-0.022622436,0.013095187,-1.145199,-1.1601367,-0.025008326,-0.022564378,0.061152168,3.0789201,-0.10628639,0.7902621,-1.572362,3.5881357,14.835314,1.145199,0.19030325,0.14757808,0.117030874,0.0522456,0.0,1,1,1,1,2,0,2,2,1,1,0,0,2203,224c2092-44e1-4b73-879c-d0ad0c4b4c87
75409730,13347301,29.3754284,-89.5490994,-0.8480569,0.67256975,-13.68918,0.002658458,0.0024949773,0.0,-0.024789466,0.02092182,-0.97928774,-0.99506587,-0.025008326,-0.022564378,0.061152168,0.77331275,0.57287395,1.000747,-1.5725522,3.5881357,14.9441395,0.97928774,0.19056495,0.1475186,0.1173421,0.0521913,0.0,1,1,1,1,2,0,2,2,1,1,0,0,2203,224c2092-44e1-4b73-879c-d0ad0c4b4c87
75509891,13347301,29.3754284,-89.5490994,-0.85282856,0.67235607,-13.781335,0.002658458,0.0024949773,0.0,-0.029928062,0.027932428,-0.8233334,-0.8396099,-0.025008326,-0.022564378,0.061152168,-1.518126,0.30168566,1.1561091,-1.5736847,3.5881357,15.036294,0.8233334,0.19017205,0.14734142,0.1174537,0.052131724,0.0,1,1,1,1,2,0,2,2,1,1,0,0,2203,224c2092-44e1-4b73-879c-d0ad0c4b4c87
