timestamp,lat,lon,alt,delta_alt,vel_n,vel_e,vel_d,yaw,eph,epv,terrain_alt,lat_lon_reset_counter,alt_reset_counter,terrain_alt_valid,dead_reckoning,basestation,flight_number
59527276,29.375421475537227,-89.54909286070338,3.0143275,-0.0,0.012097441,0.00229223,0.01859678,-1.5725805,0.5566143,1.0728513,2.9164848,2,0,1,0,2203,224c2092-44e1-4b73-879c-d0ad0c4b4c87
59627359,29.37542146660256,-89.54909284676829,3.015027,-0.0,0.011492921,0.004032134,0.01735978,-1.5722295,0.556749,1.0728455,2.9168391,2,0,1,0,2203,224c2092-44e1-4b73-879c-d0ad0c4b4c87
59731524,29.375421460486365,-89.54909283059719,3.016335,-0.0,0.012519819,0.0037985467,0.015946986,-1.5723438,0.55687624,1.0728401,2.9186351,2,0,1,0,2203,224c2092-44e1-4b73-879c-d0ad0c4b4c87
59835294,29.37542145728783,-89.5490928174519,3.0182302,-0.0,0.011378902,0.0053758314,0.014659617,-1.572846,0.5570107,1.0728345,2.9209538,2,0,1,0,2203,224c2092-44e1-4b73-879c-d0ad0c4b4c87
59935263,29.375421455947738,-89.54909280693568,3.0191731,-0.0,0.013708469,0.0060885237,0.013723483,-1.5725425,0.55687374,1.0728126,2.9199657,2,0,1,0,2203,224c2092-44e1-4b73-879c-d0ad0c4b4c87
60035598,29.37542145157849,-89.54909279573604,3.0201902,-0.0,0.011751899,0.0037684166,0.013764683,-1.5726757,0.5570096,1.0728071,2.9214683,2,0,1,0,2203,224c2092-44e1-4b73-879c-d0ad0c4b4c87
60136840,29.37542144427766,-89.54909278190797,3.0215418,-0.0,0.013125163,0.0049441033,0.012967207,-1.5728317,0.55689204,1.07284,2.9230356,2,0,1,0,2203,224c2092-44e1-4b73-879c-d0ad0c4b4c87
60241011,29.37542143887548,-89.54909276741985,3.0235453,-0.0,0.011183229,0.0043949867,0.010735604,-1.5721881,0.5570271,1.072835,2.925399,2,0,1,0,2203,224c2092-44e1-4b73-879c-d0ad0c4b4c87
60341035,29.37542143521916,-89.54909275567339,3.0249746,-0.0,0.011717476,0.0068492754,0.010157591,-1.572725,0.55719686,1.0728353,2.925176,2,0,1,0,2203,224c2092-44e1-4b73-879c-d0ad0c4b4c87
60445360,29.375421430424307,-89.54909274124924,3.02469,-0.0,0.011921961,0.006070353,0.011811762,-1.5722342,0.5573484,1.0728302,2.9203863,2,0,1,0,2203,224c2092-44e1-4b73-879c-d0ad0c4b4c87
60548914,29.37542142611939,-89.54909272679066,3.0223117,-0.0,0.009701694,0.0030135363,0.011881299,-1.5721694,0.5574885,1.0727713,2.9147904,2,0,1,0,2203,224c2092-44e1-4b73-879c-d0ad0c4b4c87
60648937,29.375421418025763,-89.54909271485964,3.0189404,-0.0,0.011814213,0.004837518,0.013321415,-1.5719662,0.5573711,1.0728052,2.9104857,2,0,1,0,2203,224c2092-44e1-4b73-879c-d0ad0c4b4c87
60752964,29.375421411891885,-89.54909270326755,3.0163383,-0.0,0.013369108,0.00502483,0.013626965,-1.5722662,0.55751026,1.072801,2.9083838,2,0,1,0,2203,224c2092-44e1-4b73-879c-d0ad0c4b4c87
60852964,29.375421407615374,-89.54909268863673,3.0118613,-0.0,0.011782994,0.0067547127,0.014993051,-1.5722091,0.55763865,1.0727973,2.9028995,2,0,1,0,2203,224c2092-44e1-4b73-879c-d0ad0c4b4c87
60952971,29.375421405101896,-89.54909267403298,3.0060854,-0.0,0.0132795945,0.0057734433,0.016099514,-1.5720794,0.55750877,1.0727775,2.8932827,2,0,1,0,2203,224c2092-44e1-4b73-879c-d0ad0c4b4c87
61057001,29.37542140283445,-89.54909265772163,2.9979782,-0.0,0.012686664,0.0076303463,0.017575355,-1.5721835,0.55763716,1.0727748,2.8811474,2,0,1,0,2203,224c2092-44e1-4b73-879c-d0ad0c4b4c87
61158547,29.375421399676124,-89.54909264131432,2.9876091,-0.0,0.013931988,0.008252443,0.018590111,-1.5719662,0.5577757,1.0727721,2.869603,2,0,1,0,2203,224c2092-44e1-4b73-879c-d0ad0c4b4c87
61258559,29.37542139506191,-89.54909262232718,2.9787965,-0.0,0.013759791,0.009780735,0.019680496,-1.5722593,0.5576543,1.0727534,2.8637748,2,0,1,0,2203,224c2092-44e1-4b73-879c-d0ad0c4b4c87
61358584,29.375421390614942,-89.54909260097116,2.9679356,-0.0,0.013122102,0.010921601,0.0225507,-1.5720781,0.55783737,1.0727571,2.8501327,2,0,1,0,2203,224c2092-44e1-4b73-879c-d0ad0c4b4c87
61462495,29.375421387397644,-89.54909257827171,2.955276,-0.0,0.0134699615,0.011180446,0.025161663,-1.5722308,0.55796075,1.0727551,2.8372023,2,0,1,0,2203,224c2092-44e1-4b73-879c-d0ad0c4b4c87
61562548,29.37542138314633,-89.5490925538579,2.943679,-0.0,0.014613236,0.011995912,0.027688779,-1.5720875,0.55782336,1.0727367,2.8276753,2,0,1,0,2203,224c2092-44e1-4b73-879c-d0ad0c4b4c87
61666439,29.375421377803107,-89.54909252792841,2.9298184,-0.0,0.012954459,0.013827059,0.030182995,-1.5722277,0.557948,1.0727342,2.811052,2,0,1,0,2203,224c2092-44e1-4b73-879c-d0ad0c4b4c87
61766613,29.37542137235483,-89.5490924994892,2.9166102,-0.0,0.01219004,0.014515743,0.032366663,-1.5722504,0.5580614,1.0727853,2.803438,2,0,1,0,2203,224c2092-44e1-4b73-879c-d0ad0c4b4c87
61866539,29.375421366877056,-89.54909247235591,2.9040499,-0.0,0.013103774,0.015594971,0.03357496,-1.5723721,0.55793506,1.0727661,2.7914157,2,0,1,0,2203,224c2092-44e1-4b73-879c-d0ad0c4b4c87
61970609,29.375421359884445,-89.54909244533272,2.891274,-0.0,0.013119419,0.015628349,0.03693421,-1.5723443,0.55802935,1.072763,2.7818897,2,0,1,0,2203,224c2092-44e1-4b73-879c-d0ad0c4b4c87
62070514,29.37542135185621,-89.54909242141531,2.8800013,-0.0,0.012346781,0.01603764,0.03742112,-1.5723021,0.5581565,1.0727599,2.7753336,2,0,1,0,2203,224c2092-44e1-4b73-879c-d0ad0c4b4c87
62172192,29.37542134455324,-89.54909239872447,2.8686242,-0.0,0.0119266985,0.015866311,0.039771263,-1.5721964,0.5580215,1.0727941,2.7596774,2,0,1,0,2203,224c2092-44e1-4b73-879c-d0ad0c4b4c87
62272126,29.375421334855243,-89.5490923756418,2.8567235,-0.0,0.011394469,0.016880874,0.04279591,-1.5721924,0.55816936,1.0727905,2.7549577,2,0,1,0,2203,224c2092-44e1-4b73-879c-d0ad0c4b4c87
62376076,29.37542133083872,-89.54909235012198,2.8472319,-0.0,0.011262496,0.017132027,0.041723885,-1.5723599,0.55835533,1.0727923,2.751456,2,0,1,0,2203,224c2092-44e1-4b73-879c-d0ad0c4b4c87
62476066,29.375421325452606,-89.54909232701779,2.8395994,-0.0,0.010795427,0.016734537,0.042691648,-1.5723779,0.55822414,1.072772,2.7448072,2,0,1,0,2203,224c2092-44e1-4b73-879c-d0ad0c4b4c87
62580168,29.375421321357816,-89.54909230270056,2.831761,-0.0,0.010686742,0.017841017,0.043147698,-1.5723519,0.55835694,1.072768,2.739104,2,0,1,0,2203,224c2092-44e1-4b73-879c-d0ad0c4b4c87
62680189,29.375421315027747,-89.54909227963385,2.8257773,-0.0,0.008909202,0.01819771,0.043245543,-1.5723741,0.55847985,1.0727644,2.7377727,2,0,1,0,2203,224c2092-44e1-4b73-879c-d0ad0c4b4c87
62780106,29.37542130640184,-89.54909225639679,2.8196678,-0.0,0.008553961,0.018718854,0.043521762,-1.5724692,0.5583586,1.0727983,2.72848,2,0,1,0,2203,224c2092-44e1-4b73-879c-d0ad0c4b4c87
62884178,29.37542129740069,-89.54909223086898,2.812964,-0.0,0.008630476,0.018793106,0.043748327,-1.5724076,0.5585019,1.0727946,2.723294,2,0,1,0,2203,224c2092-44e1-4b73-879c-d0ad0c4b4c87
62984151,29.37542128911516,-89.54909220842418,2.808228,-0.0,0.007974634,0.019482436,0.04251061,-1.5724422,0.5586142,1.0727906,2.7224631,2,0,1,0,2203,224c2092-44e1-4b73-879c-d0ad0c4b4c87
63084038,29.37542128360148,-89.5490921833768,2.8047507,-0.0,0.008280343,0.019389955,0.040911086,-1.5724473,0.5584812,1.0728241,2.721157,2,0,1,0,2203,224c2092-44e1-4b73-879c-d0ad0c4b4c87
63188874,29.37542127933033,-89.54909215803168,2.8018382,-0.0,0.0077003418,0.019659879,0.039407473,-1.5724537,0.55863625,1.0728196,2.717258,2,0,1,0,2203,224c2092-44e1-4b73-879c-d0ad0c4b4c87
63288863,29.37542127827648,-89.54909213530455,2.7983475,-0.0,0.008331387,0.020432184,0.038943376,-1.5724804,0.5587834,1.0728179,2.7108345,2,0,1,0,2203,224c2092-44e1-4b73-879c-d0ad0c4b4c87
63389017,29.37542127370408,-89.54909211376277,2.7964826,-0.0,0.0083493255,0.019795962,0.03744733,-1.5724956,0.5586575,1.0727973,2.7112856,2,0,1,0,2203,224c2092-44e1-4b73-879c-d0ad0c4b4c87
63492987,29.37542127162747,-89.54909209392181,2.7956893,-0.0,0.009272803,0.020352695,0.034478996,-1.5723765,0.5587989,1.0727934,2.7115886,2,0,1,0,2203,224c2092-44e1-4b73-879c-d0ad0c4b4c87
63592903,29.37542126623654,-89.5490920722078,2.794854,-0.0,0.008152046,0.01978303,0.03249981,-1.5723715,0.55892926,1.0727364,2.7108278,2,0,1,0,2203,224c2092-44e1-4b73-879c-d0ad0c4b4c87
63692855,29.375421257439623,-89.5490920474649,2.7942452,-0.0,0.008538522,0.02193902,0.030939003,-1.5722841,0.55879104,1.0727711,2.7094617,2,0,1,0,2203,224c2092-44e1-4b73-879c-d0ad0c4b4c87
63796835,29.375421248952005,-89.5490920213681,2.7925181,-0.0,0.008955308,0.020901017,0.029080944,-1.5722407,0.555855,1.0727684,2.7020688,2,0,1,0,2203,224c2092-44e1-4b73-879c-d0ad0c4b4c87
63896833,29.375421235121166,-89.5490919969912,2.788913,-0.0,0.008203834,0.022450916,0.0277463,-1.5721171,0.5590646,1.0727128,2.6944764,2,0,1,0,2203,224c2092-44e1-4b73-879c-d0ad0c4b4c87
64001061,29.375421222606835,-89.549091972407,2.7854462,-0.0,0.006523746,0.021191815,0.025563441,-1.5722148,0.5560663,1.0727112,2.6921403,2,0,1,0,2203,224c2092-44e1-4b73-879c-d0ad0c4b4c87
64105039,29.375421213560127,-89.54909194733192,2.7813053,-0.0,0.0089555215,0.022134244,0.02445724,-1.5722331,0.55618656,1.0727099,2.6816266,2,0,1,0,2203,224c2092-44e1-4b73-879c-d0ad0c4b4c87
64205012,29.375421202915497,-89.54909192275079,2.776544,-0.0,0.006133629,0.022663072,0.024989553,-1.5721587,0.5560612,1.0726924,2.6789424,2,0,1,0,2203,224c2092-44e1-4b73-879c-d0ad0c4b4c87
64308910,29.3754211868124,-89.54909189794945,2.7710288,-0.0,0.0059102615,0.023229139,0.022556305,-1.5722767,0.556182,1.0726913,2.67105,2,0,1,0,2203,224c2092-44e1-4b73-879c-d0ad0c4b4c87
64408860,29.3754211694748,-89.54909187783107,2.765779,-0.0,0.0055018878,0.022357374,0.021802468,-1.5723146,0.5562939,1.0726904,2.6662815,2,0,1,0,2203,224c2092-44e1-4b73-879c-d0ad0c4b4c87
64510466,29.37542115369064,-89.54909185955746,2.7608166,-0.0,0.0035720156,0.02260459,0.022603687,-1.5722784,0.55617785,1.0727262,2.6620474,2,0,1,0,2203,224c2092-44e1-4b73-879c-d0ad0c4b4c87
64610399,29.37542113490145,-89.54909183979647,2.7564945,-0.0,0.00400585,0.021687001,0.023845505,-1.5722823,0.55628985,1.0727253,2.6610339,2,0,1,0,2203,224c2092-44e1-4b73-879c-d0ad0c4b4c87
64714543,29.3754211172342,-89.54909182175663,2.753209,-0.0,0.0032429118,0.021720603,0.02371572,-1.5722586,0.55645597,1.0727301,2.659533,2,0,1,0,2203,224c2092-44e1-4b73-879c-d0ad0c4b4c87
64814452,29.37542110042621,-89.54909180373892,2.750722,-0.0,0.0040057097,0.021309134,0.021979833,-1.5723016,0.55632657,1.0727127,2.6572242,2,0,1,0,2203,224c2092-44e1-4b73-879c-d0ad0c4b4c87
64914939,29.37542108326926,-89.54909178934493,2.7482176,-0.0,0.0030836056,0.020946875,0.02154504,-1.5723236,0.5564457,1.0727115,2.6556122,2,0,1,0,2203,224c2092-44e1-4b73-879c-d0ad0c4b4c87
65018502,29.37542107097845,-89.54909177316644,2.74621,-0.0,0.0036761526,0.021577409,0.02105043,-1.5722977,0.55657494,1.0727103,2.6539686,2,0,1,0,2203,224c2092-44e1-4b73-879c-d0ad0c4b4c87
65118625,29.375421059952696,-89.5490917589859,2.7442896,-0.0,0.0029006838,0.022178499,0.021762986,-1.5722135,0.55645543,1.0727458,2.652161,2,0,1,0,2203,224c2092-44e1-4b73-879c-d0ad0c4b4c87
65222484,29.37542104763777,-89.54909174401676,2.741496,-0.0,0.0035653282,0.020158274,0.020563481,-1.5722826,0.5565835,1.0727441,2.646575,2,0,1,0,2203,224c2092-44e1-4b73-879c-d0ad0c4b4c87
65322470,29.375421036093133,-89.54909172833347,2.738023,-0.0,0.0033196777,0.0218497,0.019512463,-1.5723611,0.55670273,1.0727421,2.6403074,2,0,1,0,2203,224c2092-44e1-4b73-879c-d0ad0c4b4c87
65422450,29.375421023897207,-89.54909171094933,2.7337198,-0.0,0.0023122872,0.02146992,0.019980635,-1.5723383,0.55659103,1.0727236,2.633206,2,0,1,0,2203,224c2092-44e1-4b73-879c-d0ad0c4b4c87
65524029,29.37542101333405,-89.54909169418771,2.7286406,-0.0,0.0032654929,0.021028688,0.021881403,-1.5724525,0.55670977,1.0727214,2.6293762,2,0,1,0,2203,224c2092-44e1-4b73-879c-d0ad0c4b4c87
65628161,29.375421005538456,-89.54909167885687,2.7256997,-0.0,0.0020220024,0.020629324,0.019320725,-1.5723941,0.5568392,1.0727727,2.6312475,2,0,1,0,2203,224c2092-44e1-4b73-879c-d0ad0c4b4c87
65728005,29.375420999428705,-89.54909166667427,2.7222776,-0.0,0.003134532,0.019929359,0.019658845,-1.5722717,0.55676055,1.0727594,2.6244395,2,0,1,0,2203,224c2092-44e1-4b73-879c-d0ad0c4b4c87
65828195,29.375420995283527,-89.54909165492901,2.7209826,-0.0,-0.0033449496,0.016806109,-0.0066845347,-1.5729883,0.55688685,1.0727569,2.6210306,2,0,1,0,2203,224c2092-44e1-4b73-879c-d0ad0c4b4c87
65932420,29.37542099254437,-89.54909164286205,2.7175288,-0.0,0.013366875,0.014543583,-0.013169591,-1.5726576,0.55700123,1.0727539,2.613474,2,0,1,0,2203,224c2092-44e1-4b73-879c-d0ad0c4b4c87
66032200,29.375421002947785,-89.54909162937291,2.71574,-0.0,0.041903883,0.02304578,-0.12256489,-1.5761204,0.55688465,1.0727887,2.5875907,2,0,1,0,2203,224c2092-44e1-4b73-879c-d0ad0c4b4c87
66136120,29.375421038938946,-89.5490916122213,2.711249,-0.0,0.05915626,0.021014923,-0.33831745,-1.5806957,0.5570204,1.0727856,2.5060682,2,0,1,0,2203,224c2092-44e1-4b73-879c-d0ad0c4b4c87
66236296,29.37542109366515,-89.54909159775471,2.7052662,-0.0,0.07216542,0.02838698,-0.59579563,-1.5849752,0.5571499,1.072782,2.4125204,2,0,1,0,2203,224c2092-44e1-4b73-879c-d0ad0c4b4c87
66336192,29.37542116331517,-89.5490915790616,2.7134423,-0.0,0.0882857,0.022057064,-0.862186,-1.5889713,0.557031,1.0728161,2.3481455,2,0,1,0,2203,224c2092-44e1-4b73-879c-d0ad0c4b4c87
66440159,29.37542124232441,-89.54909156258907,2.7404509,-0.0,0.09561161,0.020505982,-1.0531487,-1.5928087,0.55717856,1.0728121,2.3331766,2,0,1,0,2203,224c2092-44e1-4b73-879c-d0ad0c4b4c87
66541767,29.37542131816675,-89.54909155140358,2.781228,-0.0,0.097024046,0.0058190157,-1.1539612,-1.5974646,0.5573294,1.0728074,2.3331766,2,0,1,0,2203,224c2092-44e1-4b73-879c-d0ad0c4b4c87
66645769,29.375421395583952,-89.54909154962401,2.8492346,-0.0,0.088258915,0.007188041,-1.2209642,-1.6011018,0.5575533,1.0728083,2.3331766,2,0,1,0,2203,224c2092-44e1-4b73-879c-d0ad0c4b4c87
66745770,29.37542146889244,-89.54909154437266,2.941369,-0.0,0.09593483,0.008796156,-1.2647032,-1.6027917,0.5574835,1.0728412,2.3331766,2,0,1,0,2203,224c2092-44e1-4b73-879c-d0ad0c4b4c87
66849791,29.37542154635038,-89.54909153164503,3.0588326,-0.0,0.08323072,0.017440824,-1.3124473,-1.6034306,0.55766004,1.0728362,2.3331766,2,0,1,0,2203,224c2092-44e1-4b73-879c-d0ad0c4b4c87
66949684,29.37542160374391,-89.54909150897326,3.1870632,-0.0,0.07420777,0.024596905,-1.3309557,-1.6021103,0.5578054,1.0728308,2.3331766,2,0,1,0,2203,224c2092-44e1-4b73-879c-d0ad0c4b4c87
67049804,29.375421662467343,-89.54909147877109,3.3254142,-0.0,0.08556979,0.026255773,-1.3419926,-1.6001037,0.5577246,1.0728092,0.0,2,0,0,0,2203,224c2092-44e1-4b73-879c-d0ad0c4b4c87
67153790,29.37542171558276,-89.5490914453026,3.4749832,-0.0,0.06657611,0.031903483,-1.3507681,-1.5975807,0.5578879,1.072804,0.0,2,0,0,0,2203,224c2092-44e1-4b73-879c-d0ad0c4b4c87
67253669,29.375421758224004,-89.54909141567678,3.624578,-0.0,0.06488492,0.024329523,-1.369817,-1.5957825,0.55803573,1.0727985,0.0,2,0,0,0,2203,224c2092-44e1-4b73-879c-d0ad0c4b4c87
67357793,29.37542180675576,-89.5490913881535,3.7812054,-0.0,0.058780115,0.016063128,-1.3848983,-1.5942734,0.55819,1.0727935,0.0,2,0,0,0,2203,224c2092-44e1-4b73-879c-d0ad0c4b4c87
67462614,29.375421845459805,-89.54909137811892,3.9438179,-0.0,0.045677535,0.0020155385,-1.3980693,-1.5940343,0.55835044,1.0728427,0.0,2,0,0,0,2203,224c2092-44e1-4b73-879c-d0ad0c4b4c87
67563389,29.37542187231743,-89.54909137950972,4.1068983,-0.0,0.03200775,-0.0071384013,-1.4010135,-1.5941515,0.5582344,1.072821,0.0,2,0,0,0,2203,224c2092-44e1-4b73-879c-d0ad0c4b4c87
67663636,29.37542188223626,-89.5490913893573,4.2699304,-0.0,0.015996087,-0.015244574,-1.4001611,-1.5942225,0.558457,1.0728213,0.0,2,0,0,0,2203,224c2092-44e1-4b73-879c-d0ad0c4b4c87
67763451,29.37542187886888,-89.54909140520238,4.429673,-0.0,-0.0020667687,-0.019456515,-1.4021147,-1.5943002,0.558345,1.0728538,0.0,2,0,0,0,2203,224c2092-44e1-4b73-879c-d0ad0c4b4c87
67867261,29.3754218503356,-89.54909142633079,4.596688,-0.0,-0.024890725,-0.0190349,-1.4022272,-1.5940863,0.55847627,1.0728482,0.0,2,0,0,0,2203,224c2092-44e1-4b73-879c-d0ad0c4b4c87
67967304,29.37542180569333,-89.5490914491496,4.755753,-0.0,-0.040219475,-0.020198187,-1.4007398,-1.5937128,0.5585704,1.0728425,0.0,2,0,0,0,2203,224c2092-44e1-4b73-879c-d0ad0c4b4c87
68071404,29.375421745391268,-89.54909147748916,4.9192104,-0.0,-0.05701732,-0.015423969,-1.4020756,-1.5943997,0.55869347,1.0728363,0.0,2,0,0,0,2203,224c2092-44e1-4b73-879c-d0ad0c4b4c87
68175311,29.37542167626013,-89.5490915083403,5.0797153,-0.0,-0.062229637,-0.015171425,-1.4062047,-1.594651,0.55880135,1.0728844,0.0,2,0,0,0,2203,224c2092-44e1-4b73-879c-d0ad0c4b4c87
68275382,29.3754216060151,-89.54909154161071,5.236584,-0.0,-0.06967561,-0.014001168,-1.4050399,-1.5949991,0.5586566,1.0728613,0.0,2,0,0,0,2203,224c2092-44e1-4b73-879c-d0ad0c4b4c87
68379254,29.37542153507484,-89.54909157682125,5.396194,-0.0,-0.06973534,-0.013552102,-1.4058887,-1.595316,0.5587575,1.0728543,0.0,2,0,0,0,2203,224c2092-44e1-4b73-879c-d0ad0c4b4c87
68480870,29.37542146745961,-89.54909160753091,5.548985,-0.0,-0.068521164,-0.012692232,-1.4075319,-1.5960937,0.5588685,1.0728474,0.0,2,0,0,0,2203,224c2092-44e1-4b73-879c-d0ad0c4b4c87
68584938,29.37542140388449,-89.54909164179786,5.701523,-0.0,-0.06363865,-0.012099184,-1.4056711,-1.596381,0.55898625,1.0728952,0.0,2,0,0,0,2203,224c2092-44e1-4b73-879c-d0ad0c4b4c87
68684939,29.375421346951427,-89.54909167433874,5.849242,-0.0,-0.0548249,-0.010514294,-1.4045371,-1.5960628,0.55888444,1.072877,0.0,2,0,0,0,2203,224c2092-44e1-4b73-879c-d0ad0c4b4c87
68789382,29.37542129788738,-89.54909171060854,6.004298,-0.0,-0.047415413,-0.011979709,-1.4003628,-1.5959716,0.5589748,1.0728698,0.0,2,0,0,0,2203,224c2092-44e1-4b73-879c-d0ad0c4b4c87
68888856,29.375421259500136,-89.54909175561745,6.1551547,-0.0,-0.03930427,-0.013702723,-1.400292,-1.5957422,0.55907583,1.0728625,0.0,2,0,0,0,2203,224c2092-44e1-4b73-879c-d0ad0c4b4c87
68989063,29.37542122539476,-89.54909179637951,6.308277,-0.0,-0.028910732,-0.012462232,-1.403804,-1.5955323,0.5589066,1.0728395,0.0,2,0,0,0,2203,224c2092-44e1-4b73-879c-d0ad0c4b4c87
69093026,29.37542120501997,-89.54909183843644,6.4705286,-0.0,-0.02250883,-0.011259935,-1.4047647,-1.5955971,0.55900836,1.0728333,0.0,2,0,0,0,2203,224c2092-44e1-4b73-879c-d0ad0c4b4c87
69192890,29.375421186628,-89.54909187418521,6.6289363,-0.0,-0.016883852,-0.010199804,-1.4059823,-1.5956264,0.55602324,1.0728278,0.0,2,0,0,0,2203,224c2092-44e1-4b73-879c-d0ad0c4b4c87
69293036,29.375421172250945,-89.54909190247494,6.7841454,-0.0,-0.011071049,-0.007979966,-1.4070364,-1.5949689,0.5589857,1.0728059,0.0,2,0,0,0,2203,224c2092-44e1-4b73-879c-d0ad0c4b4c87
69396981,29.37542116517042,-89.54909192918565,6.942483,-0.0,-0.008619102,-0.0038799841,-1.4033282,-1.5941125,0.5559864,1.0728548,0.0,2,0,0,0,2203,224c2092-44e1-4b73-879c-d0ad0c4b4c87
69498478,29.375421155335207,-89.54909194503995,7.0988693,-0.0,-0.0068409373,-0.0019952077,-1.40312,-1.5936092,0.55609167,1.072849,0.0,2,0,0,0,2203,224c2092-44e1-4b73-879c-d0ad0c4b4c87
69602480,29.37542114888829,-89.54909195888524,7.2562714,-0.0,-0.007070933,0.004504546,-1.4053078,-1.5929286,0.5561887,1.0728432,0.0,2,0,0,0,2203,224c2092-44e1-4b73-879c-d0ad0c4b4c87
69702570,29.37542113616115,-89.54909196706215,7.4009404,-0.0,-0.009399733,0.008079948,-1.4040619,-1.5917866,0.5592183,1.0728272,0.0,2,0,0,0,2203,224c2092-44e1-4b73-879c-d0ad0c4b4c87
69806668,29.375421120096107,-89.54909196386286,7.547351,-0.0,-0.009150555,0.015813485,-1.4065799,-1.5906073,0.5561825,1.072822,0.0,2,0,0,0,2203,224c2092-44e1-4b73-879c-d0ad0c4b4c87
69906958,29.37542110443737,-89.5490919545892,7.6926165,-0.0,-0.011727375,0.02053067,-1.4052025,-1.5900152,0.559421,1.072817,0.0,2,0,0,0,2203,224c2092-44e1-4b73-879c-d0ad0c4b4c87
70010639,29.37542107870705,-89.54909193084218,7.8446727,-0.0,-0.015279871,0.028359577,-1.4093732,-1.5894778,0.5563565,1.0728117,0.0,2,0,0,0,2203,224c2092-44e1-4b73-879c-d0ad0c4b4c87
70114505,29.3754210465716,-89.54909189194765,7.997548,-0.0,-0.020983834,0.034080938,-1.4110442,-1.5888594,0.5564719,1.0728065,0.0,2,0,0,0,2203,224c2092-44e1-4b73-879c-d0ad0c4b4c87
70214565,29.375421013546337,-89.5490918440624,8.143082,-0.0,-0.025514571,0.041261688,-1.4101931,-1.5873964,0.55633914,1.0728395,0.0,2,0,0,0,2203,224c2092-44e1-4b73-879c-d0ad0c4b4c87
70318424,29.37542097582591,-89.54909178841362,8.295422,-0.0,-0.027191857,0.045551706,-1.4156343,-1.5867405,0.5564758,1.0728341,0.0,2,0,0,0,2203,224c2092-44e1-4b73-879c-d0ad0c4b4c87
70418453,29.37542093843944,-89.54909173482245,8.443716,-0.0,-0.029441655,0.047891337,-1.421355,-1.5863677,0.5566033,1.0728285,0.0,2,0,0,0,2203,224c2092-44e1-4b73-879c-d0ad0c4b4c87
70520009,29.37542089645484,-89.54909168411501,8.596177,-0.0,-0.031401236,0.047316566,-1.4337424,-1.585827,0.556482,1.0728611,0.0,2,0,0,0,2203,224c2092-44e1-4b73-879c-d0ad0c4b4c87
70620297,29.37542085457959,-89.54909163860538,8.749728,-0.0,-0.030283207,0.043628093,-1.4468966,-1.5853242,0.55659217,1.0728555,0.0,2,0,0,0,2203,224c2092-44e1-4b73-879c-d0ad0c4b4c87
70724179,29.37542081224067,-89.54909159594933,8.912621,-0.0,-0.028818758,0.04066472,-1.4657599,-1.5850595,0.5567585,1.0728555,0.0,2,0,0,0,2203,224c2092-44e1-4b73-879c-d0ad0c4b4c87
70828160,29.37542077520905,-89.54909155954361,9.082161,-0.0,-0.023615036,0.033822082,-1.4873947,-1.5853436,0.55688953,1.0728499,0.0,2,0,0,0,2203,224c2092-44e1-4b73-879c-d0ad0c4b4c87
70928199,29.375420744681183,-89.54909153136644,9.2471695,-0.0,-0.016419183,0.027955256,-1.5044322,-1.5860507,0.556747,1.0728276,0.0,2,0,0,0,2203,224c2092-44e1-4b73-879c-d0ad0c4b4c87
71032197,29.37542072352432,-89.54909150241853,9.419729,-0.0,-0.009387429,0.020177435,-1.5213848,-1.5868988,0.5568614,1.0728221,0.0,2,0,0,0,2203,224c2092-44e1-4b73-879c-d0ad0c4b4c87
71132100,29.37542071079236,-89.54909147885728,9.584901,-0.0,0.000119578195,0.015425782,-1.5366975,-1.5875559,0.55696535,1.0728163,0.0,2,0,0,0,2203,224c2092-44e1-4b73-879c-d0ad0c4b4c87
71232035,29.375420703791708,-89.54909145617997,9.750818,-0.0,0.008981481,0.010575315,-1.553615,-1.5878443,0.5568577,1.0728486,0.0,2,0,0,0,2203,224c2092-44e1-4b73-879c-d0ad0c4b4c87
71336157,29.37542070473353,-89.5490914383062,9.922297,-0.0,0.014753577,0.0009845067,-1.5686053,-1.5880593,0.55698407,1.0728425,0.0,2,0,0,0,2203,224c2092-44e1-4b73-879c-d0ad0c4b4c87
71436180,29.37542071036031,-89.54909142892488,10.086817,-0.0,0.023592094,-0.004325403,-1.5820656,-1.5881282,0.55710155,1.0728363,0.0,2,0,0,0,2203,224c2092-44e1-4b73-879c-d0ad0c4b4c87
71538138,29.37542072729534,-89.5490914258554,10.255657,-0.0,0.03142775,-0.012557363,-1.5949416,-1.5874958,0.556985,1.0728683,0.0,2,0,0,0,2203,224c2092-44e1-4b73-879c-d0ad0c4b4c87
71641646,29.375420750384613,-89.54909142597226,10.43055,-0.0,0.037947807,-0.018991888,-1.6039232,-1.5865532,0.5571051,1.0728621,0.0,2,0,0,0,2203,224c2092-44e1-4b73-879c-d0ad0c4b4c87
71741835,29.375420778339507,-89.54909143127774,10.596556,-0.0,0.04258542,-0.025846269,-1.6196053,-1.5850945,0.5572786,1.0728072,0.0,2,0,0,0,2203,224c2092-44e1-4b73-879c-d0ad0c4b4c87
71841734,29.375420813453708,-89.5490914429215,10.766157,-0.0,0.04316629,-0.03322826,-1.6330794,-1.584296,0.5571493,1.0728397,0.0,2,0,0,0,2203,224c2092-44e1-4b73-879c-d0ad0c4b4c87
71945706,29.37542085016264,-89.54909145828863,10.949587,-0.0,0.043398596,-0.034380354,-1.6519439,-1.5827863,0.5572553,1.0728338,0.0,2,0,0,0,2203,224c2092-44e1-4b73-879c-d0ad0c4b4c87
72045744,29.375420887259104,-89.54909147510253,11.129402,-0.0,0.044012673,-0.034589734,-1.6699207,-1.5815767,0.5573936,1.0728282,0.0,2,0,0,0,2203,224c2092-44e1-4b73-879c-d0ad0c4b4c87
72145646,29.375420924285887,-89.54909149537838,11.308786,-0.0,0.040632334,-0.03552024,-1.6853857,-1.5805062,0.5572938,1.0728606,0.0,2,0,0,0,2203,224c2092-44e1-4b73-879c-d0ad0c4b4c87
72249881,29.375420957483765,-89.54909151459005,11.496572,-0.0,0.03836869,-0.033713765,-1.7085447,-1.5802137,0.55741036,1.0728546,0.0,2,0,0,0,2203,224c2092-44e1-4b73-879c-d0ad0c4b4c87
72349679,29.375420987931765,-89.54909152988397,11.676204,-0.0,0.03228188,-0.03204113,-1.7275515,-1.5805391,0.55751866,1.0728489,0.0,2,0,0,0,2203,224c2092-44e1-4b73-879c-d0ad0c4b4c87
72453769,29.375421014447934,-89.5490915447959,11.864539,-0.0,0.026397629,-0.031856913,-1.7476037,-1.5807245,0.55763644,1.0728425,0.0,2,0,0,0,2203,224c2092-44e1-4b73-879c-d0ad0c4b4c87
72555372,29.375421035494902,-89.54909155818353,12.049316,-0.0,0.020821998,-0.031576365,-1.76988,-1.5811466,0.5575162,1.0728742,0.0,2,0,0,0,2203,224c2092-44e1-4b73-879c-d0ad0c4b4c87
72659261,29.37542104946994,-89.54909156877049,12.241077,-0.0,0.016395092,-0.031359028,-1.7877531,-1.5813061,0.5576849,1.0728736,0.0,2,0,0,0,2203,224c2092-44e1-4b73-879c-d0ad0c4b4c87
72759296,29.375421057905555,-89.5490915799523,12.422903,-0.0,0.010023838,-0.03175351,-1.8067548,-1.5820006,0.55781054,1.0728672,0.0,2,0,0,0,2203,224c2092-44e1-4b73-879c-d0ad0c4b4c87
72859398,29.375421062678445,-89.5490915959813,12.607836,-0.0,0.001822931,-0.029102527,-1.8233819,-1.5819772,0.5576752,1.0728446,0.0,2,0,0,0,2203,224c2092-44e1-4b73-879c-d0ad0c4b4c87
72963511,29.37542106061041,-89.5490916148602,12.8015,-0.0,-0.00082372746,-0.02580111,-1.8461102,-1.5818958,0.5577809,1.0728381,0.0,2,0,0,0,2203,224c2092-44e1-4b73-879c-d0ad0c4b4c87
73063315,29.37542105187729,-89.5490916357118,12.986128,-0.0,-0.005027769,-0.028326094,-1.8616505,-1.5820625,0.55791867,1.0728315,0.0,2,0,0,0,2203,224c2092-44e1-4b73-879c-d0ad0c4b4c87
73167303,29.37542104083437,-89.54909166358448,13.1790905,-0.0,-0.011248107,-0.028158318,-1.8804467,-1.5820396,0.5580461,1.0728251,0.0,2,0,0,0,2203,224c2092-44e1-4b73-879c-d0ad0c4b4c87
73271731,29.37542103206803,-89.54909169852743,13.37914,-0.0,-0.011483059,-0.030629108,-1.8935086,-1.5817325,0.55816346,1.0728734,0.0,2,0,0,0,2203,224c2092-44e1-4b73-879c-d0ad0c4b4c87
73371414,29.37542102215937,-89.54909173314438,13.576887,-0.0,-0.013150374,-0.029356495,-1.9030837,-1.5813138,0.5580385,1.0728503,0.0,2,0,0,0,2203,224c2092-44e1-4b73-879c-d0ad0c4b4c87
73472194,29.3754210104223,-89.54909176848409,13.7811985,-0.0,-0.0119286645,-0.032017954,-1.9104077,-1.5806563,0.5581763,1.0728436,0.0,2,0,0,0,2203,224c2092-44e1-4b73-879c-d0ad0c4b4c87
73576223,29.375420995755785,-89.54909180653961,13.992933,-0.0,-0.012587204,-0.029640323,-1.916093,-1.5795689,0.55830353,1.0728366,0.0,2,0,0,0,2203,224c2092-44e1-4b73-879c-d0ad0c4b4c87
73676072,29.37542098116753,-89.54909184388649,14.193464,-0.0,-0.010376072,-0.030474128,-1.9159652,-1.5789052,0.5581906,1.072871,0.0,2,0,0,0,2203,224c2092-44e1-4b73-879c-d0ad0c4b4c87
73780133,29.37542096690036,-89.54909188659421,14.398315,-0.0,-0.009891788,-0.03011073,-1.9166166,-1.5785687,0.5583151,1.0728637,0.0,2,0,0,0,2203,224c2092-44e1-4b73-879c-d0ad0c4b4c87
73880101,29.375420958454548,-89.54909192982724,14.593128,-0.0,-0.0068770987,-0.028236603,-1.9121275,-1.5778211,0.55845004,1.0728565,0.0,2,0,0,0,2203,224c2092-44e1-4b73-879c-d0ad0c4b4c87
73980075,29.37542095593572,-89.54909196919358,14.790114,-0.0,-0.0027806484,-0.024424516,-1.9100398,-1.5770162,0.5583177,1.0728878,0.0,2,0,0,0,2203,224c2092-44e1-4b73-879c-d0ad0c4b4c87
74084167,29.375420959981188,-89.54909200825236,14.994603,-0.0,0.0019005751,-0.021775132,-1.9130282,-1.5766045,0.55843,1.07288,0.0,2,0,0,0,2203,224c2092-44e1-4b73-879c-d0ad0c4b4c87
74184077,29.37542096882635,-89.54909204462302,15.188514,-0.0,0.006094506,-0.018223248,-1.911951,-1.5761856,0.5585531,1.0728722,0.0,2,0,0,0,2203,224c2092-44e1-4b73-879c-d0ad0c4b4c87
74284212,29.37542098047552,-89.54909208042594,15.383228,-0.0,0.008135046,-0.016883183,-1.9128608,-1.5764447,0.55841005,1.0729029,0.0,2,0,0,0,2203,224c2092-44e1-4b73-879c-d0ad0c4b4c87
74388312,29.37542099262695,-89.54909212051567,15.583525,-0.0,0.008827782,-0.018916123,-1.9143677,-1.5768164,0.55853254,1.0728947,0.0,2,0,0,0,2203,224c2092-44e1-4b73-879c-d0ad0c4b4c87
74488103,29.37542100069056,-89.54909216077456,15.777388,-0.0,0.0031953785,-0.019372579,-1.9147189,-1.5769645,0.55864507,1.0728856,0.0,2,0,0,0,2203,224c2092-44e1-4b73-879c-d0ad0c4b4c87
74592080,29.37542100241285,-89.54909220561308,15.979973,-0.0,1.0005942e-06,-0.019231258,-1.9094267,-1.5770056,0.5587688,1.0729322,0.0,2,0,0,0,2203,224c2092-44e1-4b73-879c-d0ad0c4b4c87
74696088,29.37542099629881,-89.54909224842845,16.1773,-0.0,-0.005045239,-0.015659332,-1.9102802,-1.5768741,0.5588824,1.0729231,0.0,2,0,0,0,2203,224c2092-44e1-4b73-879c-d0ad0c4b4c87
74796100,29.375420981162723,-89.54909228823584,16.365915,-0.0,-0.01202653,-0.0114392275,-1.8916818,-1.5766373,0.55571043,1.0728973,0.0,2,0,0,0,2203,224c2092-44e1-4b73-879c-d0ad0c4b4c87
74897689,29.37542096022296,-89.54909232893885,16.553215,-0.0,-0.017229846,-0.009392255,-1.8090247,-1.5761104,0.5589048,1.0728881,0.0,2,0,0,0,2203,224c2092-44e1-4b73-879c-d0ad0c4b4c87
75001645,29.37542093397964,-89.54909236753629,16.732843,-0.0,-0.022046708,-0.00651591,-1.671756,-1.5753349,0.55596894,1.0728846,0.0,2,0,0,0,2203,224c2092-44e1-4b73-879c-d0ad0c4b4c87
75105787,29.375420901286176,-89.54909240089283,16.896538,-0.0,-0.022174219,0.00082537625,-1.503285,-1.5739341,0.5560961,1.0728759,0.0,2,0,0,0,2203,224c2092-44e1-4b73-879c-d0ad0c4b4c87
75205909,29.37542086416987,-89.54909242614137,17.036633,-0.0,-0.03401515,0.0052769477,-1.323293,-1.5727043,0.55597454,1.0729061,0.0,2,0,0,0,2203,224c2092-44e1-4b73-879c-d0ad0c4b4c87
75309740,29.375420818264704,-89.5490924459608,17.168491,-0.0,-0.022622436,0.013095187,-1.145199,-1.572362,0.55607694,1.0728981,0.0,2,0,0,0,2203,224c2092-44e1-4b73-879c-d0ad0c4b4c87
75409730,29.375420773240773,-89.54909245898983,17.277317,-0.0,-0.024789466,0.02092182,-0.97928774,-1.5725522,0.5561665,1.0728899,0.0,2,0,0,0,2203,224c2092-44e1-4b73-879c-d0ad0c4b4c87
75509891,29.37542073032829,-89.54909246119507,17.36947,-0.0,-0.029928062,0.027932428,-0.8233334,-1.5736847,0.55603206,1.0728656,0.0,2,0,0,0,2203,224c2092-44e1-4b73-879c-d0ad0c4b4c87
75613732,29.37542068455552,-89.54909245600031,17.44701,-0.0,-0.02499415,0.032679856,-0.669518,-1.5747892,0.5561218,1.0728576,0.0,2,0,0,0,2203,224c2092-44e1-4b73-879c-d0ad0c4b4c87
75713785,29.37542064500453,-89.54909245413218,17.502262,-0.0,-0.016493084,0.03508861,-0.54816836,-1.5758401,0.55624413,1.0728505,0.0,2,0,0,0,2203,224c2092-44e1-4b73-879c-d0ad0c4b4c87
75815756,29.375420613331688,-89.54909244614228,17.547249,-0.0,-0.009193118,0.035669375,-0.43971372,-1.5768406,0.55612147,1.0728269,0.0,2,0,0,0,2203,224c2092-44e1-4b73-879c-d0ad0c4b4c87
75915407,29.37542059026332,-89.54909243952473,17.586685,-0.0,0.0020541702,0.035905126,-0.35677603,-1.5763422,0.5562107,1.0728203,0.0,2,0,0,0,2203,224c2092-44e1-4b73-879c-d0ad0c4b4c87
76019412,29.37542056983172,-89.54909243166341,17.620861,-0.0,0.0085104555,0.03822699,-0.2808389,-1.5751044,0.5563583,1.0728198,0.0,2,0,0,0,2203,224c2092-44e1-4b73-879c-d0ad0c4b4c87
76119294,29.3754205611774,-89.54909242394848,17.647757,-0.0,0.015147016,0.03346253,-0.21649364,-1.5735232,0.55623513,1.0727974,0.0,2,0,0,0,2203,224c2092-44e1-4b73-879c-d0ad0c4b4c87
76223326,29.375420561272808,-89.54909242292734,17.67239,-0.0,0.023324782,0.033230014,-0.16151883,-1.5709512,0.55634445,1.0728458,0.0,2,0,0,0,2203,224c2092-44e1-4b73-879c-d0ad0c4b4c87
76323270,29.375420579080505,-89.54909240406752,17.690742,-0.0,0.097371444,0.07185403,-0.17220885,-1.570586,0.55646694,1.0728397,0.0,2,0,0,0,2203,224c2092-44e1-4b73-879c-d0ad0c4b4c87
76423332,29.37542068615291,-89.54909232894687,17.712292,-0.0,0.17832524,0.11528843,-0.2905797,-1.5684254,0.556341,1.072817,0.0,2,0,0,0,2203,224c2092-44e1-4b73-879c-d0ad0c4b4c87
76527493,29.37542087896933,-89.54909220224341,17.760191,-0.0,0.29724702,0.18019667,-0.6619967,-1.5671237,0.5564671,1.0728108,0.0,2,0,0,0,2203,224c2092-44e1-4b73-879c-d0ad0c4b4c87
76627373,29.375421206855915,-89.5490919892941,17.85466,-0.0,0.46108022,0.27737033,-1.1100807,-1.5691609,0.5566014,1.0728587,0.0,2,0,0,0,2203,224c2092-44e1-4b73-879c-d0ad0c4b4c87
76727352,29.37542167570051,-89.5490916714962,17.987146,-0.0,0.5913422,0.35920373,-1.4147036,-1.571249,0.55648035,1.0728354,0.0,2,0,0,0,2203,224c2092-44e1-4b73-879c-d0ad0c4b4c87
76828896,29.37542224114817,-89.54909126485107,18.155025,-0.0,0.6777582,0.4199044,-1.6035917,-1.5730828,0.55657876,1.0728825,0.0,2,0,0,0,2203,224c2092-44e1-4b73-879c-d0ad0c4b4c87
76932952,29.37542287684728,-89.54909078387017,18.344765,-0.0,0.72513294,0.4589056,-1.7253655,-1.5747563,0.5566646,1.0728743,0.0,2,0,0,0,2203,224c2092-44e1-4b73-879c-d0ad0c4b4c87
77032926,29.375423516737666,-89.54909028191094,18.539402,-0.0,0.7427254,0.4778295,-1.7983171,-1.5759026,0.55656826,1.0729101,0.0,2,0,0,0,2203,224c2092-44e1-4b73-879c-d0ad0c4b4c87
77136950,29.37542417507229,-89.54908974109223,18.74739,-0.0,0.73166597,0.47681063,-1.8513142,-1.5767272,0.5566779,1.0729558,0.0,2,0,0,0,2203,224c2092-44e1-4b73-879c-d0ad0c4b4c87
77236941,29.37542478266212,-89.54908922194693,18.948277,-0.0,0.6991825,0.4586732,-1.8774836,-1.5781609,0.55680484,1.0729455,0.0,2,0,0,0,2203,224c2092-44e1-4b73-879c-d0ad0c4b4c87
77336942,29.37542535359181,-89.54908872669564,19.14809,-0.0,0.6495866,0.42171127,-1.8964827,-1.58021,0.55668664,1.0729742,0.0,2,0,0,0,2203,224c2092-44e1-4b73-879c-d0ad0c4b4c87
77441033,29.37542588735804,-89.54908824858369,19.354244,-0.0,0.58778876,0.37176958,-1.9071735,-1.5820787,0.55682516,1.0729624,0.0,2,0,0,0,2203,224c2092-44e1-4b73-879c-d0ad0c4b4c87
77540891,29.375426332900133,-89.54908784413331,19.551117,-0.0,0.518407,0.3146322,-1.9131216,-1.5834562,0.5569781,1.0730062,0.0,2,0,0,0,2203,224c2092-44e1-4b73-879c-d0ad0c4b4c87
77641028,29.375426717226624,-89.54908750976692,19.75272,-0.0,0.44442278,0.2528818,-1.9174137,-1.5845817,0.55687803,1.0730332,0.0,2,0,0,0,2203,224c2092-44e1-4b73-879c-d0ad0c4b4c87
77745103,29.37542704222852,-89.54908723391766,19.96371,-0.0,0.3644566,0.18505406,-1.9172034,-1.5855179,0.55701464,1.0730196,0.0,2,0,0,0,2203,224c2092-44e1-4b73-879c-d0ad0c4b4c87
77845803,29.37542728125236,-89.54908703668546,20.167595,-0.0,0.28680626,0.12278449,-1.915673,-1.5855963,0.55716276,1.0730058,0.0,2,0,0,0,2203,224c2092-44e1-4b73-879c-d0ad0c4b4c87
77945901,29.37542745737636,-89.54908691189443,20.368828,-0.0,0.21174544,0.06595921,-1.9162477,-1.5857098,0.55703396,1.0730319,0.0,2,0,0,0,2203,224c2092-44e1-4b73-879c-d0ad0c4b4c87
78049679,29.37542757229059,-89.54908684555163,20.574871,-0.0,0.13767037,0.014789917,-1.9147446,-1.5863854,0.55720484,1.0730203,0.0,2,0,0,0,2203,224c2092-44e1-4b73-879c-d0ad0c4b4c87
78150120,29.375427625202576,-89.5490868392441,20.768555,-0.0,0.075147405,-0.028351294,-1.9128405,-1.5868267,0.55734175,1.0730624,0.0,2,0,0,0,2203,224c2092-44e1-4b73-879c-d0ad0c4b4c87
78249716,29.3754276340618,-89.5490868830855,20.959713,-0.0,0.020185411,-0.061886862,-1.9104941,-1.5861596,0.55723757,1.0730308,0.0,2,0,0,0,2203,224c2092-44e1-4b73-879c-d0ad0c4b4c87
78353720,29.37542759941812,-89.54908696927478,21.16129,-0.0,-0.028543726,-0.088341594,-1.9119759,-1.58536,0.5573715,1.0730721,0.0,2,0,0,0,2203,224c2092-44e1-4b73-879c-d0ad0c4b4c87
78453645,29.375427532288008,-89.54908708807076,21.354023,-0.0,-0.06492197,-0.10797426,-1.9115397,-1.583682,0.5575354,1.0730555,0.0,2,0,0,0,2203,224c2092-44e1-4b73-879c-d0ad0c4b4c87
78557727,29.37542743770683,-89.54908723408985,21.553871,-0.0,-0.09251519,-0.12073638,-1.9117126,-1.5813031,0.5576865,1.0730958,0.0,2,0,0,0,2203,224c2092-44e1-4b73-879c-d0ad0c4b4c87
78661692,29.375427328441305,-89.54908739059442,21.754864,-0.0,-0.11086482,-0.12317327,-1.9075937,-1.5790466,0.557827,1.0730784,0.0,2,0,0,0,2203,224c2092-44e1-4b73-879c-d0ad0c4b4c87
78761662,29.37542721665031,-89.54908754535816,21.948086,-0.0,-0.11673392,-0.12202425,-1.9079466,-1.577121,0.55772126,1.0731014,0.0,2,0,0,0,2203,224c2092-44e1-4b73-879c-d0ad0c4b4c87
78866124,29.37542710172456,-89.54908770542187,22.148792,-0.0,-0.11722883,-0.1107047,-1.9070623,-1.5756322,0.5578567,1.0731401,0.0,2,0,0,0,2203,224c2092-44e1-4b73-879c-d0ad0c4b4c87
78965813,29.375427001733087,-89.54908785687623,22.343372,-0.0,-0.11129334,-0.10123304,-1.9060135,-1.5744594,0.5579598,1.0731785,0.0,2,0,0,0,2203,224c2092-44e1-4b73-879c-d0ad0c4b4c87
79065649,29.375426912616746,-89.54908799854759,22.538372,-0.0,-0.10123925,-0.09147131,-1.9067667,-1.5735779,0.5578406,1.0731419,0.0,2,0,0,0,2203,224c2092-44e1-4b73-879c-d0ad0c4b4c87
79167268,29.375426832065195,-89.54908813211895,22.736557,-0.0,-0.091643326,-0.07642521,-1.9120835,-1.5725757,0.55798364,1.07318,0.0,2,0,0,0,2203,224c2092-44e1-4b73-879c-d0ad0c4b4c87
79271363,29.37542676177274,-89.5490882552159,22.937813,-0.0,-0.08293468,-0.06131671,-1.9185512,-1.5715132,0.5581116,1.073217,0.0,2,0,0,0,2203,224c2092-44e1-4b73-879c-d0ad0c4b4c87
79375411,29.375426702984583,-89.54908836196891,23.135738,-0.0,-0.07587556,-0.04687005,-1.9221919,-1.5703547,0.55829704,1.0732012,0.0,2,0,0,0,2203,224c2092-44e1-4b73-879c-d0ad0c4b4c87
79475312,29.37542664945576,-89.54908844560295,23.329025,-0.0,-0.07014032,-0.031948045,-1.9267095,-1.5696336,0.55816495,1.0732216,0.0,2,0,0,0,2203,224c2092-44e1-4b73-879c-d0ad0c4b4c87
79579342,29.37542659823832,-89.5490885145022,23.530209,-0.0,-0.069555074,-0.011161768,-1.9306234,-1.5680627,0.55827576,1.0731999,0.0,2,0,0,0,2203,224c2092-44e1-4b73-879c-d0ad0c4b4c87
79679255,29.375426553508145,-89.54908856441124,23.724365,-0.0,-0.06362744,0.0036419658,-1.9359988,-1.5679187,0.5583968,1.0731784,0.0,2,0,0,0,2203,224c2092-44e1-4b73-879c-d0ad0c4b4c87
79779387,29.375426509945587,-89.54908859813747,23.919147,-0.0,-0.057377134,0.019038375,-1.9364613,-1.5684329,0.5582721,1.073199,0.0,2,0,0,0,2203,224c2092-44e1-4b73-879c-d0ad0c4b4c87
79883412,29.37542646612507,-89.54908861331762,24.122318,-0.0,-0.054337673,0.034419384,-1.9351103,-1.5696942,0.5583921,1.0731777,0.0,2,0,0,0,2203,224c2092-44e1-4b73-879c-d0ad0c4b4c87
79983405,29.37542643301657,-89.54908861028011,24.317368,-0.0,-0.048316065,0.045753304,-1.9302117,-1.5719867,0.55847716,1.0731561,0.0,2,0,0,0,2203,224c2092-44e1-4b73-879c-d0ad0c4b4c87
80083360,29.375426408943536,-89.54908859597593,24.512032,-0.0,-0.038854033,0.051047366,-1.9309653,-1.5744325,0.5583407,1.073177,0.0,2,0,0,0,2203,224c2092-44e1-4b73-879c-d0ad0c4b4c87
80185022,29.37542639054673,-89.54908857893442,24.713314,-0.0,-0.028063485,0.053482883,-1.9362137,-1.5774381,0.5584686,1.0731558,0.0,2,0,0,0,2203,224c2092-44e1-4b73-879c-d0ad0c4b4c87
80289003,29.37542637780324,-89.5490885565167,24.915726,-0.0,-0.0170479,0.051895708,-1.9318644,-1.5796717,0.5586316,1.0731953,0.0,2,0,0,0,2203,224c2092-44e1-4b73-879c-d0ad0c4b4c87
80392932,29.37542636746684,-89.54908853170244,25.118149,-0.0,-0.012047243,0.05236239,-1.9373755,-1.5819697,0.5587818,1.0731765,0.0,2,0,0,0,2203,224c2092-44e1-4b73-879c-d0ad0c4b4c87
80492978,29.37542636487241,-89.54908850638009,25.313435,-0.0,-0.0059083607,0.048347615,-1.937284,-1.5834719,0.55863583,1.0731968,0.0,2,0,0,0,2203,224c2092-44e1-4b73-879c-d0ad0c4b4c87
80596916,29.375426361917896,-89.54908848838636,25.518764,-0.0,-0.004611749,0.04601232,-1.9355954,-1.5841424,0.5587574,1.0731745,0.0,2,0,0,0,2203,224c2092-44e1-4b73-879c-d0ad0c4b4c87
80697003,29.3754263637218,-89.54908847122306,25.71362,-0.0,-0.0015611519,0.042016186,-1.9339362,-1.5845433,0.5588686,1.0732105,0.0,2,0,0,0,2203,224c2092-44e1-4b73-879c-d0ad0c4b4c87
80800894,29.3754263648854,-89.5490884525736,25.913029,-0.0,0.0043743835,0.038391955,-1.9291843,-1.5850868,0.5589911,1.0731875,0.0,2,0,0,0,2203,224c2092-44e1-4b73-879c-d0ad0c4b4c87
80905033,29.375426365068183,-89.54908843852286,26.11333,-0.0,0.003703697,0.036577072,-1.9285314,-1.5849557,0.55910254,1.0732229,0.0,2,0,0,0,2203,224c2092-44e1-4b73-879c-d0ad0c4b4c87
81005024,29.37542636247618,-89.54908842718851,26.30753,-0.0,0.0033678026,0.036325876,-1.9306726,-1.5845715,0.55894476,1.0732416,0.0,2,0,0,0,2203,224c2092-44e1-4b73-879c-d0ad0c4b4c87
81108906,29.37542635308561,-89.54908841651726,26.509232,-0.0,-0.003663338,0.03562546,-1.9334664,-1.583721,0.55598944,1.0732173,0.0,2,0,0,0,2203,224c2092-44e1-4b73-879c-d0ad0c4b4c87
81210672,29.375426337455693,-89.54908840170499,26.715828,-0.0,-0.006701041,0.035006918,-1.9382426,-1.5816786,0.5560923,1.0732522,0.0,2,0,0,0,2203,224c2092-44e1-4b73-879c-d0ad0c4b4c87
81314644,29.37542631971326,-89.54908838133687,26.92778,-0.0,-0.007295143,0.03834753,-1.9380695,-1.5794518,0.55624914,1.073233,0.0,2,0,0,0,2203,224c2092-44e1-4b73-879c-d0ad0c4b4c87
81414490,29.375426299169217,-89.54908836045082,27.13057,-0.0,-0.0134346,0.03802336,-1.9338788,-1.5775738,0.5561326,1.0732509,0.0,2,0,0,0,2203,224c2092-44e1-4b73-879c-d0ad0c4b4c87
81518496,29.375426274879747,-89.54908834008148,27.339485,-0.0,-0.012961587,0.038056456,-1.9260107,-1.5759103,0.5562442,1.0732265,0.0,2,0,0,0,2203,224c2092-44e1-4b73-879c-d0ad0c4b4c87
81618459,29.3754262500316,-89.54908831801315,27.54092,-0.0,-0.010884007,0.036225133,-1.9195656,-1.5754745,0.5563442,1.0732609,0.0,2,0,0,0,2203,224c2092-44e1-4b73-879c-d0ad0c4b4c87
81718461,29.37542622726193,-89.54908829705082,27.743324,-0.0,-0.008693125,0.032040387,-1.9189925,-1.5754377,0.5562186,1.0732204,0.0,2,0,0,0,2203,224c2092-44e1-4b73-879c-d0ad0c4b4c87
81822482,29.3754262092232,-89.54908827159682,27.950516,-0.0,-0.0044366154,0.0316561,-1.9189346,-1.5756658,0.55633926,1.0731966,0.0,2,0,0,0,2203,224c2092-44e1-4b73-879c-d0ad0c4b4c87
81922818,29.375426197387487,-89.54908824931442,28.147644,-0.0,0.0047335164,0.026846245,-1.9199492,-1.5756541,0.5564316,1.073232,0.0,2,0,0,0,2203,224c2092-44e1-4b73-879c-d0ad0c4b4c87
82022551,29.37542619865241,-89.54908823841068,28.344585,-0.0,0.015675375,0.016080923,-1.9229769,-1.5756646,0.5563168,1.0731926,0.0,2,0,0,0,2203,224c2092-44e1-4b73-879c-d0ad0c4b4c87
82127378,29.37542621128118,-89.54908823579883,28.552212,-0.0,0.033328332,0.0035741148,-1.9217829,-1.5764159,0.5564291,1.0732285,0.0,2,0,0,0,2203,224c2092-44e1-4b73-879c-d0ad0c4b4c87
82227358,29.375426234762163,-89.54908824332676,28.7524,-0.0,0.043663356,-0.00878427,-1.9204639,-1.5774544,0.55653363,1.0732056,0.0,2,0,0,0,2203,224c2092-44e1-4b73-879c-d0ad0c4b4c87
82327453,29.37542626933364,-89.5490882645659,28.95259,-0.0,0.05388778,-0.022329615,-1.9235797,-1.5786208,0.5564323,1.0731692,0.0,2,0,0,0,2203,224c2092-44e1-4b73-879c-d0ad0c4b4c87
82431455,29.375426315960585,-89.549088300279,29.159252,-0.0,0.060963582,-0.03840172,-1.9344536,-1.5801396,0.5565556,1.0732052,0.0,2,0,0,0,2203,224c2092-44e1-4b73-879c-d0ad0c4b4c87
82531286,29.37542636307667,-89.54908834609127,29.358826,-0.0,0.06633008,-0.04714007,-1.9369018,-1.5817492,0.55666995,1.0731823,0.0,2,0,0,0,2203,224c2092-44e1-4b73-879c-d0ad0c4b4c87
82631347,29.37542641927537,-89.54908840455793,29.555908,-0.0,0.0743147,-0.059051145,-1.940251,-1.5827647,0.5565552,1.0732018,0.0,2,0,0,0,2203,224c2092-44e1-4b73-879c-d0ad0c4b4c87
82735417,29.37542647858792,-89.54908846948099,29.761768,-0.0,0.071798794,-0.05834911,-1.9461986,-1.5832702,0.55667084,1.073179,0.0,2,0,0,0,2203,224c2092-44e1-4b73-879c-d0ad0c4b4c87
82835378,29.37542653775936,-89.54908853244673,29.954079,-0.0,0.07511123,-0.06218306,-1.9425638,-1.5841696,0.5567776,1.0731567,0.0,2,0,0,0,2203,224c2092-44e1-4b73-879c-d0ad0c4b4c87
82939438,29.37542660347541,-89.54908859481701,30.152447,-0.0,0.07747167,-0.056436166,-1.9396147,-1.5840131,0.55689573,1.0731925,0.0,2,0,0,0,2203,224c2092-44e1-4b73-879c-d0ad0c4b4c87
83043383,29.3754266683192,-89.5490886474166,30.345242,-0.0,0.074753545,-0.046023373,-1.9412636,-1.5832791,0.55702454,1.0731703,0.0,2,0,0,0,2203,224c2092-44e1-4b73-879c-d0ad0c4b4c87
83143469,29.375426725630582,-89.54908868979521,30.530724,-0.0,0.07350537,-0.03930472,-1.9402726,-1.5830793,0.5569009,1.0731902,0.0,2,0,0,0,2203,224c2092-44e1-4b73-879c-d0ad0c4b4c87
83247366,29.375426781192743,-89.54908872583064,30.723396,-0.0,0.07172342,-0.030937243,-1.9385355,-1.5834156,0.5570293,1.0731678,0.0,2,0,0,0,2203,224c2092-44e1-4b73-879c-d0ad0c4b4c87
83347368,29.3754268318432,-89.54908875111607,30.910587,-0.0,0.068184465,-0.02191712,-1.9431614,-1.5829891,0.5571487,1.0732039,0.0,2,0,0,0,2203,224c2092-44e1-4b73-879c-d0ad0c4b4c87
83448985,29.375426881014445,-89.54908877172286,31.101624,-0.0,0.05932583,-0.0130986,-1.9494804,-1.5813944,0.55725926,1.0731816,0.0,2,0,0,0,2203,224c2092-44e1-4b73-879c-d0ad0c4b4c87
83549306,29.375426920065443,-89.54908878433544,31.289051,-0.0,0.050495416,-0.0068692216,-1.9573469,-1.5791141,0.55713695,1.0732015,0.0,2,0,0,0,2203,224c2092-44e1-4b73-879c-d0ad0c4b4c87
83653375,29.37542695247065,-89.54908879122118,31.489777,-0.0,0.047897357,-0.0012815369,-1.9579118,-1.5766203,0.55718064,1.0731705,0.0,2,0,0,0,2203,224c2092-44e1-4b73-879c-d0ad0c4b4c87
83752987,29.375426975617685,-89.54908878755994,31.683693,-0.0,0.040052995,0.006399734,-1.9556496,-1.574535,0.5573094,1.0732057,0.0,2,0,0,0,2203,224c2092-44e1-4b73-879c-d0ad0c4b4c87
83853061,29.37542698966548,-89.54908877399636,31.880249,-0.0,0.034889366,0.011241,-1.9516649,-1.5733011,0.55720305,1.0732254,0.0,2,0,0,0,2203,224c2092-44e1-4b73-879c-d0ad0c4b4c87
83956857,29.37542699939523,-89.54908875533337,32.082775,-0.0,0.024669115,0.018501958,-1.9476635,-1.5730792,0.5573116,1.0732019,0.0,2,0,0,0,2203,224c2092-44e1-4b73-879c-d0ad0c4b4c87
84056892,29.37542700221814,-89.54908873034566,32.275158,-0.0,0.020515436,0.024189964,-1.9401834,-1.5741235,0.55743134,1.0732365,0.0,2,0,0,0,2203,224c2092-44e1-4b73-879c-d0ad0c4b4c87
84161021,29.37542699829635,-89.54908869812648,32.475178,-0.0,0.01250602,0.02673845,-1.9317119,-1.5752321,0.5575615,1.07327,0.0,2,0,0,0,2203,224c2092-44e1-4b73-879c-d0ad0c4b4c87
84264956,29.375426987356363,-89.549088662593,32.674324,-0.0,0.004383703,0.030631749,-1.9325416,-1.576841,0.557682,1.0732442,0.0,2,0,0,0,2203,224c2092-44e1-4b73-879c-d0ad0c4b4c87
84369000,29.375426965860857,-89.54908862369108,32.873783,-0.0,-0.0023802887,0.03393279,-1.9294244,-1.5782088,0.5578131,1.0732774,0.0,2,0,0,0,2203,224c2092-44e1-4b73-879c-d0ad0c4b4c87
84470416,29.375426934692943,-89.54908858182547,33.068157,-0.0,-0.0062261075,0.035638668,-1.9356964,-1.579827,0.55795467,1.07331,0.0,2,0,0,0,2203,224c2092-44e1-4b73-879c-d0ad0c4b4c87
84570704,29.37542690233371,-89.54908854445891,33.254337,-0.0,-0.010688951,0.03400778,-1.9395112,-1.5809907,0.55783516,1.073326,0.0,2,0,0,0,2203,224c2092-44e1-4b73-879c-d0ad0c4b4c87
84674638,29.375426866662423,-89.54908850660148,33.447334,-0.0,-0.013356268,0.031798545,-1.939983,-1.5819688,0.55788827,1.0733496,0.0,2,0,0,0,2203,224c2092-44e1-4b73-879c-d0ad0c4b4c87
84774660,29.375426831574213,-89.54908847287894,33.63592,-0.0,-0.008442703,0.027936134,-1.9472954,-1.5825024,0.5580241,1.0733211,0.0,2,0,0,0,2203,224c2092-44e1-4b73-879c-d0ad0c4b4c87
84878490,29.37542679963268,-89.54908844253836,33.831863,-0.0,-0.006168128,0.022659091,-1.9544076,-1.5824906,0.55815154,1.0732934,0.0,2,0,0,0,2203,224c2092-44e1-4b73-879c-d0ad0c4b4c87
84982625,29.375426772105683,-89.54908841926068,34.02817,-0.0,0.0034272224,0.014787076,-1.9526713,-1.5816191,0.5582488,1.0732661,0.0,2,0,0,0,2203,224c2092-44e1-4b73-879c-d0ad0c4b4c87
85082424,29.37542675389125,-89.54908840416668,34.21895,-0.0,0.009598645,0.011141238,-1.9507979,-1.5803034,0.55812603,1.0732826,0.0,2,0,0,0,2203,224c2092-44e1-4b73-879c-d0ad0c4b4c87
85186719,29.37542674276969,-89.54908839195271,34.41851,-0.0,0.012682589,0.008815972,-1.9526963,-1.5782528,0.5582663,1.0733151,0.0,2,0,0,0,2203,224c2092-44e1-4b73-879c-d0ad0c4b4c87
85286544,29.375426735380945,-89.54908837953204,34.610874,-0.0,0.016679522,0.009639645,-1.9528308,-1.576159,0.5583955,1.0732872,0.0,2,0,0,0,2203,224c2092-44e1-4b73-879c-d0ad0c4b4c87
85386627,29.375426733889825,-89.54908836298017,34.80223,-0.0,0.02062162,0.012348155,-1.9495891,-1.5741442,0.5582817,1.0733033,0.0,2,0,0,0,2203,224c2092-44e1-4b73-879c-d0ad0c4b4c87
85488213,29.37542672983269,-89.5490883428655,34.99577,-0.0,0.020685453,0.014057747,-1.9474739,-1.5722827,0.5584098,1.0732763,0.0,2,0,0,0,2203,224c2092-44e1-4b73-879c-d0ad0c4b4c87
85592216,29.3754267251382,-89.54908832559516,35.195168,-0.0,0.018002834,0.01781476,-1.9517251,-1.5712377,0.5585746,1.0732529,0.0,2,0,0,0,2203,224c2092-44e1-4b73-879c-d0ad0c4b4c87
85696270,29.37542671424713,-89.54908829839665,35.39038,-0.0,0.008218928,0.023778081,-1.9588816,-1.5698832,0.55874604,1.0732893,0.0,2,0,0,0,2203,224c2092-44e1-4b73-879c-d0ad0c4b4c87
85796173,29.37542669813357,-89.54908826111377,35.58133,-0.0,-0.0036981318,0.031716887,-1.9672894,-1.56986,0.5586234,1.073247,0.0,2,0,0,0,2203,224c2092-44e1-4b73-879c-d0ad0c4b4c87
85900133,29.37542666592013,-89.54908821422133,35.77876,-0.0,-0.0153177595,0.03754917,-1.9635222,-1.5710368,0.5587473,1.073221,0.0,2,0,0,0,2203,224c2092-44e1-4b73-879c-d0ad0c4b4c87
86000098,29.375426621195704,-89.54908816782715,35.969078,-0.0,-0.029544685,0.041492492,-1.9656888,-1.5720797,0.5588616,1.0732548,0.0,2,0,0,0,2203,224c2092-44e1-4b73-879c-d0ad0c4b4c87
86100165,29.37542656386664,-89.54908811946457,36.161026,-0.0,-0.03788913,0.044571623,-1.9669147,-1.5727462,0.55872995,1.0732726,0.0,2,0,0,0,2203,224c2092-44e1-4b73-879c-d0ad0c4b4c87
86204542,29.375426496406583,-89.5490880674186,36.360638,-0.0,-0.044739448,0.04235775,-1.9647502,-1.5724971,0.55886614,1.0732473,0.0,2,0,0,0,2203,224c2092-44e1-4b73-879c-d0ad0c4b4c87
86304199,29.37542642661249,-89.54908802258316,36.549355,-0.0,-0.050302323,0.03677984,-1.965942,-1.5723096,0.5559134,1.0732222,0.0,2,0,0,0,2203,224c2092-44e1-4b73-879c-d0ad0c4b4c87
86404261,29.375426356760645,-89.54908798864533,36.741116,-0.0,-0.051492345,0.028669199,-1.9700572,-1.5717338,0.55887204,1.07324,0.0,2,0,0,0,2203,224c2092-44e1-4b73-879c-d0ad0c4b4c87
86509613,29.37542627768118,-89.5490879595301,36.947094,-0.0,-0.04902795,0.018354764,-1.9738214,-1.5718414,0.5559352,1.0732152,0.0,2,0,0,0,2203,224c2092-44e1-4b73-879c-d0ad0c4b4c87
86609777,29.375426204947868,-89.5490879420248,37.14165,-0.0,-0.04633961,0.01019563,-1.9769573,-1.5717435,0.55611104,1.0732552,0.0,2,0,0,0,2203,224c2092-44e1-4b73-879c-d0ad0c4b4c87
86710148,29.375426140339545,-89.54908793644313,37.33876,-0.0,-0.04219606,0.0003919808,-1.9790105,-1.5716629,0.5559937,1.0732731,0.0,2,0,0,0,2203,224c2092-44e1-4b73-879c-d0ad0c4b4c87
86814111,29.37542607863091,-89.54908794244064,37.542736,-0.0,-0.034058753,-0.007938336,-1.9806749,-1.5712789,0.5561032,1.0732472,0.0,2,0,0,0,2203,224c2092-44e1-4b73-879c-d0ad0c4b4c87
86913663,29.375426031225903,-89.54908795831832,37.738865,-0.0,-0.025549904,-0.01454736,-1.9833237,-1.5712962,0.5562036,1.0732806,0.0,2,0,0,0,2203,224c2092-44e1-4b73-879c-d0ad0c4b4c87
87013668,29.37542599449019,-89.549087979384,37.93398,-0.0,-0.017414674,-0.019307751,-1.9845603,-1.5713924,0.55609703,1.0732381,0.0,2,0,0,0,2203,224c2092-44e1-4b73-879c-d0ad0c4b4c87
87117671,29.37542596530108,-89.54908800736618,38.137466,-0.0,-0.0075377813,-0.024917327,-1.9822527,-1.5710131,0.5562164,1.0732713,0.0,2,0,0,0,2203,224c2092-44e1-4b73-879c-d0ad0c4b4c87
87217802,29.3754259428001,-89.54908803508506,38.335697,-0.0,0.00069733965,-0.027599243,-1.9835941,-1.5711532,0.5563271,1.0732458,0.0,2,0,0,0,2203,224c2092-44e1-4b73-879c-d0ad0c4b4c87
87321720,29.37542592740056,-89.54908806714062,38.53963,-0.0,0.010353337,-0.027723372,-1.9844742,-1.5714247,0.5564493,1.0732796,0.0,2,0,0,0,2203,224c2092-44e1-4b73-879c-d0ad0c4b4c87
87423514,29.37542592056393,-89.54908809789949,38.73821,-0.0,0.016633717,-0.026276642,-1.9865574,-1.5715203,0.55634004,1.0732964,0.0,2,0,0,0,2203,224c2092-44e1-4b73-879c-d0ad0c4b4c87
87523540,29.375425921037525,-89.54908812383451,38.936577,-0.0,0.024647329,-0.026153725,-1.9856287,-1.5717963,0.5564603,1.0732694,0.0,2,0,0,0,2203,224c2092-44e1-4b73-879c-d0ad0c4b4c87
87627375,29.375425928011914,-89.54908815088784,39.142776,-0.0,0.029439012,-0.024888784,-1.9907322,-1.572097,0.5566157,1.0733076,0.0,2,0,0,0,2203,224c2092-44e1-4b73-879c-d0ad0c4b4c87
87727240,29.375425940224986,-89.54908817077246,39.34267,-0.0,0.035226144,-0.021339284,-1.9930729,-1.5724105,0.5564935,1.0732647,0.0,2,0,0,0,2203,224c2092-44e1-4b73-879c-d0ad0c4b4c87
87831313,29.375425955187406,-89.54908818328907,39.552864,-0.0,0.03532369,-0.016975686,-1.992257,-1.5721003,0.55662113,1.0732386,0.0,2,0,0,0,2203,224c2092-44e1-4b73-879c-d0ad0c4b4c87
87931314,29.37542596979362,-89.5490881909794,39.75652,-0.0,0.03961817,-0.014058525,-1.9939045,-1.5721364,0.55671996,1.073272,0.0,2,0,0,0,2203,224c2092-44e1-4b73-879c-d0ad0c4b4c87
88035238,29.3754259887471,-89.54908819530377,39.96634,-0.0,0.040484495,-0.00933959,-1.9921842,-1.5715262,0.55685085,1.073246,0.0,2,0,0,0,2203,224c2092-44e1-4b73-879c-d0ad0c4b4c87
88139332,29.375426010217808,-89.54908819267469,40.177654,-0.0,0.045569092,-0.008178361,-1.991124,-1.5711166,0.5569688,1.0732791,0.0,2,0,0,0,2203,224c2092-44e1-4b73-879c-d0ad0c4b4c87
88239509,29.3754260302758,-89.54908818591812,40.38096,-0.0,0.04485556,-0.0046383897,-1.9930819,-1.570611,0.55685556,1.073237,0.0,2,0,0,0,2203,224c2092-44e1-4b73-879c-d0ad0c4b4c87
88343405,29.37542605035013,-89.54908817777876,40.590717,-0.0,0.04563739,-0.003657539,-1.9952484,-1.5699863,0.5569939,1.07327,0.0,2,0,0,0,2203,224c2092-44e1-4b73-879c-d0ad0c4b4c87
88445099,29.375426069204448,-89.54908816676674,40.79282,-0.0,0.045079038,-0.0007835316,-1.9948858,-1.5698671,0.5571223,1.0732441,0.0,2,0,0,0,2203,224c2092-44e1-4b73-879c-d0ad0c4b4c87
88544994,29.37542608772936,-89.54908815432884,40.99316,-0.0,0.042593047,-0.0009727935,-1.9948388,-1.5699973,0.557241,1.0732186,0.0,2,0,0,0,2203,224c2092-44e1-4b73-879c-d0ad0c4b4c87
88644963,29.37542610529826,-89.54908814253437,41.19203,-0.0,0.040827576,-0.0006234873,-1.994666,-1.5700694,0.5570395,1.0732281,0.0,2,0,0,0,2203,224c2092-44e1-4b73-879c-d0ad0c4b4c87
88749336,29.37542612141556,-89.54908812987135,41.400967,-0.0,0.040385205,0.0004965439,-1.994881,-1.5702705,0.5571636,1.0732621,0.0,2,0,0,0,2203,224c2092-44e1-4b73-879c-d0ad0c4b4c87
88848901,29.37542613607859,-89.54908811866248,41.607025,-0.0,0.03931686,-0.00082470337,-1.9960895,-1.5706164,0.55727786,1.0732368,0.0,2,0,0,0,2203,224c2092-44e1-4b73-879c-d0ad0c4b4c87
88949423,29.375426150437697,-89.54908811253581,41.816044,-0.0,0.037396226,-0.002397341,-1.9974139,-1.5709375,0.55713844,1.0732546,0.0,2,0,0,0,2203,224c2092-44e1-4b73-879c-d0ad0c4b4c87
89052830,29.375426161781856,-89.54908810689017,42.02689,-0.0,0.036186762,-0.0038614208,-1.9991685,-1.5714499,0.5572746,1.0732296,0.0,2,0,0,0,2203,224c2092-44e1-4b73-879c-d0ad0c4b4c87
89152898,29.375426171540823,-89.54908809966118,42.2264,-0.0,0.036381464,-0.00276102,-1.9975296,-1.5720903,0.55740076,1.0732639,0.0,2,0,0,0,2203,224c2092-44e1-4b73-879c-d0ad0c4b4c87
89256954,29.37542618055509,-89.54908809035553,42.435658,-0.0,0.034992073,-0.005429875,-1.9978122,-1.5721937,0.5575368,1.0732385,0.0,2,0,0,0,2203,224c2092-44e1-4b73-879c-d0ad0c4b4c87
89361021,29.375426191056203,-89.54908808198239,42.644753,-0.0,0.035487715,-0.005776829,-1.9948372,-1.5723726,0.5576629,1.0732721,0.0,2,0,0,0,2203,224c2092-44e1-4b73-879c-d0ad0c4b4c87
89462627,29.37542620291241,-89.54908807431543,42.845837,-0.0,0.036124974,-0.0057832017,-1.9944957,-1.5721985,0.5575303,1.0732889,0.0,2,0,0,0,2203,224c2092-44e1-4b73-879c-d0ad0c4b4c87
89562652,29.37542621202585,-89.54908806686747,43.045536,-0.0,0.0350849,-0.0074768546,-1.9931133,-1.5720717,0.55770713,1.073268,0.0,2,0,0,0,2203,224c2092-44e1-4b73-879c-d0ad0c4b4c87
89666722,29.37542622211729,-89.54908806132025,43.25583,-0.0,0.035526663,-0.009853956,-1.9962041,-1.5723696,0.5578189,1.0733008,0.0,2,0,0,0,2203,224c2092-44e1-4b73-879c-d0ad0c4b4c87
89770898,29.37542623134424,-89.54908805681382,43.464947,-0.0,0.034190178,-0.010405714,-1.9979758,-1.5724107,0.5579425,1.0732744,0.0,2,0,0,0,2203,224c2092-44e1-4b73-879c-d0ad0c4b4c87
89870438,29.37542624268705,-89.5490880586875,43.66373,-0.0,0.03380241,-0.0130209075,-1.9971296,-1.5725164,0.557826,1.0732908,0.0,2,0,0,0,2203,224c2092-44e1-4b73-879c-d0ad0c4b4c87
89974440,29.37542625635079,-89.54908806292326,43.869045,-0.0,0.03386069,-0.013448114,-1.9935569,-1.5721699,0.55792904,1.0732646,0.0,2,0,0,0,2203,224c2092-44e1-4b73-879c-d0ad0c4b4c87
90074691,29.375426267454404,-89.54908807021623,44.069298,-0.0,0.03387678,-0.01575007,-1.995349,-1.5726672,0.55804443,1.0732388,0.0,2,0,0,0,2203,224c2092-44e1-4b73-879c-d0ad0c4b4c87
90174698,29.375426279215468,-89.5490880806611,44.267506,-0.0,0.033149954,-0.016272293,-1.9951181,-1.5731181,0.55793834,1.0732555,0.0,2,0,0,0,2203,224c2092-44e1-4b73-879c-d0ad0c4b4c87
90278559,29.3754262898786,-89.54908808955338,44.474773,-0.0,0.03448953,-0.016073268,-1.9919443,-1.572942,0.55805254,1.0732883,0.0,2,0,0,0,2203,224c2092-44e1-4b73-879c-d0ad0c4b4c87
90379512,29.37542629951239,-89.54908809631118,44.67601,-0.0,0.0351882,-0.015771504,-1.9942147,-1.5730857,0.558178,1.0732617,0.0,2,0,0,0,2203,224c2092-44e1-4b73-879c-d0ad0c4b4c87
90480513,29.37542630997156,-89.54908810220287,44.875664,-0.0,0.03523024,-0.01415992,-1.9927695,-1.5726775,0.55831546,1.0732945,0.0,2,0,0,0,2203,224c2092-44e1-4b73-879c-d0ad0c4b4c87
90580255,29.375426322638923,-89.54908810796293,45.0685,-0.0,0.035372645,-0.013974414,-1.9912717,-1.5726961,0.5581107,1.0733029,0.0,2,0,0,0,2203,224c2092-44e1-4b73-879c-d0ad0c4b4c87
90684172,29.375426335182468,-89.54908811188376,45.27016,-0.0,0.036284845,-0.010395802,-1.9929544,-1.5723242,0.5582326,1.0732765,0.0,2,0,0,0,2203,224c2092-44e1-4b73-879c-d0ad0c4b4c87
90784127,29.375426349473223,-89.54908811392843,45.463573,-0.0,0.03593063,-0.009179997,-1.9928533,-1.5724928,0.5583638,1.0732507,0.0,2,0,0,0,2203,224c2092-44e1-4b73-879c-d0ad0c4b4c87
90888091,29.37542636515487,-89.54908811981521,45.66262,-0.0,0.038661156,-0.006997996,-1.9949307,-1.5727597,0.5584856,1.073284,0.0,2,0,0,0,2203,224c2092-44e1-4b73-879c-d0ad0c4b4c87
90992198,29.37542638056997,-89.54908812661606,45.85531,-0.0,0.035394594,-0.007828662,-1.9941214,-1.5728357,0.55857724,1.0732582,0.0,2,0,0,0,2203,224c2092-44e1-4b73-879c-d0ad0c4b4c87
91092288,29.37542639517819,-89.54908813161828,46.038265,-0.0,0.034743976,-0.0045123263,-1.9944069,-1.5727986,0.5584469,1.0732753,0.0,2,0,0,0,2203,224c2092-44e1-4b73-879c-d0ad0c4b4c87
91196145,29.37542641033318,-89.54908813825428,46.23203,-0.0,0.037855633,-0.0052973563,-1.9911088,-1.5730773,0.55858237,1.0732496,0.0,2,0,0,0,2203,224c2092-44e1-4b73-879c-d0ad0c4b4c87
91296101,29.375426423021853,-89.54908814242977,46.4195,-0.0,0.03632363,-0.0037801915,-1.9919106,-1.5737435,0.55870765,1.0732828,0.0,2,0,0,0,2203,224c2092-44e1-4b73-879c-d0ad0c4b4c87
91397739,29.37542643460308,-89.54908814651668,46.615852,-0.0,0.0363993,-0.0008187151,-1.9924297,-1.5742761,0.5585874,1.0732409,0.0,2,0,0,0,2203,224c2092-44e1-4b73-879c-d0ad0c4b4c87
91497749,29.37542644179027,-89.54908815310593,46.809517,-0.0,0.036590047,-0.0022679411,-1.9920863,-1.5744838,0.55871254,1.0732156,0.0,2,0,0,0,2203,224c2092-44e1-4b73-879c-d0ad0c4b4c87
91601752,29.37542644807236,-89.54908815610283,47.01253,-0.0,0.03434986,-0.00090889237,-1.9953474,-1.5746417,0.55583817,1.0732552,0.0,2,0,0,0,2203,224c2092-44e1-4b73-879c-d0ad0c4b4c87
91705665,29.37542645404704,-89.54908815812661,47.215446,-0.0,0.03131784,0.00033751785,-1.9955827,-1.5739754,0.5559566,1.0732293,0.0,2,0,0,0,2203,224c2092-44e1-4b73-879c-d0ad0c4b4c87
91805702,29.37542646288187,-89.54908816230946,47.41422,-0.0,0.03244038,7.758825e-05,-1.9986329,-1.5738144,0.55891645,1.0732464,0.0,2,0,0,0,2203,224c2092-44e1-4b73-879c-d0ad0c4b4c87
91909662,29.37542647403493,-89.54908816765371,47.620052,-0.0,0.033017468,-0.00045787395,-1.9960111,-1.572883,0.55595154,1.0732791,0.0,2,0,0,0,2203,224c2092-44e1-4b73-879c-d0ad0c4b4c87
92009722,29.375426481085164,-89.54908817428725,47.817707,-0.0,0.03319458,-0.0007775896,-1.9965854,-1.5722454,0.5560618,1.0733116,0.0,2,0,0,0,2203,224c2092-44e1-4b73-879c-d0ad0c4b4c87
92109882,29.375426490562447,-89.54908817602559,48.015057,-0.0,0.033296105,0.00071519776,-1.9956896,-1.5720146,0.5559468,1.0733273,0.0,2,0,0,0,2203,224c2092-44e1-4b73-879c-d0ad0c4b4c87
92213725,29.375426502703693,-89.54908817813426,48.220592,-0.0,0.034881342,0.0034375738,-1.9933128,-1.5718787,0.5560578,1.0732994,0.0,2,0,0,0,2203,224c2092-44e1-4b73-879c-d0ad0c4b4c87
92313718,29.3754265129404,-89.54908818194559,48.414436,-0.0,0.03419801,0.0059036757,-1.9915777,-1.5720586,0.55617994,1.0733314,0.0,2,0,0,0,2203,224c2092-44e1-4b73-879c-d0ad0c4b4c87
92415293,29.375426525572923,-89.54908817883303,48.612087,-0.0,0.035812832,0.009398727,-1.9921117,-1.5720499,0.55607265,1.0733463,0.0,2,0,0,0,2203,224c2092-44e1-4b73-879c-d0ad0c4b4c87
92519500,29.375426540304574,-89.54908817832,48.817318,-0.0,0.035637192,0.011755317,-1.9977856,-1.5727797,0.5561927,1.0733179,0.0,2,0,0,0,2203,224c2092-44e1-4b73-879c-d0ad0c4b4c87
92619350,29.375426553213423,-89.54908817518408,49.01455,-0.0,0.03557713,0.013030138,-1.9975295,-1.5730852,0.5563655,1.0732958,0.0,2,0,0,0,2203,224c2092-44e1-4b73-879c-d0ad0c4b4c87
92719263,29.3754265670507,-89.54908817281832,49.212112,-0.0,0.03605933,0.014354488,-1.9972924,-1.5735674,0.5562441,1.0732526,0.0,2,0,0,0,2203,224c2092-44e1-4b73-879c-d0ad0c4b4c87
