timestamp,x,y,z,yaw,yawspeed,vx,vy,vz,acc_x,acc_y,acc_z,thrust0,thrust1,thrust2,basestation,flight_number
58189888,-0.76359075,0.6198755,0.58344233,-1.5724239,0.0,0.0,0.0,0.04192,0.0,0.0,-0.0,0.0,0.0,0.0,2203,224c2092-44e1-4b73-879c-d0ad0c4b4c87
65701861,-0.82270896,0.74898016,0.86484486,-1.572419,0.0,0.0,0.0,0.0,0.0,0.0,-0.0,0.0,0.0,0.0,2203,224c2092-44e1-4b73-879c-d0ad0c4b4c87
65800835,-0.822854,0.7491647,-14.134538,-1.572272,0.0,0.00042244792,-0.0016186237,0.2007538,-0.034585714,-0.036227703,-5.35968,0.0,0.0,0.0,2203,224c2092-44e1-4b73-879c-d0ad0c4b4c87
65904822,-0.822854,0.7491647,-14.134538,-1.572272,0.0,0.00086688995,-0.0031781495,-0.18884495,-0.021572597,-0.06035925,-6.1626782,0.0,0.0,0.0,2203,224c2092-44e1-4b73-879c-d0ad0c4b4c87
66005431,-0.822854,0.7491647,-14.134538,-1.572272,0.0,0.0004825294,-0.005180955,-0.5658175,-0.11474627,-0.038291745,-6.751624,0.0,0.0,0.0,2203,224c2092-44e1-4b73-879c-d0ad0c4b4c87
66109206,-0.822854,0.7491647,-14.134538,-1.572272,0.0,-0.0045127273,-0.00752154,-0.95523614,-0.10906012,-0.0411427,-7.021752,0.0,0.0,0.0,2203,224c2092-44e1-4b73-879c-d0ad0c4b4c87
66213360,-0.822854,0.7491647,-14.134538,-1.572272,0.0,-0.013238937,-0.009711206,-1.34542,-0.15329197,-0.051306155,-7.2530293,0.0,0.0,0.0,2203,224c2092-44e1-4b73-879c-d0ad0c4b4c87
66312735,-0.822854,0.7491647,-14.134538,-1.572272,0.0,-0.024230987,-0.012553275,-1.5,-0.1862782,-0.0240518,-7.0317516,0.0,0.0,0.0,2203,224c2092-44e1-4b73-879c-d0ad0c4b4c87
66416813,-0.822854,0.7491647,-14.134538,-1.572272,0.0,-0.037550032,-0.014737755,-1.5,-0.21734574,-0.06951881,-6.705471,0.0,0.0,0.0,2203,224c2092-44e1-4b73-879c-d0ad0c4b4c87
66519296,-0.822854,0.7491647,-14.134538,-1.572272,0.0,-0.050098658,-0.01686868,-1.5,-0.2320507,0.0049386597,-6.565643,0.0,0.0,0.0,2203,224c2092-44e1-4b73-879c-d0ad0c4b4c87
66623173,-0.822854,0.7491647,-14.134538,-1.572272,0.0,-0.0630033,-0.017252862,-1.5,-0.23519024,-0.048290025,-6.4516687,0.0,0.0,0.0,2203,224c2092-44e1-4b73-879c-d0ad0c4b4c87
66722355,-0.822854,0.7491647,-14.134538,-1.572272,0.0,-0.075155586,-0.01777634,-1.5,-0.2766573,-0.041570567,-6.404298,0.0,0.0,0.0,2203,224c2092-44e1-4b73-879c-d0ad0c4b4c87
66826356,-0.822854,0.7491647,-14.134538,-1.572272,0.0,-0.08845639,-0.01927346,-1.5,-0.25987294,-0.07505869,-6.300094,0.0,0.0,0.0,2203,224c2092-44e1-4b73-879c-d0ad0c4b4c87
66927054,-0.822854,0.7491647,-14.134538,-1.572272,0.0,-0.09859559,-0.022245973,-1.5,-0.25661182,-0.07888338,-6.2794175,0.0,0.0,0.0,2203,224c2092-44e1-4b73-879c-d0ad0c4b4c87
67026421,-0.822854,0.7491647,-14.134538,-1.572272,0.0,-0.10806584,-0.02661243,-1.5,-0.34157652,-0.08024828,-6.2629027,0.0,0.0,0.0,2203,224c2092-44e1-4b73-879c-d0ad0c4b4c87
67130455,-0.822854,0.7491647,-14.134538,-1.572272,0.0,-0.11761522,-0.031270802,-1.5,-0.26755887,-0.115741216,-6.2660933,0.0,0.0,0.0,2203,224c2092-44e1-4b73-879c-d0ad0c4b4c87
67231499,-0.822854,0.7491647,-14.134538,-1.572272,0.0,-0.12474695,-0.035734087,-1.5,-0.30640602,-0.078469664,-6.2259197,0.0,0.0,0.0,2203,224c2092-44e1-4b73-879c-d0ad0c4b4c87
67330414,-0.822854,0.7491647,-14.134538,-1.572272,0.0,-0.13242969,-0.0398165,-1.5,-0.3083486,-0.07939601,-6.196974,0.0,0.0,0.0,2203,224c2092-44e1-4b73-879c-d0ad0c4b4c87
67434293,-0.822854,0.7491647,-14.134538,-1.572272,0.0,-0.1395632,-0.04202217,-1.5,-0.313644,-0.059532013,-6.1786366,0.0,0.0,0.0,2203,224c2092-44e1-4b73-879c-d0ad0c4b4c87
67536532,-0.822854,0.7491647,-14.134538,-1.572272,0.0,-0.14440799,-0.042233795,-1.5,-0.28123158,-0.059748888,-6.181292,0.0,0.0,0.0,2203,224c2092-44e1-4b73-879c-d0ad0c4b4c87
67636109,-0.822854,0.7491647,-14.134538,-1.572272,0.0,-0.14704451,-0.041042805,-1.5,-0.26976624,-0.029248277,-6.189041,0.0,0.0,0.0,2203,224c2092-44e1-4b73-879c-d0ad0c4b4c87
67736322,-0.822854,0.7491647,-14.134538,-1.572272,0.0,-0.14693749,-0.03898886,-1.5,-0.23942295,-0.027958276,-6.180001,0.0,0.0,0.0,2203,224c2092-44e1-4b73-879c-d0ad0c4b4c87
67841136,-0.822854,0.7491647,-14.134538,-1.572272,0.0,-0.1434525,-0.03608179,-1.5,-0.1937887,-0.032137927,-6.1929603,0.0,0.0,0.0,2203,224c2092-44e1-4b73-879c-d0ad0c4b4c87
67939896,-0.822854,0.7491647,-14.134538,-1.572272,0.0,-0.13673365,-0.032842934,-1.5,-0.18039015,-0.025576398,-6.191769,0.0,0.0,0.0,2203,224c2092-44e1-4b73-879c-d0ad0c4b4c87
68043928,-0.822854,0.7491647,-14.134538,-1.572272,0.0,-0.12734431,-0.028916985,-1.5,-0.1281797,-0.028136637,-6.195661,0.0,0.0,0.0,2203,224c2092-44e1-4b73-879c-d0ad0c4b4c87
68144961,-0.822854,0.7491647,-14.134538,-1.572272,0.0,-0.11641261,-0.0246993,-1.5,-0.11239496,-0.01996045,-6.19819,0.0,0.0,0.0,2203,224c2092-44e1-4b73-879c-d0ad0c4b4c87
68243993,-0.822854,0.7491647,-14.134538,-1.572272,0.0,-0.10491729,-0.020020008,-1.5,-0.100235105,-0.014433572,-6.181853,0.0,0.0,0.0,2203,224c2092-44e1-4b73-879c-d0ad0c4b4c87
68347879,-0.822854,0.7491647,-14.134538,-1.572272,0.0,-0.09280524,-0.014835298,-1.5,-0.0916272,-0.011981579,-6.189582,0.0,0.0,0.0,2203,224c2092-44e1-4b73-879c-d0ad0c4b4c87
68448585,-0.822854,0.7491647,-14.134538,-1.572272,0.0,-0.081644565,-0.01020661,-1.5,-0.07656262,-0.005475583,-6.187356,0.0,0.0,0.0,2203,224c2092-44e1-4b73-879c-d0ad0c4b4c87
68549735,-0.822854,0.7491647,-14.134538,-1.572272,0.0,-0.07091537,-0.0056325495,-1.5,-0.07862201,0.0050500697,-6.186463,0.0,0.0,0.0,2203,224c2092-44e1-4b73-879c-d0ad0c4b4c87
68650205,-0.822854,0.7491647,-14.134538,-1.572272,0.0,-0.06114444,-0.0006842315,-1.5,-0.06255523,-0.0036709083,-6.198736,0.0,0.0,0.0,2203,224c2092-44e1-4b73-879c-d0ad0c4b4c87
68754239,-0.822854,0.7491647,-14.134538,-1.572272,0.0,-0.052324623,0.00445953,-1.5,-0.09066724,0.015092901,-6.207463,0.0,0.0,0.0,2203,224c2092-44e1-4b73-879c-d0ad0c4b4c87
68853535,-0.822854,0.7491647,-14.134538,-1.572272,0.0,-0.04544127,0.010277599,-1.5,-0.09327379,0.029357316,-6.2049956,0.0,0.0,0.0,2203,224c2092-44e1-4b73-879c-d0ad0c4b4c87
68957529,-0.822854,0.7491647,-14.134538,-1.572272,0.0,-0.039291322,0.016756207,-1.5,-0.091054596,0.023106178,-6.2109137,0.0,0.0,0.0,2203,224c2092-44e1-4b73-879c-d0ad0c4b4c87
69058288,-0.822854,0.7491647,-14.134538,-1.572272,0.0,-0.03526488,0.022852242,-1.5,-0.1110861,0.036231857,-6.2040734,0.0,0.0,0.0,2203,224c2092-44e1-4b73-879c-d0ad0c4b4c87
69157562,-0.822854,0.7491647,-14.134538,-1.572272,0.0,-0.03212759,0.028063416,-1.5,-0.10560575,0.047699984,-6.20057,0.0,0.0,0.0,2203,224c2092-44e1-4b73-879c-d0ad0c4b4c87
69261571,-0.822854,0.7491647,-14.134538,-1.572272,0.0,-0.029417127,0.032781422,-1.5,-0.09445481,0.03897487,-6.207974,0.0,0.0,0.0,2203,224c2092-44e1-4b73-879c-d0ad0c4b4c87
69362312,-0.822854,0.7491647,-14.134538,-1.572272,0.0,-0.027970076,0.03681636,-1.5,-0.108090974,0.050918207,-6.210565,0.0,0.0,0.0,2203,224c2092-44e1-4b73-879c-d0ad0c4b4c87
69461512,-0.822854,0.7491647,-14.134538,-1.572272,0.0,-0.02647698,0.039408624,-1.5,-0.09810278,0.04011193,-6.2162747,0.0,0.0,0.0,2203,224c2092-44e1-4b73-879c-d0ad0c4b4c87
69563955,-0.822854,0.7491647,-14.134538,-1.572272,0.0,-0.025307804,0.04159355,-1.5,-0.08012537,0.04422901,-6.218248,0.0,0.0,0.0,2203,224c2092-44e1-4b73-879c-d0ad0c4b4c87
69667483,-0.822854,0.7491647,-14.134538,-1.572272,0.0,-0.023452252,0.043170422,-1.5,-0.10040788,0.030877894,-6.207902,0.0,0.0,0.0,2203,224c2092-44e1-4b73-879c-d0ad0c4b4c87
69767122,-0.822854,0.7491647,-14.134538,-1.572272,0.0,-0.021068305,0.04324025,-1.5,-0.0857207,0.035770103,-6.211893,0.0,0.0,0.0,2203,224c2092-44e1-4b73-879c-d0ad0c4b4c87
69871212,-0.822854,0.7491647,-14.134538,-1.572272,0.0,-0.018380105,0.04220447,-1.5,-0.06422282,-0.004694036,-6.2087555,0.0,0.0,0.0,2203,224c2092-44e1-4b73-879c-d0ad0c4b4c87
69971632,-0.822854,0.7491647,-14.134538,-1.572272,0.0,-0.014908254,0.039704114,-1.5,-0.07331754,-0.0027761674,-6.2093625,0.0,0.0,0.0,2203,224c2092-44e1-4b73-879c-d0ad0c4b4c87
70071213,-0.822854,0.7491647,-14.134538,-1.572272,0.0,-0.010203749,0.0351474,-1.5,-0.056411084,-0.005913141,-6.2120275,0.0,0.0,0.0,2203,224c2092-44e1-4b73-879c-d0ad0c4b4c87
70175178,-0.822854,0.7491647,-14.134538,-1.572272,0.0,-0.004583895,0.028427303,-1.5,-0.02561612,-0.044975158,-6.2146497,0.0,0.0,0.0,2203,224c2092-44e1-4b73-879c-d0ad0c4b4c87
70275919,-0.822854,0.7491647,-14.134538,-1.572272,0.0,0.0014805794,0.020861864,-1.5141172,-0.022839906,-0.04070261,-6.2407794,0.0,0.0,0.0,2203,224c2092-44e1-4b73-879c-d0ad0c4b4c87
70375277,-0.822854,0.7491647,-14.134538,-1.572272,0.0,0.007239282,0.012936294,-1.5288017,-0.010767633,-0.052181963,-6.255734,0.0,0.0,0.0,2203,224c2092-44e1-4b73-879c-d0ad0c4b4c87
70476524,-0.822854,0.7491647,-14.134538,-1.572272,0.0,0.014212757,0.0054308474,-1.543838,0.02847183,-0.06978825,-6.2619143,0.0,0.0,0.0,2203,224c2092-44e1-4b73-879c-d0ad0c4b4c87
70581126,-0.822854,0.7491647,-14.134538,-1.572272,0.0,0.021389008,-0.0017826855,-1.55985,0.012730558,-0.06558179,-6.2679353,0.0,0.0,0.0,2203,224c2092-44e1-4b73-879c-d0ad0c4b4c87
70680657,-0.822854,0.7491647,-14.134538,-1.572272,0.0,0.028366327,-0.007952303,-1.575254,0.019415863,-0.06755051,-6.2561502,0.0,0.0,0.0,2203,224c2092-44e1-4b73-879c-d0ad0c4b4c87
70784790,-0.822854,0.7491647,-14.134538,-1.572272,0.0,0.03474757,-0.013870239,-1.5919466,0.014040115,-0.062284347,-6.2635612,0.0,0.0,0.0,2203,224c2092-44e1-4b73-879c-d0ad0c4b4c87
70885231,-0.822854,0.7491647,-14.134538,-1.572272,0.0,0.04054901,-0.018073618,-1.6084671,0.019999485,-0.057359245,-6.261918,0.0,0.0,0.0,2203,224c2092-44e1-4b73-879c-d0ad0c4b4c87
70984902,-0.822854,0.7491647,-14.134538,-1.572272,0.0,0.044724673,-0.022320628,-1.6250055,0.016541619,-0.057767257,-6.260175,0.0,0.0,0.0,2203,224c2092-44e1-4b73-879c-d0ad0c4b4c87
71088756,-0.822854,0.7491647,-14.134538,-1.572272,0.0,0.047180325,-0.025961637,-1.6422112,0.00050566165,-0.052410606,-6.2711396,0.0,0.0,0.0,2203,224c2092-44e1-4b73-879c-d0ad0c4b4c87
71189799,-0.822854,0.7491647,-14.134538,-1.572272,0.0,0.04923901,-0.029409528,-1.6587968,-0.009835704,-0.05197685,-6.268976,0.0,0.0,0.0,2203,224c2092-44e1-4b73-879c-d0ad0c4b4c87
71288641,-0.822854,0.7491647,-14.134538,-1.572272,0.0,0.04917839,-0.032429248,-1.6753316,-0.008891336,-0.04654886,-6.270259,0.0,0.0,0.0,2203,224c2092-44e1-4b73-879c-d0ad0c4b4c87
71392720,-0.822854,0.7491647,-14.134538,-1.572272,0.0,0.048864663,-0.034280866,-1.6923549,-0.03279085,-0.054028377,-6.2848835,0.0,0.0,0.0,2203,224c2092-44e1-4b73-879c-d0ad0c4b4c87
71495379,-0.822854,0.7491647,-14.134538,-1.572272,0.0,0.046875983,-0.035018474,-1.7092438,-0.055858884,-0.04043274,-6.2892785,0.0,0.0,0.0,2203,224c2092-44e1-4b73-879c-d0ad0c4b4c87
71599073,-0.822854,0.7491647,-14.134538,-1.572272,0.0,0.043287635,-0.03536609,-1.7266588,-0.03952453,-0.04295883,-6.2895193,0.0,0.0,0.0,2203,224c2092-44e1-4b73-879c-d0ad0c4b4c87
71698535,-0.822854,0.7491647,-14.134538,-1.572272,0.0,0.039157033,-0.034832507,-1.7433813,-0.06289412,-0.029173125,-6.2972527,0.0,0.0,0.0,2203,224c2092-44e1-4b73-879c-d0ad0c4b4c87
71802361,-0.822854,0.7491647,-14.134538,-1.572272,0.0,0.033581793,-0.033281475,-1.760737,-0.060709473,-0.012407487,-6.3158803,0.0,0.0,0.0,2203,224c2092-44e1-4b73-879c-d0ad0c4b4c87
71903087,-0.822854,0.7491647,-14.134538,-1.572272,0.0,0.027299255,-0.03168127,-1.7781825,-0.06855646,-0.011243183,-6.3127613,0.0,0.0,0.0,2203,224c2092-44e1-4b73-879c-d0ad0c4b4c87
72006797,-0.822854,0.7491647,-14.134538,-1.572272,0.0,0.02156514,-0.029130578,-1.7967644,-0.08782826,0.010645977,-6.330262,0.0,0.0,0.0,2203,224c2092-44e1-4b73-879c-d0ad0c4b4c87
72110665,-0.822854,0.7491647,-14.134538,-1.572272,0.0,0.014677316,-0.026308626,-1.8155041,-0.101961136,-0.0069656516,-6.3238263,0.0,0.0,0.0,2203,224c2092-44e1-4b73-879c-d0ad0c4b4c87
72210484,-0.822854,0.7491647,-14.134538,-1.572272,0.0,0.00909099,-0.023287565,-1.8334484,-0.10360207,-0.0078028706,-6.3212466,0.0,0.0,0.0,2203,224c2092-44e1-4b73-879c-d0ad0c4b4c87
72311958,-0.822854,0.7491647,-14.134538,-1.572272,0.0,0.0040674806,-0.020965397,-1.8514361,-0.09665479,-0.0055475626,-6.3242292,0.0,0.0,0.0,2203,224c2092-44e1-4b73-879c-d0ad0c4b4c87
72414954,-0.822854,0.7491647,-14.134538,-1.572272,0.0,-0.0009457469,-0.018747568,-1.8701937,-0.09213551,-0.0025766466,-6.325504,0.0,0.0,0.0,2203,224c2092-44e1-4b73-879c-d0ad0c4b4c87
72515961,-0.822854,0.7491647,-14.134538,-1.572272,0.0,-0.0045977533,-0.016633004,-1.8885825,-0.08087121,-0.00090428966,-6.315297,0.0,0.0,0.0,2203,224c2092-44e1-4b73-879c-d0ad0c4b4c87
72616773,-0.822854,0.7491647,-14.134538,-1.572272,0.0,-0.0075876117,-0.015207052,-1.907037,-0.079242304,0.0029331194,-6.2996597,0.0,0.0,0.0,2203,224c2092-44e1-4b73-879c-d0ad0c4b4c87
72720621,-0.822854,0.7491647,-14.134538,-1.572272,0.0,-0.009067476,-0.01364547,-1.9260387,-0.07048565,0.01378497,-6.314811,0.0,0.0,0.0,2203,224c2092-44e1-4b73-879c-d0ad0c4b4c87
72824315,-0.822854,0.7491647,-14.134538,-1.572272,0.0,-0.010314971,-0.011426479,-1.945086,-0.076227054,0.02018555,-6.333037,0.0,0.0,0.0,2203,224c2092-44e1-4b73-879c-d0ad0c4b4c87
72924019,-0.822854,0.7491647,-14.134538,-1.572272,0.0,-0.010427982,-0.0089659095,-1.963651,-0.06903111,0.017253794,-6.335255,0.0,0.0,0.0,2203,224c2092-44e1-4b73-879c-d0ad0c4b4c87
73027917,-0.822854,0.7491647,-14.134538,-1.572272,0.0,-0.009313524,-0.0058686733,-1.9830344,-0.052046563,0.0002706599,-6.3310413,0.0,0.0,0.0,2203,224c2092-44e1-4b73-879c-d0ad0c4b4c87
73128331,-0.822854,0.7491647,-14.134538,-1.572272,0.0,-0.0075543523,-0.0024019182,-2.0,-0.054610275,0.023771824,-6.3335824,0.0,0.0,0.0,2203,224c2092-44e1-4b73-879c-d0ad0c4b4c87
73227879,-0.822854,0.7491647,-14.134538,-1.572272,0.0,-0.0059106946,0.0020707548,-2.0,-0.061515223,0.03118693,-6.306203,0.0,0.0,0.0,2203,224c2092-44e1-4b73-879c-d0ad0c4b4c87
73331973,-0.822854,0.7491647,-14.134538,-1.572272,0.0,-0.0044119656,0.007351041,-2.0,-0.031431556,0.03975894,-6.2890677,0.0,0.0,0.0,2203,224c2092-44e1-4b73-879c-d0ad0c4b4c87
73432531,-0.822854,0.7491647,-14.134538,-1.572272,0.0,-0.002560079,0.012445092,-2.0,-0.041123375,0.05204276,-6.2780433,0.0,0.0,0.0,2203,224c2092-44e1-4b73-879c-d0ad0c4b4c87
73532983,-0.822854,0.7491647,-14.134538,-1.572272,0.0,-0.00042325258,0.01772046,-2.0,-0.035811845,0.06789913,-6.2596755,0.0,0.0,0.0,2203,224c2092-44e1-4b73-879c-d0ad0c4b4c87
73636697,-0.822854,0.7491647,-14.134538,-1.572272,0.0,0.0022000372,0.023246348,-2.0,-0.037859637,0.07361939,-6.2707143,0.0,0.0,0.0,2203,224c2092-44e1-4b73-879c-d0ad0c4b4c87
73737325,-0.822854,0.7491647,-14.134538,-1.572272,0.0,0.0045333803,0.0291228,-2.0,-0.034126483,0.08320697,-6.280661,0.0,0.0,0.0,2203,224c2092-44e1-4b73-879c-d0ad0c4b4c87
73836886,-0.822854,0.7491647,-14.134538,-1.572272,0.0,0.006414056,0.035213023,-2.0,-0.03418103,0.086427204,-6.284669,0.0,0.0,0.0,2203,224c2092-44e1-4b73-879c-d0ad0c4b4c87
73940762,-0.822854,0.7491647,-14.134538,-1.572272,0.0,0.007274151,0.041448355,-2.0,-0.05006877,0.095826685,-6.306063,0.0,0.0,0.0,2203,224c2092-44e1-4b73-879c-d0ad0c4b4c87
74041696,-0.822854,0.7491647,-14.134538,-1.572272,0.0,0.007008791,0.04712248,-2.0,-0.06599185,0.09992279,-6.3040657,0.0,0.0,0.0,2203,224c2092-44e1-4b73-879c-d0ad0c4b4c87
74145602,-0.822854,0.7491647,-14.134538,-1.572272,0.0,0.00584659,0.052669466,-2.0,-0.062328104,0.08869294,-6.298684,0.0,0.0,0.0,2203,224c2092-44e1-4b73-879c-d0ad0c4b4c87
74249211,-0.822854,0.7491647,-14.134538,-1.572272,0.0,0.003953755,0.05808091,-2.0,-0.07491762,0.106876224,-6.2884007,0.0,0.0,0.0,2203,224c2092-44e1-4b73-879c-d0ad0c4b4c87
74348837,-0.822854,0.7491647,-14.134538,-1.572272,0.0,0.0019457638,0.063501656,-2.0,-0.065765925,0.119049974,-6.280145,0.0,0.0,0.0,2203,224c2092-44e1-4b73-879c-d0ad0c4b4c87
74452886,-0.822854,0.7491647,-14.134538,-1.572272,0.0,0.00028842688,0.06938687,-2.0,-0.05147988,0.13849537,-6.3027625,0.0,0.0,0.0,2203,224c2092-44e1-4b73-879c-d0ad0c4b4c87
74553129,-0.822854,0.7491647,-14.134538,-1.572272,0.0,-0.0004299581,0.07565814,-2.0,-0.04724337,0.14813408,-6.3069816,0.0,0.0,0.0,2203,224c2092-44e1-4b73-879c-d0ad0c4b4c87
74652746,-0.822854,0.7491647,-14.134538,-1.572272,0.0,5.2839518e-05,0.08162722,-2.0,-0.038699336,0.15560925,-6.3060846,0.0,0.0,0.0,2203,224c2092-44e1-4b73-879c-d0ad0c4b4c87
74756684,-0.822854,0.7491647,-14.134538,-1.572272,0.0,0.0019869804,0.08781856,-1.8614216,-0.026977083,0.15530905,-6.0676303,0.0,0.0,0.0,2203,224c2092-44e1-4b73-879c-d0ad0c4b4c87
74858685,-0.822854,0.7491647,-14.134538,-1.572272,0.0,0.0052134097,0.09389046,-1.6149243,-0.026831394,0.16821173,-5.7427373,0.0,0.0,0.0,2203,224c2092-44e1-4b73-879c-d0ad0c4b4c87
74958256,-0.822854,0.7491647,-14.134538,-1.572272,0.0,0.00903216,0.09922099,-1.3836477,-0.0056181275,0.1625296,-5.548302,0.0,0.0,0.0,2203,224c2092-44e1-4b73-879c-d0ad0c4b4c87
75058832,-0.822854,0.7491647,-14.134538,-1.572272,0.0,0.013849497,0.10435331,-1.1689965,0.013259711,0.17449512,-5.4639688,0.0,0.0,0.0,2203,224c2092-44e1-4b73-879c-d0ad0c4b4c87
75163187,-0.822854,0.7491647,-14.134538,-1.572272,0.0,0.019887954,0.10877547,-0.9692945,0.029456804,0.15290329,-5.4225802,0.0,0.0,0.0,2203,224c2092-44e1-4b73-879c-d0ad0c4b4c87
75262417,-0.822854,0.7491647,-14.134538,-1.572272,0.0,0.02681315,0.11194414,-0.79702634,0.0805762,0.15065515,-5.435689,0.0,0.0,0.0,2203,224c2092-44e1-4b73-879c-d0ad0c4b4c87
75366398,-0.822854,0.7491647,-14.134538,-1.572272,0.0,0.03452182,0.114210606,-0.638537,-0.009512984,0.15341234,-5.4443235,0.0,0.0,0.0,2203,224c2092-44e1-4b73-879c-d0ad0c4b4c87
75467003,-0.822854,0.7491647,-14.134538,-1.572272,0.0,0.04189852,0.1153855,-0.50926054,0.0022636433,0.14089797,-5.4829235,0.0,0.0,0.0,2203,224c2092-44e1-4b73-879c-d0ad0c4b4c87
75566374,-0.822854,0.7491647,-14.134538,-1.572272,0.0,0.049271375,0.11500785,-0.40151775,0.06395252,0.13628691,-5.5518103,0.0,0.0,0.0,2203,224c2092-44e1-4b73-879c-d0ad0c4b4c87
75670477,-0.822854,0.7491647,-14.134538,-1.572272,0.0,0.05629295,0.11426613,-0.31552562,0.045476858,0.1335225,-5.6464863,0.0,0.0,0.0,2203,224c2092-44e1-4b73-879c-d0ad0c4b4c87
75771227,-0.822854,0.7491647,-14.134538,-1.572272,0.0,0.062435478,0.11372486,-0.25376368,0.04876492,0.13778335,-5.703694,0.0,0.0,0.0,2203,224c2092-44e1-4b73-879c-d0ad0c4b4c87
75871957,-0.822854,0.7491647,-14.134538,-1.572272,0.0,0.06676322,0.11252564,-0.19791298,0.042351224,0.13189873,-5.7844667,0.0,0.0,0.0,2203,224c2092-44e1-4b73-879c-d0ad0c4b4c87
75972723,-0.822854,0.7491647,-14.134538,-1.572272,0.0,0.07038912,0.111522764,-0.15186518,0.041820817,0.13998418,-5.80573,0.0,0.0,0.0,2203,224c2092-44e1-4b73-879c-d0ad0c4b4c87
76076581,-0.822854,0.7491647,-14.134538,-1.572272,0.0,0.072849065,0.11027393,-0.11240434,0.044566073,0.14514807,-5.8522515,0.0,0.0,0.0,2203,224c2092-44e1-4b73-879c-d0ad0c4b4c87
76175959,-0.822854,0.7491647,-14.134538,-1.572272,0.0,0.07326159,0.10990691,-0.07912874,0.020210123,0.14276512,-5.9013505,0.0,0.0,0.0,2203,224c2092-44e1-4b73-879c-d0ad0c4b4c87
76276904,-0.12830846,1.15072,-14.48768,-1.572272,0.0,1.1150273,0.7114732,-0.51134586,1.5043688,0.98637074,-6.7946386,0.0,0.0,0.0,2203,224c2092-44e1-4b73-879c-d0ad0c4b4c87
76380638,-0.12830846,1.15072,-14.788406,-1.572272,0.0,1.10354,0.70396185,-0.8770031,1.2201236,0.8666868,-7.265914,0.0,0.0,0.0,2203,224c2092-44e1-4b73-879c-d0ad0c4b4c87
76480134,-0.12830846,1.15072,-15.5855665,-1.572272,0.0,1.0792755,0.68975884,-1.8736409,1.0760382,0.76315856,-8.577648,0.0,0.0,0.0,2203,224c2092-44e1-4b73-879c-d0ad0c4b4c87
76584108,-0.12830846,1.15072,-15.757951,-1.572272,0.0,1.0346853,0.6644827,-2.0,0.6496868,0.5232304,-7.7607713,0.0,0.0,0.0,2203,224c2092-44e1-4b73-879c-d0ad0c4b4c87
76685640,-0.12830846,1.15072,-15.874481,-1.572272,0.0,0.9656816,0.62482756,-2.0,0.39581937,0.3567232,-7.168234,0.0,0.0,0.0,2203,224c2092-44e1-4b73-879c-d0ad0c4b4c87
76784090,-0.12830846,1.15072,-16.026535,-1.572272,0.0,0.8784991,0.57152456,-1.9999989,0.19394237,0.20600046,-6.8428717,0.0,0.0,0.0,2203,224c2092-44e1-4b73-879c-d0ad0c4b4c87
76886651,-0.12830846,1.15072,-16.205675,-1.572272,0.0,0.7785807,0.5069438,-1.9999989,0.037062053,0.096552484,-6.648146,0.0,0.0,0.0,2203,224c2092-44e1-4b73-879c-d0ad0c4b4c87
76990657,-0.12830846,1.15072,-16.403206,-1.572272,0.0,0.66919756,0.4334161,-2.0,-0.10634348,-0.016333442,-6.497433,0.0,0.0,0.0,2203,224c2092-44e1-4b73-879c-d0ad0c4b4c87
77094265,-0.12830846,1.15072,-16.61054,-1.572272,0.0,0.5583327,0.3555193,-2.0,-0.22350106,-0.0934424,-6.4390044,0.0,0.0,0.0,2203,224c2092-44e1-4b73-879c-d0ad0c4b4c87
77193715,-0.12830846,1.15072,-16.80946,-1.572272,0.0,0.4545215,0.28000206,-2.0,-0.316174,-0.163746,-6.3967223,0.0,0.0,0.0,2203,224c2092-44e1-4b73-879c-d0ad0c4b4c87
77297706,-0.12830846,1.15072,-17.018581,-1.572272,0.0,0.35240287,0.203381,-2.0,-0.34228992,-0.2118367,-6.35183,0.0,0.0,0.0,2203,224c2092-44e1-4b73-879c-d0ad0c4b4c87
77398337,-0.12830846,1.15072,-17.21792,-1.572272,0.0,0.2629834,0.13365412,-2.0,-0.3694303,-0.2243596,-6.3252487,0.0,0.0,0.0,2203,224c2092-44e1-4b73-879c-d0ad0c4b4c87
77497832,-0.12830846,1.15072,-17.414478,-1.572272,0.0,0.18297464,0.071457446,-1.9999989,-0.37411097,-0.22110045,-6.3207445,0.0,0.0,0.0,2203,224c2092-44e1-4b73-879c-d0ad0c4b4c87
77601933,-0.12830846,1.15072,-17.621376,-1.572272,0.0,0.11219325,0.016342878,-2.0,-0.3971889,-0.19155829,-6.3261395,0.0,0.0,0.0,2203,224c2092-44e1-4b73-879c-d0ad0c4b4c87
77702595,-0.12830846,1.15072,-17.825062,-1.572272,0.0,0.0551717,-0.026697457,-2.0,-0.37352768,-0.16804758,-6.333075,0.0,0.0,0.0,2203,224c2092-44e1-4b73-879c-d0ad0c4b4c87
77802724,-0.12830846,1.15072,-18.028917,-1.572272,0.0,0.009662077,-0.059478343,-2.0,-0.32443544,-0.13299672,-6.3376126,0.0,0.0,0.0,2203,224c2092-44e1-4b73-879c-d0ad0c4b4c87
77906590,-0.12830846,1.15072,-18.238375,-1.572272,0.0,-0.025045294,-0.08278638,-2.0,-0.24056624,-0.09265827,-6.3248644,0.0,0.0,0.0,2203,224c2092-44e1-4b73-879c-d0ad0c4b4c87
78007797,-0.12830846,1.15072,-18.438908,-1.572272,0.0,-0.04743842,-0.0958541,-2.0,-0.18211886,-0.053799033,-6.323188,0.0,0.0,0.0,2203,224c2092-44e1-4b73-879c-d0ad0c4b4c87
78112002,-0.12830846,1.15072,-18.642153,-1.572272,0.0,-0.060697787,-0.10028207,-2.0,-0.12525669,0.009487416,-6.354818,0.0,0.0,0.0,2203,224c2092-44e1-4b73-879c-d0ad0c4b4c87
78215497,-0.12830846,1.15072,-18.840475,-1.572272,0.0,-0.06495069,-0.09629935,-2.0,-0.072487466,0.039681252,-6.342023,0.0,0.0,0.0,2203,224c2092-44e1-4b73-879c-d0ad0c4b4c87
78319062,-0.12830846,1.15072,-19.042185,-1.572272,0.0,-0.06150113,-0.085663676,-2.0,0.005680959,0.09216484,-6.3439403,0.0,0.0,0.0,2203,224c2092-44e1-4b73-879c-d0ad0c4b4c87
78418762,-0.12830846,1.15072,-19.23454,-1.572272,0.0,-0.052418992,-0.070240974,-2.0,0.06371103,0.13691556,-6.345491,0.0,0.0,0.0,2203,224c2092-44e1-4b73-879c-d0ad0c4b4c87
78522633,-0.12830846,1.15072,-19.435091,-1.572272,0.0,-0.03795966,-0.05000657,-2.0,0.10702022,0.16796456,-6.3605113,0.0,0.0,0.0,2203,224c2092-44e1-4b73-879c-d0ad0c4b4c87
78623307,-0.12830846,1.15072,-19.62751,-1.572272,0.0,-0.020907473,-0.028306603,-2.0,0.14478801,0.20276244,-6.3570685,0.0,0.0,0.0,2203,224c2092-44e1-4b73-879c-d0ad0c4b4c87
78727365,-0.12830846,1.15072,-19.828823,-1.572272,0.0,-0.0018353686,-0.005000174,-2.0,0.15583865,0.22691695,-6.3641834,0.0,0.0,0.0,2203,224c2092-44e1-4b73-879c-d0ad0c4b4c87
78831189,-0.12830846,1.15072,-20.029316,-1.572272,0.0,0.017553896,0.018577695,-2.0,0.18394823,0.22576687,-6.3641276,0.0,0.0,0.0,2203,224c2092-44e1-4b73-879c-d0ad0c4b4c87
78930447,-0.12830846,1.15072,-20.223057,-1.572272,0.0,0.035159223,0.040072203,-2.0,0.17856972,0.24206287,-6.36657,0.0,0.0,0.0,2203,224c2092-44e1-4b73-879c-d0ad0c4b4c87
79034514,-0.12830846,1.15072,-20.426699,-1.572272,0.0,0.051024243,0.062455416,-2.0,0.20969738,0.2609162,-6.3610525,0.0,0.0,0.0,2203,224c2092-44e1-4b73-879c-d0ad0c4b4c87
79136936,-0.12830846,1.15072,-20.624117,-1.572272,0.0,0.06498472,0.08251566,-2.0,0.21778293,0.26762724,-6.348089,0.0,0.0,0.0,2203,224c2092-44e1-4b73-879c-d0ad0c4b4c87
79241014,-0.12830846,1.15072,-20.826567,-1.572272,0.0,0.07740285,0.10094458,-2.0,0.21735387,0.29744035,-6.355843,0.0,0.0,0.0,2203,224c2092-44e1-4b73-879c-d0ad0c4b4c87
79340114,-0.12830846,1.15072,-21.01725,-1.572272,0.0,0.08744701,0.116499245,-2.0,0.23820223,0.28809592,-6.349842,0.0,0.0,0.0,2203,224c2092-44e1-4b73-879c-d0ad0c4b4c87
79440948,-0.12830846,1.15072,-21.209503,-1.572272,0.0,0.09627186,0.13000917,-2.0,0.25753942,0.28558415,-6.3417816,0.0,0.0,0.0,2203,224c2092-44e1-4b73-879c-d0ad0c4b4c87
79545494,-0.12830846,1.15072,-21.410965,-1.572272,0.0,0.10508658,0.14106703,-2.0,0.25275707,0.2771477,-6.3384557,0.0,0.0,0.0,2203,224c2092-44e1-4b73-879c-d0ad0c4b4c87
79648693,-0.12830846,1.15072,-21.612133,-1.572272,0.0,0.11313421,0.14927065,-2.0,0.26783052,0.2707213,-6.3363433,0.0,0.0,0.0,2203,224c2092-44e1-4b73-879c-d0ad0c4b4c87
79748163,-0.12830846,1.15072,-21.806942,-1.572272,0.0,0.12053751,0.15475112,-2.0,0.28024524,0.26089513,-6.3374047,0.0,0.0,0.0,2203,224c2092-44e1-4b73-879c-d0ad0c4b4c87
79852107,-0.12830846,1.15072,-22.010275,-1.572272,0.0,0.12789878,0.15800357,-2.0,0.26346597,0.24377824,-6.3396797,0.0,0.0,0.0,2203,224c2092-44e1-4b73-879c-d0ad0c4b4c87
79953492,-0.12830846,1.15072,-22.205532,-1.572272,0.0,0.13401347,0.15825444,-2.0,0.2660373,0.23529626,-6.3480663,0.0,0.0,0.0,2203,224c2092-44e1-4b73-879c-d0ad0c4b4c87
80056620,-0.12830846,1.15072,-22.407482,-1.572272,0.0,0.13856788,0.1566503,-2.0,0.26513022,0.22517003,-6.3437433,0.0,0.0,0.0,2203,224c2092-44e1-4b73-879c-d0ad0c4b4c87
80157774,-0.12830846,1.15072,-22.607813,-1.572272,0.0,0.14203884,0.15394056,-2.0,0.25968462,0.22814387,-6.323386,0.0,0.0,0.0,2203,224c2092-44e1-4b73-879c-d0ad0c4b4c87
80258203,-0.12830846,1.15072,-22.80411,-1.572272,0.0,0.14428537,0.15117162,-2.0,0.2525747,0.22932406,-6.3216305,0.0,0.0,0.0,2203,224c2092-44e1-4b73-879c-d0ad0c4b4c87
80357757,-0.12830846,1.15072,-22.998535,-1.572272,0.0,0.14607456,0.1476,-2.0,0.24932942,0.22897086,-6.317764,0.0,0.0,0.0,2203,224c2092-44e1-4b73-879c-d0ad0c4b4c87
80461742,-0.12830846,1.15072,-23.201035,-1.572272,0.0,0.14695537,0.14389801,-2.0,0.24821804,0.2498011,-6.3331943,0.0,0.0,0.0,2203,224c2092-44e1-4b73-879c-d0ad0c4b4c87
80562951,-0.12830846,1.15072,-23.398659,-1.572272,0.0,0.14736311,0.14130145,-2.0,0.25139335,0.24688199,-6.3363137,0.0,0.0,0.0,2203,224c2092-44e1-4b73-879c-d0ad0c4b4c87
80661815,-0.12830846,1.15072,-23.594294,-1.572272,0.0,0.14734729,0.1384973,-2.0,0.2505169,0.25367466,-6.3464413,0.0,0.0,0.0,2203,224c2092-44e1-4b73-879c-d0ad0c4b4c87
80765816,-0.12830846,1.15072,-23.79477,-1.572272,0.0,0.1471222,0.1358192,-2.0,0.25298145,0.23964924,-6.3536954,0.0,0.0,0.0,2203,224c2092-44e1-4b73-879c-d0ad0c4b4c87
80866492,-0.12830846,1.15072,-23.986397,-1.572272,0.0,0.14696454,0.13375175,-2.0,0.26120153,0.25141478,-6.362992,0.0,0.0,0.0,2203,224c2092-44e1-4b73-879c-d0ad0c4b4c87
80970476,-0.12830846,1.15072,-24.187984,-1.572272,0.0,0.14727174,0.13202548,-2.0,0.2714847,0.23977616,-6.3450756,0.0,0.0,0.0,2203,224c2092-44e1-4b73-879c-d0ad0c4b4c87
81074733,-0.12830846,1.15072,-24.389225,-1.572272,0.0,0.14833559,0.13042349,-2.0,0.27688703,0.25321853,-6.355125,0.0,0.0,0.0,2203,224c2092-44e1-4b73-879c-d0ad0c4b4c87
81175422,-0.12830846,1.15072,-24.591492,-1.572272,0.0,0.15057702,0.12829274,-2.0,0.28249758,0.2563328,-6.344742,0.0,0.0,0.0,2203,224c2092-44e1-4b73-879c-d0ad0c4b4c87
81276030,-0.12830846,1.15072,-24.796938,-1.572272,0.0,0.15332568,0.1257661,-2.0,0.2945405,0.24172115,-6.337325,0.0,0.0,0.0,2203,224c2092-44e1-4b73-879c-d0ad0c4b4c87
81379930,-0.12830846,1.15072,-25.008001,-1.572272,0.0,0.15666267,0.122651875,-2.0,0.31549865,0.22426593,-6.3512554,0.0,0.0,0.0,2203,224c2092-44e1-4b73-879c-d0ad0c4b4c87
81484188,-0.12830846,1.15072,-25.218155,-1.572272,0.0,0.16060242,0.11977744,-2.0,0.32731313,0.23103938,-6.3557134,0.0,0.0,0.0,2203,224c2092-44e1-4b73-879c-d0ad0c4b4c87
81583355,-0.12830846,1.15072,-25.417883,-1.572272,0.0,0.16460529,0.116440594,-2.0,0.32610032,0.22792488,-6.380209,0.0,0.0,0.0,2203,224c2092-44e1-4b73-879c-d0ad0c4b4c87
81687349,-0.12830846,1.15072,-25.628511,-1.572272,0.0,0.16877317,0.11327773,-2.0,0.34340754,0.25076953,-6.37998,0.0,0.0,0.0,2203,224c2092-44e1-4b73-879c-d0ad0c4b4c87
81788697,-0.12830846,1.15072,-25.830067,-1.572272,0.0,0.17201605,0.10993087,-2.0,0.32794103,0.23569855,-6.380614,0.0,0.0,0.0,2203,224c2092-44e1-4b73-879c-d0ad0c4b4c87
81887365,-0.12830846,1.15072,-26.027182,-1.572272,0.0,0.17440389,0.106378555,-2.0,0.3196038,0.24057683,-6.384715,0.0,0.0,0.0,2203,224c2092-44e1-4b73-879c-d0ad0c4b4c87
81991364,-0.12830846,1.15072,-26.231894,-1.572272,0.0,0.17487368,0.10409528,-2.0,0.3037286,0.27957013,-6.3886213,0.0,0.0,0.0,2203,224c2092-44e1-4b73-879c-d0ad0c4b4c87
82092220,-0.12830846,1.15072,-26.429888,-1.572272,0.0,0.17364231,0.10345566,-2.0,0.27575392,0.28248847,-6.3857546,0.0,0.0,0.0,2203,224c2092-44e1-4b73-879c-d0ad0c4b4c87
82192123,-0.12830846,1.15072,-26.630262,-1.572272,0.0,0.17021817,0.10379273,-2.0,0.26281008,0.30820075,-6.3874326,0.0,0.0,0.0,2203,224c2092-44e1-4b73-879c-d0ad0c4b4c87
82296065,-0.12830846,1.15072,-26.838776,-1.572272,0.0,0.1649934,0.1063993,-2.0,0.24263795,0.34732884,-6.384037,0.0,0.0,0.0,2203,224c2092-44e1-4b73-879c-d0ad0c4b4c87
82396690,-0.12830846,1.15072,-27.038937,-1.572272,0.0,0.15779735,0.11071247,-2.0,0.21161018,0.37766385,-6.358286,0.0,0.0,0.0,2203,224c2092-44e1-4b73-879c-d0ad0c4b4c87
82496138,-0.12830846,1.15072,-27.236698,-1.572272,0.0,0.15019105,0.11675924,-2.0,0.19893157,0.38223442,-6.363569,0.0,0.0,0.0,2203,224c2092-44e1-4b73-879c-d0ad0c4b4c87
82600147,-0.12830846,1.15072,-27.443363,-1.572272,0.0,0.14090782,0.12503707,-2.0,0.1776624,0.4263711,-6.3475447,0.0,0.0,0.0,2203,224c2092-44e1-4b73-879c-d0ad0c4b4c87
82700948,-0.12830846,1.15072,-27.641293,-1.572272,0.0,0.13141917,0.13410258,-2.0,0.18799423,0.4289081,-6.3397474,0.0,0.0,0.0,2203,224c2092-44e1-4b73-879c-d0ad0c4b4c87
82800277,-0.12830846,1.15072,-27.835238,-1.572272,0.0,0.121740684,0.14318937,-2.0,0.16423191,0.45761612,-6.3545766,0.0,0.0,0.0,2203,224c2092-44e1-4b73-879c-d0ad0c4b4c87
82904172,-0.12830846,1.15072,-28.035063,-1.572272,0.0,0.11105329,0.15263253,-2.0,0.15039986,0.4421711,-6.361454,0.0,0.0,0.0,2203,224c2092-44e1-4b73-879c-d0ad0c4b4c87
83005752,-0.12830846,1.15072,-28.221378,-1.572272,0.0,0.1002867,0.16049927,-2.0,0.13923173,0.44769254,-6.353543,0.0,0.0,0.0,2203,224c2092-44e1-4b73-879c-d0ad0c4b4c87
83109341,-0.12830846,1.15072,-28.414236,-1.572272,0.0,0.09016357,0.16718191,-2.0,0.13983339,0.44152746,-6.3670645,0.0,0.0,0.0,2203,224c2092-44e1-4b73-879c-d0ad0c4b4c87
83212818,-0.12830846,1.15072,-28.606749,-1.572272,0.0,0.08069971,0.17302036,-2.0,0.1050671,0.4478541,-6.3610826,0.0,0.0,0.0,2203,224c2092-44e1-4b73-879c-d0ad0c4b4c87
83312495,-0.12830846,1.15072,-28.793484,-1.572272,0.0,0.07208115,0.17703635,-2.0,0.10765804,0.44204974,-6.350914,0.0,0.0,0.0,2203,224c2092-44e1-4b73-879c-d0ad0c4b4c87
83413587,-0.12830846,1.15072,-28.981752,-1.572272,0.0,0.06369699,0.18018365,-2.0,0.115866385,0.4367795,-6.3385525,0.0,0.0,0.0,2203,224c2092-44e1-4b73-879c-d0ad0c4b4c87
83514288,-0.12830846,1.15072,-29.17124,-1.572272,0.0,0.056488685,0.18262696,-2.0,0.11679583,0.44695687,-6.3290133,0.0,0.0,0.0,2203,224c2092-44e1-4b73-879c-d0ad0c4b4c87
83613718,-0.12830846,1.15072,-29.362757,-1.572272,0.0,0.050980233,0.18377477,-2.0,0.110383764,0.44972658,-6.328531,0.0,0.0,0.0,2203,224c2092-44e1-4b73-879c-d0ad0c4b4c87
83714396,-0.12830846,1.15072,-29.55626,-1.572272,0.0,0.046360686,0.18415493,-2.0,0.108044036,0.44022557,-6.34054,0.0,0.0,0.0,2203,224c2092-44e1-4b73-879c-d0ad0c4b4c87
83818459,-0.12830846,1.15072,-29.760002,-1.572272,0.0,0.043564595,0.18237484,-2.0,0.1295693,0.43080047,-6.340405,0.0,0.0,0.0,2203,224c2092-44e1-4b73-879c-d0ad0c4b4c87
83917837,-0.12830846,1.15072,-29.956577,-1.572272,0.0,0.041598782,0.18003792,-2.0,0.13976644,0.42834708,-6.3533597,0.0,0.0,0.0,2203,224c2092-44e1-4b73-879c-d0ad0c4b4c87
84021827,-0.12830846,1.15072,-30.156076,-1.572272,0.0,0.040578827,0.17672575,-2.0,0.14237183,0.39847663,-6.3746133,0.0,0.0,0.0,2203,224c2092-44e1-4b73-879c-d0ad0c4b4c87
84122484,-0.12830846,1.15072,-30.34873,-1.572272,0.0,0.040864795,0.17247748,-2.0,0.1496238,0.40695298,-6.3905296,0.0,0.0,0.0,2203,224c2092-44e1-4b73-879c-d0ad0c4b4c87
84221796,-0.12830846,1.15072,-30.540253,-1.572272,0.0,0.042133167,0.16770047,-2.0,0.16166437,0.39499804,-6.3967586,0.0,0.0,0.0,2203,224c2092-44e1-4b73-879c-d0ad0c4b4c87
84325735,-0.12830846,1.15072,-30.739773,-1.572272,0.0,0.04478091,0.16222483,-2.0,0.18748273,0.37968776,-6.388585,0.0,0.0,0.0,2203,224c2092-44e1-4b73-879c-d0ad0c4b4c87
84427209,-0.12830846,1.15072,-30.933582,-1.572272,0.0,0.049483784,0.15643394,-2.0,0.19779037,0.38017508,-6.379536,0.0,0.0,0.0,2203,224c2092-44e1-4b73-879c-d0ad0c4b4c87
84528096,-0.12830846,1.15072,-31.123302,-1.572272,0.0,0.055008575,0.15058243,-2.0,0.20243397,0.38253254,-6.383791,0.0,0.0,0.0,2203,224c2092-44e1-4b73-879c-d0ad0c4b4c87
84627388,-0.12830846,1.15072,-31.307753,-1.572272,0.0,0.060498744,0.14528239,-2.0,0.20791082,0.36547348,-6.3835726,0.0,0.0,0.0,2203,224c2092-44e1-4b73-879c-d0ad0c4b4c87
84731775,-0.12830846,1.15072,-31.503077,-1.572272,0.0,0.06662006,0.13994014,-2.0,0.23120932,0.37881768,-6.3536315,0.0,0.0,0.0,2203,224c2092-44e1-4b73-879c-d0ad0c4b4c87
84831922,-0.12830846,1.15072,-31.691385,-1.572272,0.0,0.07208794,0.13538468,-2.0,0.22976266,0.39019608,-6.350795,0.0,0.0,0.0,2203,224c2092-44e1-4b73-879c-d0ad0c4b4c87
84935996,-0.12830846,1.15072,-31.88819,-1.572272,0.0,0.07701878,0.1314742,-2.0,0.20610799,0.38152903,-6.352041,0.0,0.0,0.0,2203,224c2092-44e1-4b73-879c-d0ad0c4b4c87
85040630,-0.12830846,1.15072,-32.085,-1.572272,0.0,0.08108094,0.12871939,-2.0,0.21764861,0.39883772,-6.357243,0.0,0.0,0.0,2203,224c2092-44e1-4b73-879c-d0ad0c4b4c87
85144063,-0.12830846,1.15072,-32.28391,-1.572272,0.0,0.08354317,0.12681162,-1.9999976,0.1997919,0.39573103,-6.369993,0.0,0.0,0.0,2203,224c2092-44e1-4b73-879c-d0ad0c4b4c87
85243308,-0.12830846,1.15072,-32.47646,-1.572272,0.0,0.08468583,0.12513864,-2.0,0.2044531,0.3821236,-6.3606973,0.0,0.0,0.0,2203,224c2092-44e1-4b73-879c-d0ad0c4b4c87
85347309,-0.12830846,1.15072,-32.676224,-1.572272,0.0,0.08544456,0.12290722,-2.0,0.21695666,0.37513438,-6.353425,0.0,0.0,0.0,2203,224c2092-44e1-4b73-879c-d0ad0c4b4c87
85449750,-0.12830846,1.15072,-32.87032,-1.572272,0.0,0.085930824,0.12012595,-1.9999976,0.21556672,0.37606034,-6.368574,0.0,0.0,0.0,2203,224c2092-44e1-4b73-879c-d0ad0c4b4c87
85549295,-0.12830846,1.15072,-33.06117,-1.572272,0.0,0.08647916,0.1175167,-1.9999976,0.22935237,0.3778134,-6.3748474,0.0,0.0,0.0,2203,224c2092-44e1-4b73-879c-d0ad0c4b4c87
85652931,-0.12830846,1.15072,-33.258667,-1.572272,0.0,0.087815836,0.11427373,-2.0,0.23893094,0.35619545,-6.3569765,0.0,0.0,0.0,2203,224c2092-44e1-4b73-879c-d0ad0c4b4c87
85753459,-0.12830846,1.15072,-33.44737,-1.572272,0.0,0.09016617,0.10955179,-1.9999976,0.2671164,0.3257624,-6.3406067,0.0,0.0,0.0,2203,224c2092-44e1-4b73-879c-d0ad0c4b4c87
85852931,-0.12830846,1.15072,-33.637863,-1.572272,0.0,0.09418273,0.103544176,-1.9999976,0.2813405,0.31430078,-6.3460345,0.0,0.0,0.0,2203,224c2092-44e1-4b73-879c-d0ad0c4b4c87
85957069,-0.12830846,1.15072,-33.836166,-1.572272,0.0,0.10070566,0.096523225,-1.9999976,0.34493196,0.3080406,-6.3382626,0.0,0.0,0.0,2203,224c2092-44e1-4b73-879c-d0ad0c4b4c87
86057553,-0.12830846,1.15072,-34.026516,-1.572272,0.0,0.10971692,0.08963299,-1.9999976,0.3596345,0.29614583,-6.3358645,0.0,0.0,0.0,2203,224c2092-44e1-4b73-879c-d0ad0c4b4c87
86157002,-0.12830846,1.15072,-34.218708,-1.572272,0.0,0.11988663,0.08231878,-1.9999976,0.38739878,0.29532182,-6.342874,0.0,0.0,0.0,2203,224c2092-44e1-4b73-879c-d0ad0c4b4c87
86260993,-0.12830846,1.15072,-34.41659,-1.572272,0.0,0.13147657,0.07512742,-1.9999976,0.4286172,0.29314333,-6.332322,0.0,0.0,0.0,2203,224c2092-44e1-4b73-879c-d0ad0c4b4c87
86361666,-0.12830846,1.15072,-34.60662,-1.572272,0.0,0.14343423,0.06949711,-1.9999976,0.439608,0.30281958,-6.321816,0.0,0.0,0.0,2203,224c2092-44e1-4b73-879c-d0ad0c4b4c87
86462601,-0.12830846,1.15072,-34.803513,-1.572272,0.0,0.15561852,0.06493878,-1.9999976,0.46510547,0.31728843,-6.32397,0.0,0.0,0.0,2203,224c2092-44e1-4b73-879c-d0ad0c4b4c87
86566729,-0.12830846,1.15072,-35.006817,-1.572272,0.0,0.16837099,0.061647177,-1.9999976,0.457955,0.3200739,-6.3282657,0.0,0.0,0.0,2203,224c2092-44e1-4b73-879c-d0ad0c4b4c87
86667173,-0.12830846,1.15072,-35.20198,-1.572272,0.0,0.17995504,0.060049653,-1.9999976,0.4782116,0.34638688,-6.31885,0.0,0.0,0.0,2203,224c2092-44e1-4b73-879c-d0ad0c4b4c87
86766594,-0.12830846,1.15072,-35.399387,-1.572272,0.0,0.1903095,0.060177147,-1.9999976,0.4860746,0.3526948,-6.318897,0.0,0.0,0.0,2203,224c2092-44e1-4b73-879c-d0ad0c4b4c87
86870546,-0.12830846,1.15072,-35.602787,-1.572272,0.0,0.19934085,0.061945796,-1.9999976,0.47021258,0.36392274,-6.3213744,0.0,0.0,0.0,2203,224c2092-44e1-4b73-879c-d0ad0c4b4c87
86971060,-0.12830846,1.15072,-35.798885,-1.572272,0.0,0.20633855,0.0646829,-1.9999976,0.4796496,0.37769234,-6.319465,0.0,0.0,0.0,2203,224c2092-44e1-4b73-879c-d0ad0c4b4c87
87070582,-0.12830846,1.15072,-35.993496,-1.572272,0.0,0.2115803,0.06830871,-1.9999976,0.48225498,0.3927825,-6.320448,0.0,0.0,0.0,2203,224c2092-44e1-4b73-879c-d0ad0c4b4c87
87174526,-0.12830846,1.15072,-36.198875,-1.572272,0.0,0.21585199,0.07238084,-1.9999976,0.47226936,0.39243296,-6.30696,0.0,0.0,0.0,2203,224c2092-44e1-4b73-879c-d0ad0c4b4c87
87275337,-0.12830846,1.15072,-36.396545,-1.572272,0.0,0.21890602,0.076666296,-1.9999976,0.46881863,0.40151483,-6.312509,0.0,0.0,0.0,2203,224c2092-44e1-4b73-879c-d0ad0c4b4c87
87379022,-0.12830846,1.15072,-36.598824,-1.572272,0.0,0.22084877,0.081555784,-1.9999976,0.479762,0.40205345,-6.2991557,0.0,0.0,0.0,2203,224c2092-44e1-4b73-879c-d0ad0c4b4c87
87480181,-0.12830846,1.15072,-36.798977,-1.572272,0.0,0.22109693,0.085412085,-1.9999976,0.4754989,0.41190836,-6.3008976,0.0,0.0,0.0,2203,224c2092-44e1-4b73-879c-d0ad0c4b4c87
87584234,-0.12830846,1.15072,-37.006,-1.572272,0.0,0.22028524,0.08951926,-1.9999976,0.47029027,0.42908424,-6.3020287,0.0,0.0,0.0,2203,224c2092-44e1-4b73-879c-d0ad0c4b4c87
87685302,-0.12830846,1.15072,-37.204746,-1.572272,0.0,0.21890649,0.09280944,-1.9999976,0.46736917,0.4299982,-6.2996597,0.0,0.0,0.0,2203,224c2092-44e1-4b73-879c-d0ad0c4b4c87
87789066,-0.12830846,1.15072,-37.414093,-1.572272,0.0,0.21631268,0.09506053,-1.9999976,0.4614895,0.4253252,-6.3043866,0.0,0.0,0.0,2203,224c2092-44e1-4b73-879c-d0ad0c4b4c87
87893051,-0.12830846,1.15072,-37.625443,-1.572272,0.0,0.2139391,0.096473694,-1.9999976,0.4520656,0.4030324,-6.2924333,0.0,0.0,0.0,2203,224c2092-44e1-4b73-879c-d0ad0c4b4c87
87992197,-0.12830846,1.15072,-37.827957,-1.572272,0.0,0.21100003,0.09750223,-1.9999976,0.45332637,0.4083051,-6.2961884,0.0,0.0,0.0,2203,224c2092-44e1-4b73-879c-d0ad0c4b4c87
88092887,-0.12830846,1.15072,-38.03023,-1.572272,0.0,0.20758227,0.097551584,-1.9999976,0.4478204,0.41817963,-6.2963247,0.0,0.0,0.0,2203,224c2092-44e1-4b73-879c-d0ad0c4b4c87
88196736,-0.12830846,1.15072,-38.242085,-1.572272,0.0,0.20427233,0.09653181,-1.9999976,0.45167556,0.40413973,-6.2830143,0.0,0.0,0.0,2203,224c2092-44e1-4b73-879c-d0ad0c4b4c87
88296119,-0.12830846,1.15072,-38.444935,-1.572272,0.0,0.20071459,0.09564471,-1.9999976,0.4459104,0.40618432,-6.285318,0.0,0.0,0.0,2203,224c2092-44e1-4b73-879c-d0ad0c4b4c87
88397415,-0.12830846,1.15072,-38.645493,-1.572272,0.0,0.19777355,0.0941906,-1.9999976,0.44125113,0.39752984,-6.284663,0.0,0.0,0.0,2203,224c2092-44e1-4b73-879c-d0ad0c4b4c87
88501797,-0.12830846,1.15072,-38.855896,-1.572272,0.0,0.19438964,0.092549086,-1.9999976,0.45754203,0.41078505,-6.2868037,0.0,0.0,0.0,2203,224c2092-44e1-4b73-879c-d0ad0c4b4c87
88602551,-0.12830846,1.15072,-39.054615,-1.572272,0.0,0.19129154,0.09056479,-1.9999976,0.46586287,0.40935576,-6.284919,0.0,0.0,0.0,2203,224c2092-44e1-4b73-879c-d0ad0c4b4c87
88701737,-0.12830846,1.15072,-39.2545,-1.572272,0.0,0.18880394,0.08898908,-1.9999976,0.4603338,0.41199395,-6.2858953,0.0,0.0,0.0,2203,224c2092-44e1-4b73-879c-d0ad0c4b4c87
88805765,-0.12830846,1.15072,-39.465782,-1.572272,0.0,0.18591684,0.08696365,-1.9999976,0.4498393,0.4105558,-6.292086,0.0,0.0,0.0,2203,224c2092-44e1-4b73-879c-d0ad0c4b4c87
88906350,-0.12830846,1.15072,-39.674828,-1.572272,0.0,0.18365526,0.08588898,-1.9999976,0.45654893,0.4125922,-6.281215,0.0,0.0,0.0,2203,224c2092-44e1-4b73-879c-d0ad0c4b4c87
89006129,-0.12830846,1.15072,-39.880352,-1.572272,0.0,0.1816219,0.08502656,-1.9999976,0.4645246,0.40962607,-6.2819157,0.0,0.0,0.0,2203,224c2092-44e1-4b73-879c-d0ad0c4b4c87
89109693,-0.12830846,1.15072,-40.08895,-1.572272,0.0,0.17975141,0.08426589,-1.9999976,0.44537908,0.41644648,-6.2986617,0.0,0.0,0.0,2203,224c2092-44e1-4b73-879c-d0ad0c4b4c87
89210268,-0.12830846,1.15072,-40.289898,-1.572272,0.0,0.17829739,0.082912624,-1.9999976,0.4515227,0.4204237,-6.297913,0.0,0.0,0.0,2203,224c2092-44e1-4b73-879c-d0ad0c4b4c87
89314372,-0.12830846,1.15072,-40.4984,-1.572272,0.0,0.1767844,0.08164269,-1.9999976,0.43951064,0.4187097,-6.289859,0.0,0.0,0.0,2203,224c2092-44e1-4b73-879c-d0ad0c4b4c87
89415727,-0.12830846,1.15072,-40.701263,-1.572272,0.0,0.17472494,0.08057749,-1.9999976,0.44148788,0.42333937,-6.289393,0.0,0.0,0.0,2203,224c2092-44e1-4b73-879c-d0ad0c4b4c87
89515993,-0.12830846,1.15072,-40.899426,-1.572272,0.0,0.17319457,0.07927555,-1.9999976,0.4464686,0.42331243,-6.2952423,0.0,0.0,0.0,2203,224c2092-44e1-4b73-879c-d0ad0c4b4c87
89615365,-0.12830846,1.15072,-41.10138,-1.572272,0.0,0.1713641,0.078578174,-1.9999976,0.4420943,0.4210419,-6.2949524,0.0,0.0,0.0,2203,224c2092-44e1-4b73-879c-d0ad0c4b4c87
89719328,-0.12830846,1.15072,-41.310627,-1.572272,0.0,0.16981086,0.077783704,-1.9999976,0.44717622,0.43105495,-6.279712,0.0,0.0,0.0,2203,224c2092-44e1-4b73-879c-d0ad0c4b4c87
89819989,-0.12830846,1.15072,-41.511696,-1.572272,0.0,0.16844752,0.07736975,-1.9999976,0.45350218,0.43477067,-6.2845445,0.0,0.0,0.0,2203,224c2092-44e1-4b73-879c-d0ad0c4b4c87
89919340,-0.12830846,1.15072,-41.708176,-1.572272,0.0,0.16625807,0.078005254,-1.9999976,0.447091,0.4330044,-6.293714,0.0,0.0,0.0,2203,224c2092-44e1-4b73-879c-d0ad0c4b4c87
90023397,-0.12830846,1.15072,-41.915882,-1.572272,0.0,0.16404209,0.07865918,-1.9999976,0.4520672,0.43974632,-6.2807508,0.0,0.0,0.0,2203,224c2092-44e1-4b73-879c-d0ad0c4b4c87
90123813,-0.12830846,1.15072,-42.114666,-1.572272,0.0,0.16240074,0.08002031,-1.9999976,0.44785878,0.44827878,-6.2767863,0.0,0.0,0.0,2203,224c2092-44e1-4b73-879c-d0ad0c4b4c87
90228072,-0.12830846,1.15072,-42.321648,-1.572272,0.0,0.16048327,0.08152717,-1.9999976,0.46099824,0.45063162,-6.2989507,0.0,0.0,0.0,2203,224c2092-44e1-4b73-879c-d0ad0c4b4c87
90332117,-0.12830846,1.15072,-42.528957,-1.572272,0.0,0.15878603,0.0826267,-1.9999976,0.44565177,0.44680506,-6.300624,0.0,0.0,0.0,2203,224c2092-44e1-4b73-879c-d0ad0c4b4c87
90433865,-0.12830846,1.15072,-42.731873,-1.572272,0.0,0.15709952,0.08354902,-1.9999976,0.45115462,0.4344648,-6.299819,0.0,0.0,0.0,2203,224c2092-44e1-4b73-879c-d0ad0c4b4c87
90533014,-0.12830846,1.15072,-42.926994,-1.572272,0.0,0.15504414,0.084438264,-1.9999976,0.45010868,0.44378278,-6.3037496,0.0,0.0,0.0,2203,224c2092-44e1-4b73-879c-d0ad0c4b4c87
90636892,-0.12830846,1.15072,-43.12676,-1.572272,0.0,0.15291187,0.08515173,-1.9999976,0.45224416,0.4548758,-6.294921,0.0,0.0,0.0,2203,224c2092-44e1-4b73-879c-d0ad0c4b4c87
90737669,-0.12830846,1.15072,-43.32158,-1.572272,0.0,0.15084338,0.08552456,-1.9999976,0.44668213,0.44318768,-6.290221,0.0,0.0,0.0,2203,224c2092-44e1-4b73-879c-d0ad0c4b4c87
90836928,-0.12830846,1.15072,-43.51388,-1.572272,0.0,0.1481933,0.08608675,-1.9999976,0.44214895,0.44999167,-6.299216,0.0,0.0,0.0,2203,224c2092-44e1-4b73-879c-d0ad0c4b4c87
90941077,-0.12830846,1.15072,-43.71106,-1.572272,0.0,0.1454604,0.08704734,-1.9999976,0.45133945,0.45145902,-6.287189,0.0,0.0,0.0,2203,224c2092-44e1-4b73-879c-d0ad0c4b4c87
91041648,-0.12830846,1.15072,-43.892815,-1.572272,0.0,0.143312,0.08790028,-1.9999976,0.45369726,0.45103672,-6.288888,0.0,0.0,0.0,2203,224c2092-44e1-4b73-879c-d0ad0c4b4c87
91141035,-0.12830846,1.15072,-44.077988,-1.572272,0.0,0.14089388,0.08869457,-1.9999976,0.44207132,0.45097798,-6.2893114,0.0,0.0,0.0,2203,224c2092-44e1-4b73-879c-d0ad0c4b4c87
91245140,-0.12830846,1.15072,-44.271767,-1.572272,0.0,0.13840929,0.089515865,-1.9999976,0.45868748,0.46651497,-6.2973204,0.0,0.0,0.0,2203,224c2092-44e1-4b73-879c-d0ad0c4b4c87
91345768,-0.12830846,1.15072,-44.46149,-1.572272,0.0,0.13659629,0.09014189,-1.9999976,0.4532247,0.46094903,-6.292915,0.0,0.0,0.0,2203,224c2092-44e1-4b73-879c-d0ad0c4b4c87
91446583,-0.12830846,1.15072,-44.659473,-1.572272,0.0,0.1348295,0.09082067,-1.9999976,0.4506628,0.46429554,-6.3058257,0.0,0.0,0.0,2203,224c2092-44e1-4b73-879c-d0ad0c4b4c87
91550673,-0.12830846,1.15072,-44.86151,-1.572272,0.0,0.13355821,0.09162372,-1.9999976,0.44535136,0.462633,-6.2966156,0.0,0.0,0.0,2203,224c2092-44e1-4b73-879c-d0ad0c4b4c87
91651310,-0.12830846,1.15072,-45.056576,-1.572272,0.0,0.13277978,0.09194273,-1.9999976,0.4459608,0.46317396,-6.298964,0.0,0.0,0.0,2203,224c2092-44e1-4b73-879c-d0ad0c4b4c87
91750731,-0.12830846,1.15072,-45.25277,-1.572272,0.0,0.13152091,0.09241533,-1.9999976,0.45216396,0.4570057,-6.3017726,0.0,0.0,0.0,2203,224c2092-44e1-4b73-879c-d0ad0c4b4c87
91854681,-0.12830846,1.15072,-45.45971,-1.572272,0.0,0.12987189,0.09305513,-1.9999976,0.45262775,0.4760407,-6.2853208,0.0,0.0,0.0,2203,224c2092-44e1-4b73-879c-d0ad0c4b4c87
91955271,-0.12830846,1.15072,-45.657536,-1.572272,0.0,0.12848592,0.09399837,-1.9999976,0.4466714,0.46651185,-6.2880383,0.0,0.0,0.0,2203,224c2092-44e1-4b73-879c-d0ad0c4b4c87
92054534,-0.12830846,1.15072,-45.854733,-1.572272,0.0,0.1269207,0.094575405,-1.9999976,0.44304335,0.47496927,-6.296657,0.0,0.0,0.0,2203,224c2092-44e1-4b73-879c-d0ad0c4b4c87
92158563,-0.12830846,1.15072,-46.060284,-1.572272,0.0,0.12520462,0.09488225,-1.9999976,0.45543462,0.467996,-6.283433,0.0,0.0,0.0,2203,224c2092-44e1-4b73-879c-d0ad0c4b4c87
92259357,-0.12830846,1.15072,-46.25684,-1.572272,0.0,0.1233579,0.09542924,-1.9999976,0.449322,0.45969477,-6.28576,0.0,0.0,0.0,2203,224c2092-44e1-4b73-879c-d0ad0c4b4c87
92359611,-0.12830846,1.15072,-46.4512,-1.572272,0.0,0.1213656,0.09535718,-1.9999976,0.4468463,0.45673537,-6.288864,0.0,0.0,0.0,2203,224c2092-44e1-4b73-879c-d0ad0c4b4c87
92460657,-0.12830846,1.15072,-46.64961,-1.572272,0.0,0.11934929,0.09521985,-1.9999976,0.44405022,0.4605269,-6.2854915,0.0,0.0,0.0,2203,224c2092-44e1-4b73-879c-d0ad0c4b4c87
92564793,-0.12830846,1.15072,-46.854404,-1.572272,0.0,0.11680274,0.09484577,-1.9999976,0.44739679,0.47423226,-6.293707,0.0,0.0,0.0,2203,224c2092-44e1-4b73-879c-d0ad0c4b4c87
92664177,-0.12830846,1.15072,-47.05255,-1.572272,0.0,0.114573196,0.09440249,-1.9999976,0.44200692,0.4705476,-6.2910724,0.0,0.0,0.0,2203,224c2092-44e1-4b73-879c-d0ad0c4b4c87
92768126,-0.12830846,1.15072,-47.2557,-1.572272,0.0,0.112062514,0.094282866,-1.9999976,0.43187994,0.46916658,-6.294553,0.0,0.0,0.0,2203,224c2092-44e1-4b73-879c-d0ad0c4b4c87
92868819,-0.12830846,1.15072,-47.44774,-1.572272,0.0,0.1094453,0.09427929,-1.9999976,0.42804286,0.46827006,-6.296683,0.0,0.0,0.0,2203,224c2092-44e1-4b73-879c-d0ad0c4b4c87
92968442,-0.12830846,1.15072,-47.63972,-1.572272,0.0,0.106684014,0.09409225,-1.9999976,0.4289779,0.4649876,-6.3001676,0.0,0.0,0.0,2203,224c2092-44e1-4b73-879c-d0ad0c4b4c87
93072184,-0.12830846,1.15072,-47.83835,-1.572272,0.0,0.10376584,0.094187915,-1.9999976,0.43043408,0.47401184,-6.2882924,0.0,0.0,0.0,2203,224c2092-44e1-4b73-879c-d0ad0c4b4c87
93172765,-0.12830846,1.15072,-48.031734,-1.572272,0.0,0.1009716,0.09435868,-1.9999976,0.4290864,0.46534756,-6.2946153,0.0,0.0,0.0,2203,224c2092-44e1-4b73-879c-d0ad0c4b4c87
93272233,-0.12830846,1.15072,-48.227646,-1.572272,0.0,0.09826237,0.09466696,-1.9999976,0.41823292,0.47211522,-6.29446,0.0,0.0,0.0,2203,224c2092-44e1-4b73-879c-d0ad0c4b4c87
93373762,-0.12830846,1.15072,-48.428383,-1.572272,0.0,0.09559898,0.09481162,-1.9999976,0.4197242,0.46511135,-6.2940774,0.0,0.0,0.0,2203,224c2092-44e1-4b73-879c-d0ad0c4b4c87
93477711,-0.12830846,1.15072,-48.62862,-1.572272,0.0,0.093075246,0.09494126,-1.9999976,0.4425143,0.48451787,-6.296716,0.0,0.0,0.0,2203,224c2092-44e1-4b73-879c-d0ad0c4b4c87
93578574,-0.12830846,1.15072,-48.82449,-1.572272,0.0,0.09139006,0.095282435,-1.9999976,0.43642065,0.47919697,-6.3015842,0.0,0.0,0.0,2203,224c2092-44e1-4b73-879c-d0ad0c4b4c87
93682419,-0.12830846,1.15072,-49.030518,-1.572272,0.0,0.08943636,0.095062315,-1.9999976,0.4326303,0.4854037,-6.313187,0.0,0.0,0.0,2203,224c2092-44e1-4b73-879c-d0ad0c4b4c87
93786328,-0.12830846,1.15072,-49.233562,-1.572272,0.0,0.08835684,0.094350815,-1.9999976,0.4266057,0.47072932,-6.3011594,0.0,0.0,0.0,2203,224c2092-44e1-4b73-879c-d0ad0c4b4c87
93885827,-0.12830846,1.15072,-49.431602,-1.572272,0.0,0.087478794,0.09378469,-1.9999976,0.43333152,0.47395283,-6.301179,0.0,0.0,0.0,2203,224c2092-44e1-4b73-879c-d0ad0c4b4c87
93989678,-0.12830846,1.15072,-49.640938,-1.572272,0.0,0.08726026,0.09336984,-1.9999976,0.45069617,0.46311662,-6.2973056,0.0,0.0,0.0,2203,224c2092-44e1-4b73-879c-d0ad0c4b4c87
94090527,-0.12830846,1.15072,-49.839436,-1.572272,0.0,0.08780761,0.09312433,-1.9999976,0.4505788,0.47352517,-6.301558,0.0,0.0,0.0,2203,224c2092-44e1-4b73-879c-d0ad0c4b4c87
94189772,-0.12830846,1.15072,-50.036434,-1.572272,0.0,0.08859202,0.0925321,-1.9999976,0.44730067,0.47698024,-6.300915,0.0,0.0,0.0,2203,224c2092-44e1-4b73-879c-d0ad0c4b4c87
94293742,-0.12830846,1.15072,-50.236145,-1.572272,0.0,0.08933571,0.09153843,-1.9999976,0.43804055,0.47362912,-6.317572,0.0,0.0,0.0,2203,224c2092-44e1-4b73-879c-d0ad0c4b4c87
94396168,-0.12830846,1.15072,-50.431072,-1.572272,0.0,0.0900372,0.09091991,-1.9999976,0.43334293,0.46619672,-6.3214383,0.0,0.0,0.0,2203,224c2092-44e1-4b73-879c-d0ad0c4b4c87
94500584,-0.12830846,1.15072,-50.632317,-1.572272,0.0,0.090535305,0.090302825,-1.9999976,0.43623957,0.4777132,-6.306131,0.0,0.0,0.0,2203,224c2092-44e1-4b73-879c-d0ad0c4b4c87
94599386,-0.12830846,1.15072,-50.826992,-1.572272,0.0,0.09058743,0.089458644,-1.9999976,0.43665883,0.47081918,-6.3092685,0.0,0.0,0.0,2203,224c2092-44e1-4b73-879c-d0ad0c4b4c87
94703808,-0.12830846,1.15072,-51.03016,-1.572272,0.0,0.0907151,0.089381576,-1.9999976,0.44115734,0.48141405,-6.301773,0.0,0.0,0.0,2203,224c2092-44e1-4b73-879c-d0ad0c4b4c87
94804247,-0.12830846,1.15072,-51.224174,-1.572272,0.0,0.09009737,0.08924031,-1.9999976,0.44302368,0.48246795,-6.3007684,0.0,0.0,0.0,2203,224c2092-44e1-4b73-879c-d0ad0c4b4c87
94903337,-0.12830846,1.15072,-51.419098,-1.572272,0.0,0.089276165,0.08897656,-1.9999976,0.44264194,0.48045173,-6.3032107,0.0,0.0,0.0,2203,224c2092-44e1-4b73-879c-d0ad0c4b4c87
95007320,-0.12830846,1.15072,-51.61969,-1.572272,0.0,0.08754379,0.08901733,-1.9999976,0.42340776,0.49394792,-6.316904,0.0,0.0,0.0,2203,224c2092-44e1-4b73-879c-d0ad0c4b4c87
95108580,-0.12830846,1.15072,-51.80908,-1.572272,0.0,0.086031675,0.089604914,-1.9999976,0.42291299,0.48952323,-6.3175592,0.0,0.0,0.0,2203,224c2092-44e1-4b73-879c-d0ad0c4b4c87
95212071,-0.12830846,1.15072,-52.006252,-1.572272,0.0,0.084035106,0.09001565,-1.9999976,0.41982344,0.48175764,-6.305417,0.0,0.0,0.0,2203,224c2092-44e1-4b73-879c-d0ad0c4b4c87
95315886,-0.12830846,1.15072,-52.202007,-1.572272,0.0,0.08198753,0.09066206,-1.9999976,0.43641588,0.4817497,-6.3082643,0.0,0.0,0.0,2203,224c2092-44e1-4b73-879c-d0ad0c4b4c87
95417614,-0.12830846,1.15072,-52.397488,-1.572272,0.0,0.080058955,0.09142095,-1.9999976,0.44381973,0.48962003,-6.3100667,0.0,0.0,0.0,2203,224c2092-44e1-4b73-879c-d0ad0c4b4c87
95516991,-0.12830846,1.15072,-52.592754,-1.572272,0.0,0.078652784,0.09131867,-1.9999976,0.4392116,0.4899638,-6.3070445,0.0,0.0,0.0,2203,224c2092-44e1-4b73-879c-d0ad0c4b4c87
95621000,-0.12830846,1.15072,-52.793407,-1.572272,0.0,0.07715707,0.09107226,-1.9999976,0.42764342,0.48520502,-6.3166986,0.0,0.0,0.0,2203,224c2092-44e1-4b73-879c-d0ad0c4b4c87
95721429,-0.12830846,1.15072,-52.988834,-1.572272,0.0,0.07636759,0.0905174,-1.9999976,0.42568636,0.48648763,-6.3165417,0.0,0.0,0.0,2203,224c2092-44e1-4b73-879c-d0ad0c4b4c87
95820872,-0.12830846,1.15072,-53.18889,-1.572272,0.0,0.0755452,0.089321494,-1.9999976,0.42986178,0.48427096,-6.310574,0.0,0.0,0.0,2203,224c2092-44e1-4b73-879c-d0ad0c4b4c87
95925042,-0.12830846,1.15072,-53.400867,-1.572272,0.0,0.07478546,0.08846676,-1.9999976,0.43092993,0.48487,-6.297456,0.0,0.0,0.0,2203,224c2092-44e1-4b73-879c-d0ad0c4b4c87
96025728,-0.12830846,1.15072,-53.60077,-1.572272,0.0,0.07428302,0.08745754,-1.9999976,0.4249278,0.48251244,-6.2983847,0.0,0.0,0.0,2203,224c2092-44e1-4b73-879c-d0ad0c4b4c87
96125010,-0.12830846,1.15072,-53.798294,-1.572272,0.0,0.07349905,0.086245,-1.9999976,0.42348552,0.4845116,-6.30382,0.0,0.0,0.0,2203,224c2092-44e1-4b73-879c-d0ad0c4b4c87
96228950,-0.12830846,1.15072,-54.005222,-1.572272,0.0,0.07211973,0.084825754,-1.9999976,0.43786177,0.47859737,-6.3011785,0.0,0.0,0.0,2203,224c2092-44e1-4b73-879c-d0ad0c4b4c87
96330510,-0.12830846,1.15072,-54.2057,-1.572272,0.0,0.07019283,0.08337271,-1.9999976,0.43597102,0.47765127,-6.298953,0.0,0.0,0.0,2203,224c2092-44e1-4b73-879c-d0ad0c4b4c87
96431448,-0.12830846,1.15072,-54.402603,-1.572272,0.0,0.068820365,0.08158028,-1.9999976,0.4343551,0.48352933,-6.303096,0.0,0.0,0.0,2203,224c2092-44e1-4b73-879c-d0ad0c4b4c87
96535906,-0.12830846,1.15072,-54.609013,-1.572272,0.0,0.06711741,0.07928842,-1.9999976,0.42497873,0.47965783,-6.3176975,0.0,0.0,0.0,2203,224c2092-44e1-4b73-879c-d0ad0c4b4c87
96638923,-0.12830846,1.15072,-54.81698,-1.572272,0.0,0.06546521,0.077215254,-1.9999976,0.4287774,0.47683692,-6.302898,0.0,0.0,0.0,2203,224c2092-44e1-4b73-879c-d0ad0c4b4c87
96738552,-0.12830846,1.15072,-55.013752,-1.572272,0.0,0.06362352,0.07550937,-1.9999976,0.41855714,0.46880078,-6.308742,0.0,0.0,0.0,2203,224c2092-44e1-4b73-879c-d0ad0c4b4c87
96842626,-0.12830846,1.15072,-55.21333,-1.572272,0.0,0.061835088,0.07391435,-1.9999976,0.4403422,0.47815338,-6.312588,0.0,0.0,0.0,2203,224c2092-44e1-4b73-879c-d0ad0c4b4c87
96943286,-0.12830846,1.15072,-55.40003,-1.572272,0.0,0.060153075,0.07248008,-1.9999976,0.44021702,0.47603938,-6.3122106,0.0,0.0,0.0,2203,224c2092-44e1-4b73-879c-d0ad0c4b4c87
97042641,-0.12830846,1.15072,-55.58882,-1.572272,0.0,0.05833532,0.07116133,-1.9999976,0.43730205,0.4790371,-6.3139873,0.0,0.0,0.0,2203,224c2092-44e1-4b73-879c-d0ad0c4b4c87
97146547,-0.12830846,1.15072,-55.785084,-1.572272,0.0,0.05680494,0.07044697,-1.9999976,0.42008236,0.49019164,-6.326695,0.0,0.0,0.0,2203,224c2092-44e1-4b73-879c-d0ad0c4b4c87
97247408,-0.12830846,1.15072,-55.974834,-1.572272,0.0,0.055155873,0.070340395,-1.9999976,0.41781086,0.48671043,-6.3265367,0.0,0.0,0.0,2203,224c2092-44e1-4b73-879c-d0ad0c4b4c87
97348510,-0.12830846,1.15072,-56.172077,-1.572272,0.0,0.052936144,0.0702517,-1.9999976,0.41905835,0.48719025,-6.323679,0.0,0.0,0.0,2203,224c2092-44e1-4b73-879c-d0ad0c4b4c87
97448641,-0.12830846,1.15072,-56.364845,-1.572272,0.0,0.050588027,0.07027137,-1.9999976,0.41151762,0.47850114,-6.325412,0.0,0.0,0.0,2203,224c2092-44e1-4b73-879c-d0ad0c4b4c87
97552891,-0.12830846,1.15072,-56.560257,-1.572272,0.0,0.04831472,0.069897115,-1.9999976,0.42857373,0.48704508,-6.3248906,0.0,0.0,0.0,2203,224c2092-44e1-4b73-879c-d0ad0c4b4c87
97652274,-0.12830846,1.15072,-56.74953,-1.572272,0.0,0.045970537,0.06950641,-1.9999976,0.4223702,0.4901487,-6.326211,0.0,0.0,0.0,2203,224c2092-44e1-4b73-879c-d0ad0c4b4c87
97756157,-0.12830846,1.15072,-56.949223,-1.572272,0.0,0.043545127,0.06917757,-1.9999976,0.41037276,0.48858723,-6.3343196,0.0,0.0,0.0,2203,224c2092-44e1-4b73-879c-d0ad0c4b4c87
97856735,-0.12830846,1.15072,-57.139908,-1.572272,0.0,0.041586958,0.06856853,-1.9999976,0.414672,0.4867225,-6.3329062,0.0,0.0,0.0,2203,224c2092-44e1-4b73-879c-d0ad0c4b4c87
97956141,-0.12830846,1.15072,-57.3287,-1.572272,0.0,0.039800473,0.06748223,-1.9999976,0.41931984,0.48175538,-6.3338284,0.0,0.0,0.0,2203,224c2092-44e1-4b73-879c-d0ad0c4b4c87
98060269,-0.12830846,1.15072,-57.523727,-1.572272,0.0,0.03832166,0.066321015,-1.9999976,0.40637028,0.47776413,-6.330981,0.0,0.0,0.0,2203,224c2092-44e1-4b73-879c-d0ad0c4b4c87
98161056,-0.12830846,1.15072,-57.714893,-1.572272,0.0,0.037395023,0.06522828,-1.9999976,0.40901873,0.4747551,-6.3342133,0.0,0.0,0.0,2203,224c2092-44e1-4b73-879c-d0ad0c4b4c87
98260106,-0.12830846,1.15072,-57.90562,-1.572272,0.0,0.03644655,0.0639925,-1.9999976,0.41829097,0.47527805,-6.3299108,0.0,0.0,0.0,2203,224c2092-44e1-4b73-879c-d0ad0c4b4c87
98362499,-0.12830846,1.15072,-58.098183,-1.572272,0.0,0.03568214,0.06300813,-1.9999976,0.40665686,0.4763178,-6.3289785,0.0,0.0,0.0,2203,224c2092-44e1-4b73-879c-d0ad0c4b4c87
98466625,-0.12830846,1.15072,-58.297417,-1.572272,0.0,0.03465707,0.06176251,-1.9999976,0.41804573,0.48036417,-6.3306236,0.0,0.0,0.0,2203,224c2092-44e1-4b73-879c-d0ad0c4b4c87
98565826,-0.12830846,1.15072,-58.489902,-1.572272,0.0,0.03382487,0.060478806,-1.9999976,0.41811323,0.48735455,-6.330416,0.0,0.0,0.0,2203,224c2092-44e1-4b73-879c-d0ad0c4b4c87
98666347,-0.12830846,1.15072,-58.682663,-1.572272,0.0,0.033329085,0.059231758,-1.9999976,0.41461673,0.48580277,-6.330262,0.0,0.0,0.0,2203,224c2092-44e1-4b73-879c-d0ad0c4b4c87
98770544,-0.12830846,1.15072,-58.88549,-1.572272,0.0,0.03269758,0.057896733,-1.9999976,0.41223726,0.4709022,-6.332547,0.0,0.0,0.0,2203,224c2092-44e1-4b73-879c-d0ad0c4b4c87
98869709,-0.12830846,1.15072,-59.082226,-1.572272,0.0,0.032407187,0.056576192,-1.9999976,0.41002196,0.47978073,-6.3326607,0.0,0.0,0.0,2203,224c2092-44e1-4b73-879c-d0ad0c4b4c87
98973714,-0.12830846,1.15072,-59.285713,-1.572272,0.0,0.032666042,0.055690885,-1.9999976,0.41794232,0.4714823,-6.317668,0.0,0.0,0.0,2203,224c2092-44e1-4b73-879c-d0ad0c4b4c87
99074239,-0.12830846,1.15072,-59.38749,-1.572272,0.0,0.032965913,0.055434644,-1.8807212,0.41758573,0.47338638,-6.1045074,0.0,0.0,0.0,2203,224c2092-44e1-4b73-879c-d0ad0c4b4c87
99173765,-0.12830846,1.15072,-59.480507,-1.572272,0.0,0.03320709,0.055197716,-1.7534359,0.4165353,0.48052657,-5.9576855,0.0,0.0,0.0,2203,224c2092-44e1-4b73-879c-d0ad0c4b4c87
99278550,-0.12830846,1.15072,-59.572544,-1.572272,0.0,0.03398113,0.054711163,-1.6274894,0.42836255,0.47841805,-5.8892784,0.0,0.0,0.0,2203,224c2092-44e1-4b73-879c-d0ad0c4b4c87
99380295,-0.12830846,1.15072,-59.656063,-1.572272,0.0,0.034946814,0.05409783,-1.513197,0.41214463,0.47505957,-5.8497624,0.0,0.0,0.0,2203,224c2092-44e1-4b73-879c-d0ad0c4b4c87
99484255,-0.12830846,1.15072,-59.737263,-1.572272,0.0,0.035883084,0.0533579,-1.4020832,0.41305536,0.46335256,-5.8267384,0.0,0.0,0.0,2203,224c2092-44e1-4b73-879c-d0ad0c4b4c87
99583738,-0.12830846,1.15072,-59.81037,-1.572272,0.0,0.036478445,0.052655876,-1.3020431,0.43382624,0.4832396,-5.829159,0.0,0.0,0.0,2203,224c2092-44e1-4b73-879c-d0ad0c4b4c87
99687404,-0.12830846,1.15072,-59.88148,-1.572272,0.0,0.036934063,0.052047372,-1.2047305,0.4239213,0.49088028,-5.8234925,0.0,0.0,0.0,2203,224c2092-44e1-4b73-879c-d0ad0c4b4c87
99787817,-0.12830846,1.15072,-59.944435,-1.572272,0.0,0.037174433,0.05086577,-1.118586,0.4011105,0.46960136,-5.8191195,0.0,0.0,0.0,2203,224c2092-44e1-4b73-879c-d0ad0c4b4c87
99887729,-0.12830846,1.15072,-60.006298,-1.572272,0.0,0.03628926,0.049722433,-1.033929,0.41501728,0.48045987,-5.826312,0.0,0.0,0.0,2203,224c2092-44e1-4b73-879c-d0ad0c4b4c87
99991391,-0.12830846,1.15072,-60.066887,-1.572272,0.0,0.03501217,0.048687994,-0.9510128,0.41108498,0.48977515,-5.824593,0.0,0.0,0.0,2203,224c2092-44e1-4b73-879c-d0ad0c4b4c87
100091997,-0.12830846,1.15072,-60.120758,-1.572272,0.0,0.033402443,0.047655344,-0.8772957,0.3965595,0.4846309,-5.8232408,0.0,0.0,0.0,2203,224c2092-44e1-4b73-879c-d0ad0c4b4c87
100196439,-0.12830846,1.15072,-60.17359,-1.572272,0.0,0.031043865,0.04692185,-0.8050018,0.3869155,0.47060472,-5.8288903,0.0,0.0,0.0,2203,224c2092-44e1-4b73-879c-d0ad0c4b4c87
100297670,-0.12830846,1.15072,-60.221336,-1.572272,0.0,0.027339712,0.0457626,-0.73966557,0.38906863,0.49467304,-5.8431573,0.0,0.0,0.0,2203,224c2092-44e1-4b73-879c-d0ad0c4b4c87
100402206,-0.11456082,1.1155419,-60.46186,-1.1981683,0.0,0.044546206,-0.007833302,-0.9338047,0.4099279,0.44442442,-6.3063507,0.0,0.0,0.0,2203,224c2092-44e1-4b73-879c-d0ad0c4b4c87
100500950,-0.101824865,1.0829525,-60.46186,-1.1981732,0.0,0.060499437,-0.054667175,-0.82297856,0.4377752,0.43893832,-5.9567766,0.0,0.0,0.0,2203,224c2092-44e1-4b73-879c-d0ad0c4b4c87
100605102,-0.08802586,1.047643,-60.46186,-1.1981769,0.0,0.07756096,-0.10392201,-0.7041187,0.46192306,0.3446463,-5.781664,0.0,0.0,0.0,2203,224c2092-44e1-4b73-879c-d0ad0c4b4c87
100709363,-0.073674396,1.0109196,-60.46186,-1.1981802,0.0,0.0952019,-0.15293294,-0.59524155,0.4745896,0.320071,-5.745025,0.0,0.0,0.0,2203,224c2092-44e1-4b73-879c-d0ad0c4b4c87
100810025,0.04235457,0.71401906,-60.46186,-1.1981792,0.0,0.26670602,-0.5887774,-0.5056999,0.70150155,-0.24089305,-5.750599,0.0,0.0,0.0,2203,224c2092-44e1-4b73-879c-d0ad0c4b4c87
