timestamp,noutputs,output0,output1,output2,output3,output4,output5,output6,output7,output8,output9,output10,output11,output12,output13,output14,output15,basestation,flight_number
59509351,8,1075.0,1075.0,1075.0,1075.0,1500.0,1500.0,0.0,0.0,0.0,0.0,0.0,0.0,0.0,0.0,0.0,0.0,2203,224c2092-44e1-4b73-879c-d0ad0c4b4c87
59625053,8,1075.0,1075.0,1075.0,1075.0,1500.0,1500.0,0.0,0.0,0.0,0.0,0.0,0.0,0.0,0.0,0.0,0.0,2203,224c2092-44e1-4b73-879c-d0ad0c4b4c87
59717086,8,1075.0,1075.0,1075.0,1075.0,1500.0,1500.0,0.0,0.0,0.0,0.0,0.0,0.0,0.0,0.0,0.0,0.0,2203,224c2092-44e1-4b73-879c-d0ad0c4b4c87
59825306,8,1179.0,1179.0,1179.0,1179.0,1500.0,1500.0,0.0,0.0,0.0,0.0,0.0,0.0,0.0,0.0,0.0,0.0,2203,224c2092-44e1-4b73-879c-d0ad0c4b4c87
59929462,8,1179.0,1179.0,1179.0,1179.0,1500.0,1500.0,0.0,0.0,0.0,0.0,0.0,0.0,0.0,0.0,0.0,0.0,2203,224c2092-44e1-4b73-879c-d0ad0c4b4c87
60021129,8,1179.0,1179.0,1179.0,1179.0,1500.0,1500.0,0.0,0.0,0.0,0.0,0.0,0.0,0.0,0.0,0.0,0.0,2203,224c2092-44e1-4b73-879c-d0ad0c4b4c87
60122951,8,1179.0,1179.0,1179.0,1179.0,1500.0,1500.0,0.0,0.0,0.0,0.0,0.0,0.0,0.0,0.0,0.0,0.0,2203,224c2092-44e1-4b73-879c-d0ad0c4b4c87
60230985,8,1179.0,1179.0,1179.0,1179.0,1500.0,1500.0,0.0,0.0,0.0,0.0,0.0,0.0,0.0,0.0,0.0,0.0,2203,224c2092-44e1-4b73-879c-d0ad0c4b4c87
60334722,8,1179.0,1179.0,1179.0,1179.0,1500.0,1500.0,0.0,0.0,0.0,0.0,0.0,0.0,0.0,0.0,0.0,0.0,2203,224c2092-44e1-4b73-879c-d0ad0c4b4c87
60426950,8,1179.0,1179.0,1179.0,1179.0,1500.0,1500.0,0.0,0.0,0.0,0.0,0.0,0.0,0.0,0.0,0.0,0.0,2203,224c2092-44e1-4b73-879c-d0ad0c4b4c87
60534664,8,1179.0,1179.0,1179.0,1179.0,1500.0,1500.0,0.0,0.0,0.0,0.0,0.0,0.0,0.0,0.0,0.0,0.0,2203,224c2092-44e1-4b73-879c-d0ad0c4b4c87
60642663,8,1179.0,1179.0,1179.0,1179.0,1500.0,1500.0,0.0,0.0,0.0,0.0,0.0,0.0,0.0,0.0,0.0,0.0,2203,224c2092-44e1-4b73-879c-d0ad0c4b4c87
60738618,8,1179.0,1179.0,1179.0,1179.0,1500.0,1500.0,0.0,0.0,0.0,0.0,0.0,0.0,0.0,0.0,0.0,0.0,2203,224c2092-44e1-4b73-879c-d0ad0c4b4c87
60850706,8,1179.0,1179.0,1179.0,1179.0,1500.0,1500.0,0.0,0.0,0.0,0.0,0.0,0.0,0.0,0.0,0.0,0.0,2203,224c2092-44e1-4b73-879c-d0ad0c4b4c87
60942909,8,1179.0,1179.0,1179.0,1179.0,1500.0,1500.0,0.0,0.0,0.0,0.0,0.0,0.0,0.0,0.0,0.0,0.0,2203,224c2092-44e1-4b73-879c-d0ad0c4b4c87
61034675,8,1179.0,1179.0,1179.0,1179.0,1500.0,1500.0,0.0,0.0,0.0,0.0,0.0,0.0,0.0,0.0,0.0,0.0,2203,224c2092-44e1-4b73-879c-d0ad0c4b4c87
61144655,8,1179.0,1179.0,1179.0,1179.0,1500.0,1500.0,0.0,0.0,0.0,0.0,0.0,0.0,0.0,0.0,0.0,0.0,2203,224c2092-44e1-4b73-879c-d0ad0c4b4c87
61256273,8,1179.0,1179.0,1179.0,1179.0,1500.0,1500.0,0.0,0.0,0.0,0.0,0.0,0.0,0.0,0.0,0.0,0.0,2203,224c2092-44e1-4b73-879c-d0ad0c4b4c87
61340298,8,1179.0,1179.0,1179.0,1179.0,1500.0,1500.0,0.0,0.0,0.0,0.0,0.0,0.0,0.0,0.0,0.0,0.0,2203,224c2092-44e1-4b73-879c-d0ad0c4b4c87
61456453,8,1179.0,1179.0,1179.0,1179.0,1500.0,1500.0,0.0,0.0,0.0,0.0,0.0,0.0,0.0,0.0,0.0,0.0,2203,224c2092-44e1-4b73-879c-d0ad0c4b4c87
61548534,8,1179.0,1179.0,1179.0,1179.0,1500.0,1500.0,0.0,0.0,0.0,0.0,0.0,0.0,0.0,0.0,0.0,0.0,2203,224c2092-44e1-4b73-879c-d0ad0c4b4c87
61656548,8,1179.0,1179.0,1179.0,1179.0,1500.0,1500.0,0.0,0.0,0.0,0.0,0.0,0.0,0.0,0.0,0.0,0.0,2203,224c2092-44e1-4b73-879c-d0ad0c4b4c87
61760532,8,1179.0,1179.0,1179.0,1179.0,1500.0,1500.0,0.0,0.0,0.0,0.0,0.0,0.0,0.0,0.0,0.0,0.0,2203,224c2092-44e1-4b73-879c-d0ad0c4b4c87
61864530,8,1179.0,1179.0,1179.0,1179.0,1500.0,1500.0,0.0,0.0,0.0,0.0,0.0,0.0,0.0,0.0,0.0,0.0,2203,224c2092-44e1-4b73-879c-d0ad0c4b4c87
61952582,8,1179.0,1179.0,1179.0,1179.0,1500.0,1500.0,0.0,0.0,0.0,0.0,0.0,0.0,0.0,0.0,0.0,0.0,2203,224c2092-44e1-4b73-879c-d0ad0c4b4c87
62056527,8,1179.0,1179.0,1179.0,1179.0,1500.0,1500.0,0.0,0.0,0.0,0.0,0.0,0.0,0.0,0.0,0.0,0.0,2203,224c2092-44e1-4b73-879c-d0ad0c4b4c87
62161898,8,1179.0,1179.0,1179.0,1179.0,1500.0,1500.0,0.0,0.0,0.0,0.0,0.0,0.0,0.0,0.0,0.0,0.0,2203,224c2092-44e1-4b73-879c-d0ad0c4b4c87
62274126,8,1179.0,1179.0,1179.0,1179.0,1500.0,1500.0,0.0,0.0,0.0,0.0,0.0,0.0,0.0,0.0,0.0,0.0,2203,224c2092-44e1-4b73-879c-d0ad0c4b4c87
62358008,8,1179.0,1179.0,1179.0,1179.0,1500.0,1500.0,0.0,0.0,0.0,0.0,0.0,0.0,0.0,0.0,0.0,0.0,2203,224c2092-44e1-4b73-879c-d0ad0c4b4c87
62465919,8,1179.0,1179.0,1179.0,1179.0,1500.0,1500.0,0.0,0.0,0.0,0.0,0.0,0.0,0.0,0.0,0.0,0.0,2203,224c2092-44e1-4b73-879c-d0ad0c4b4c87
62578131,8,1179.0,1179.0,1179.0,1179.0,1500.0,1500.0,0.0,0.0,0.0,0.0,0.0,0.0,0.0,0.0,0.0,0.0,2203,224c2092-44e1-4b73-879c-d0ad0c4b4c87
62665911,8,1179.0,1179.0,1179.0,1179.0,1500.0,1500.0,0.0,0.0,0.0,0.0,0.0,0.0,0.0,0.0,0.0,0.0,2203,224c2092-44e1-4b73-879c-d0ad0c4b4c87
62778246,8,1179.0,1179.0,1179.0,1179.0,1500.0,1500.0,0.0,0.0,0.0,0.0,0.0,0.0,0.0,0.0,0.0,0.0,2203,224c2092-44e1-4b73-879c-d0ad0c4b4c87
62862136,8,1179.0,1179.0,1179.0,1179.0,1500.0,1500.0,0.0,0.0,0.0,0.0,0.0,0.0,0.0,0.0,0.0,0.0,2203,224c2092-44e1-4b73-879c-d0ad0c4b4c87
62973890,8,1179.0,1179.0,1179.0,1179.0,1500.0,1500.0,0.0,0.0,0.0,0.0,0.0,0.0,0.0,0.0,0.0,0.0,2203,224c2092-44e1-4b73-879c-d0ad0c4b4c87
63085858,8,1179.0,1179.0,1179.0,1179.0,1500.0,1500.0,0.0,0.0,0.0,0.0,0.0,0.0,0.0,0.0,0.0,0.0,2203,224c2092-44e1-4b73-879c-d0ad0c4b4c87
63166955,8,1179.0,1179.0,1179.0,1179.0,1500.0,1500.0,0.0,0.0,0.0,0.0,0.0,0.0,0.0,0.0,0.0,0.0,2203,224c2092-44e1-4b73-879c-d0ad0c4b4c87
63278690,8,1179.0,1179.0,1179.0,1179.0,1500.0,1500.0,0.0,0.0,0.0,0.0,0.0,0.0,0.0,0.0,0.0,0.0,2203,224c2092-44e1-4b73-879c-d0ad0c4b4c87
63390996,8,1179.0,1179.0,1179.0,1179.0,1500.0,1500.0,0.0,0.0,0.0,0.0,0.0,0.0,0.0,0.0,0.0,0.0,2203,224c2092-44e1-4b73-879c-d0ad0c4b4c87
63482797,8,1179.0,1179.0,1179.0,1179.0,1500.0,1500.0,0.0,0.0,0.0,0.0,0.0,0.0,0.0,0.0,0.0,0.0,2203,224c2092-44e1-4b73-879c-d0ad0c4b4c87
63594952,8,1179.0,1179.0,1179.0,1179.0,1500.0,1500.0,0.0,0.0,0.0,0.0,0.0,0.0,0.0,0.0,0.0,0.0,2203,224c2092-44e1-4b73-879c-d0ad0c4b4c87
63682944,8,1179.0,1179.0,1179.0,1179.0,1500.0,1500.0,0.0,0.0,0.0,0.0,0.0,0.0,0.0,0.0,0.0,0.0,2203,224c2092-44e1-4b73-879c-d0ad0c4b4c87
63791014,8,1179.0,1179.0,1179.0,1179.0,1500.0,1500.0,0.0,0.0,0.0,0.0,0.0,0.0,0.0,0.0,0.0,0.0,2203,224c2092-44e1-4b73-879c-d0ad0c4b4c87
63902922,8,1179.0,1179.0,1179.0,1179.0,1500.0,1500.0,0.0,0.0,0.0,0.0,0.0,0.0,0.0,0.0,0.0,0.0,2203,224c2092-44e1-4b73-879c-d0ad0c4b4c87
63998958,8,1179.0,1179.0,1179.0,1179.0,1500.0,1500.0,0.0,0.0,0.0,0.0,0.0,0.0,0.0,0.0,0.0,0.0,2203,224c2092-44e1-4b73-879c-d0ad0c4b4c87
64086963,8,1179.0,1179.0,1179.0,1179.0,1500.0,1500.0,0.0,0.0,0.0,0.0,0.0,0.0,0.0,0.0,0.0,0.0,2203,224c2092-44e1-4b73-879c-d0ad0c4b4c87
64198941,8,1179.0,1179.0,1179.0,1179.0,1500.0,1500.0,0.0,0.0,0.0,0.0,0.0,0.0,0.0,0.0,0.0,0.0,2203,224c2092-44e1-4b73-879c-d0ad0c4b4c87
64306934,8,1179.0,1179.0,1179.0,1179.0,1500.0,1500.0,0.0,0.0,0.0,0.0,0.0,0.0,0.0,0.0,0.0,0.0,2203,224c2092-44e1-4b73-879c-d0ad0c4b4c87
64398978,8,1179.0,1179.0,1179.0,1179.0,1500.0,1500.0,0.0,0.0,0.0,0.0,0.0,0.0,0.0,0.0,0.0,0.0,2203,224c2092-44e1-4b73-879c-d0ad0c4b4c87
64504284,8,1179.0,1179.0,1179.0,1179.0,1500.0,1500.0,0.0,0.0,0.0,0.0,0.0,0.0,0.0,0.0,0.0,0.0,2203,224c2092-44e1-4b73-879c-d0ad0c4b4c87
64592273,8,1179.0,1179.0,1179.0,1179.0,1500.0,1500.0,0.0,0.0,0.0,0.0,0.0,0.0,0.0,0.0,0.0,0.0,2203,224c2092-44e1-4b73-879c-d0ad0c4b4c87
64708177,8,1179.0,1179.0,1179.0,1179.0,1500.0,1500.0,0.0,0.0,0.0,0.0,0.0,0.0,0.0,0.0,0.0,0.0,2203,224c2092-44e1-4b73-879c-d0ad0c4b4c87
64796508,8,1179.0,1179.0,1179.0,1179.0,1500.0,1500.0,0.0,0.0,0.0,0.0,0.0,0.0,0.0,0.0,0.0,0.0,2203,224c2092-44e1-4b73-879c-d0ad0c4b4c87
64908308,8,1179.0,1179.0,1179.0,1179.0,1500.0,1500.0,0.0,0.0,0.0,0.0,0.0,0.0,0.0,0.0,0.0,0.0,2203,224c2092-44e1-4b73-879c-d0ad0c4b4c87
64996552,8,1179.0,1179.0,1179.0,1179.0,1500.0,1500.0,0.0,0.0,0.0,0.0,0.0,0.0,0.0,0.0,0.0,0.0,2203,224c2092-44e1-4b73-879c-d0ad0c4b4c87
65108314,8,1179.0,1179.0,1179.0,1179.0,1500.0,1500.0,0.0,0.0,0.0,0.0,0.0,0.0,0.0,0.0,0.0,0.0,2203,224c2092-44e1-4b73-879c-d0ad0c4b4c87
65220227,8,1179.0,1179.0,1179.0,1179.0,1500.0,1500.0,0.0,0.0,0.0,0.0,0.0,0.0,0.0,0.0,0.0,0.0,2203,224c2092-44e1-4b73-879c-d0ad0c4b4c87
65308284,8,1179.0,1179.0,1179.0,1179.0,1500.0,1500.0,0.0,0.0,0.0,0.0,0.0,0.0,0.0,0.0,0.0,0.0,2203,224c2092-44e1-4b73-879c-d0ad0c4b4c87
65424532,8,1179.0,1179.0,1179.0,1179.0,1500.0,1500.0,0.0,0.0,0.0,0.0,0.0,0.0,0.0,0.0,0.0,0.0,2203,224c2092-44e1-4b73-879c-d0ad0c4b4c87
65509821,8,1179.0,1179.0,1179.0,1179.0,1500.0,1500.0,0.0,0.0,0.0,0.0,0.0,0.0,0.0,0.0,0.0,0.0,2203,224c2092-44e1-4b73-879c-d0ad0c4b4c87
65626174,8,1179.0,1179.0,1179.0,1179.0,1500.0,1500.0,0.0,0.0,0.0,0.0,0.0,0.0,0.0,0.0,0.0,0.0,2203,224c2092-44e1-4b73-879c-d0ad0c4b4c87
65714147,8,1174.0,1187.0,1176.0,1179.0,1500.0,1500.0,0.0,0.0,0.0,0.0,0.0,0.0,0.0,0.0,0.0,0.0,2203,224c2092-44e1-4b73-879c-d0ad0c4b4c87
65825862,8,1547.0,1583.0,1564.0,1559.0,1500.0,1500.0,0.0,0.0,0.0,0.0,0.0,0.0,0.0,0.0,0.0,0.0,2203,224c2092-44e1-4b73-879c-d0ad0c4b4c87
65909914,8,1625.0,1636.0,1607.0,1627.0,1500.0,1500.0,0.0,0.0,0.0,0.0,0.0,0.0,0.0,0.0,0.0,0.0,2203,224c2092-44e1-4b73-879c-d0ad0c4b4c87
66022140,8,1697.0,1690.0,1691.0,1642.0,1500.0,1500.0,0.0,0.0,0.0,0.0,0.0,0.0,0.0,0.0,0.0,0.0,2203,224c2092-44e1-4b73-879c-d0ad0c4b4c87
66133888,8,1720.0,1724.0,1711.0,1668.0,1500.0,1500.0,0.0,0.0,0.0,0.0,0.0,0.0,0.0,0.0,0.0,0.0,2203,224c2092-44e1-4b73-879c-d0ad0c4b4c87
66221906,8,1747.0,1728.0,1706.0,1702.0,1500.0,1500.0,0.0,0.0,0.0,0.0,0.0,0.0,0.0,0.0,0.0,0.0,2203,224c2092-44e1-4b73-879c-d0ad0c4b4c87
66333889,8,1711.0,1716.0,1695.0,1667.0,1500.0,1500.0,0.0,0.0,0.0,0.0,0.0,0.0,0.0,0.0,0.0,0.0,2203,224c2092-44e1-4b73-879c-d0ad0c4b4c87
66437897,8,1682.0,1693.0,1642.0,1658.0,1500.0,1500.0,0.0,0.0,0.0,0.0,0.0,0.0,0.0,0.0,0.0,0.0,2203,224c2092-44e1-4b73-879c-d0ad0c4b4c87
66519422,8,1698.0,1685.0,1646.0,1620.0,1500.0,1500.0,0.0,0.0,0.0,0.0,0.0,0.0,0.0,0.0,0.0,0.0,2203,224c2092-44e1-4b73-879c-d0ad0c4b4c87
66647454,8,1665.0,1683.0,1643.0,1613.0,1500.0,1500.0,0.0,0.0,0.0,0.0,0.0,0.0,0.0,0.0,0.0,0.0,2203,224c2092-44e1-4b73-879c-d0ad0c4b4c87
66739862,8,1679.0,1660.0,1600.0,1640.0,1500.0,1500.0,0.0,0.0,0.0,0.0,0.0,0.0,0.0,0.0,0.0,0.0,2203,224c2092-44e1-4b73-879c-d0ad0c4b4c87
66847717,8,1646.0,1676.0,1602.0,1617.0,1500.0,1500.0,0.0,0.0,0.0,0.0,0.0,0.0,0.0,0.0,0.0,0.0,2203,224c2092-44e1-4b73-879c-d0ad0c4b4c87
66939716,8,1637.0,1684.0,1620.0,1607.0,1500.0,1500.0,0.0,0.0,0.0,0.0,0.0,0.0,0.0,0.0,0.0,0.0,2203,224c2092-44e1-4b73-879c-d0ad0c4b4c87
67051768,8,1673.0,1630.0,1607.0,1626.0,1500.0,1500.0,0.0,0.0,0.0,0.0,0.0,0.0,0.0,0.0,0.0,0.0,2203,224c2092-44e1-4b73-879c-d0ad0c4b4c87
67143483,8,1656.0,1651.0,1607.0,1614.0,1500.0,1500.0,0.0,0.0,0.0,0.0,0.0,0.0,0.0,0.0,0.0,0.0,2203,224c2092-44e1-4b73-879c-d0ad0c4b4c87
67255503,8,1653.0,1634.0,1615.0,1612.0,1500.0,1500.0,0.0,0.0,0.0,0.0,0.0,0.0,0.0,0.0,0.0,0.0,2203,224c2092-44e1-4b73-879c-d0ad0c4b4c87
67343713,8,1643.0,1641.0,1617.0,1605.0,1500.0,1500.0,0.0,0.0,0.0,0.0,0.0,0.0,0.0,0.0,0.0,0.0,2203,224c2092-44e1-4b73-879c-d0ad0c4b4c87
67451476,8,1652.0,1654.0,1608.0,1590.0,1500.0,1500.0,0.0,0.0,0.0,0.0,0.0,0.0,0.0,0.0,0.0,0.0,2203,224c2092-44e1-4b73-879c-d0ad0c4b4c87
67553319,8,1646.0,1645.0,1613.0,1599.0,1500.0,1500.0,0.0,0.0,0.0,0.0,0.0,0.0,0.0,0.0,0.0,0.0,2203,224c2092-44e1-4b73-879c-d0ad0c4b4c87
67657067,8,1645.0,1666.0,1605.0,1588.0,1500.0,1500.0,0.0,0.0,0.0,0.0,0.0,0.0,0.0,0.0,0.0,0.0,2203,224c2092-44e1-4b73-879c-d0ad0c4b4c87
67749340,8,1633.0,1650.0,1610.0,1606.0,1500.0,1500.0,0.0,0.0,0.0,0.0,0.0,0.0,0.0,0.0,0.0,0.0,2203,224c2092-44e1-4b73-879c-d0ad0c4b4c87
67865168,8,1641.0,1641.0,1606.0,1608.0,1500.0,1500.0,0.0,0.0,0.0,0.0,0.0,0.0,0.0,0.0,0.0,0.0,2203,224c2092-44e1-4b73-879c-d0ad0c4b4c87
67961374,8,1655.0,1647.0,1614.0,1590.0,1500.0,1500.0,0.0,0.0,0.0,0.0,0.0,0.0,0.0,0.0,0.0,0.0,2203,224c2092-44e1-4b73-879c-d0ad0c4b4c87
68057133,8,1642.0,1648.0,1607.0,1605.0,1500.0,1500.0,0.0,0.0,0.0,0.0,0.0,0.0,0.0,0.0,0.0,0.0,2203,224c2092-44e1-4b73-879c-d0ad0c4b4c87
68165121,8,1656.0,1661.0,1597.0,1586.0,1500.0,1500.0,0.0,0.0,0.0,0.0,0.0,0.0,0.0,0.0,0.0,0.0,2203,224c2092-44e1-4b73-879c-d0ad0c4b4c87
68273335,8,1642.0,1657.0,1609.0,1593.0,1500.0,1500.0,0.0,0.0,0.0,0.0,0.0,0.0,0.0,0.0,0.0,0.0,2203,224c2092-44e1-4b73-879c-d0ad0c4b4c87
68365395,8,1655.0,1661.0,1603.0,1585.0,1500.0,1500.0,0.0,0.0,0.0,0.0,0.0,0.0,0.0,0.0,0.0,0.0,2203,224c2092-44e1-4b73-879c-d0ad0c4b4c87
68478687,8,1649.0,1652.0,1614.0,1591.0,1500.0,1500.0,0.0,0.0,0.0,0.0,0.0,0.0,0.0,0.0,0.0,0.0,2203,224c2092-44e1-4b73-879c-d0ad0c4b4c87
68566937,8,1633.0,1657.0,1614.0,1599.0,1500.0,1500.0,0.0,0.0,0.0,0.0,0.0,0.0,0.0,0.0,0.0,0.0,2203,224c2092-44e1-4b73-879c-d0ad0c4b4c87
68678829,8,1653.0,1644.0,1604.0,1604.0,1500.0,1500.0,0.0,0.0,0.0,0.0,0.0,0.0,0.0,0.0,0.0,0.0,2203,224c2092-44e1-4b73-879c-d0ad0c4b4c87
68770672,8,1660.0,1649.0,1615.0,1588.0,1500.0,1500.0,0.0,0.0,0.0,0.0,0.0,0.0,0.0,0.0,0.0,0.0,2203,224c2092-44e1-4b73-879c-d0ad0c4b4c87
68878683,8,1658.0,1664.0,1605.0,1584.0,1500.0,1500.0,0.0,0.0,0.0,0.0,0.0,0.0,0.0,0.0,0.0,0.0,2203,224c2092-44e1-4b73-879c-d0ad0c4b4c87
68986946,8,1656.0,1639.0,1606.0,1604.0,1500.0,1500.0,0.0,0.0,0.0,0.0,0.0,0.0,0.0,0.0,0.0,0.0,2203,224c2092-44e1-4b73-879c-d0ad0c4b4c87
69070910,8,1651.0,1664.0,1607.0,1585.0,1500.0,1500.0,0.0,0.0,0.0,0.0,0.0,0.0,0.0,0.0,0.0,0.0,2203,224c2092-44e1-4b73-879c-d0ad0c4b4c87
69187052,8,1657.0,1649.0,1611.0,1599.0,1500.0,1500.0,0.0,0.0,0.0,0.0,0.0,0.0,0.0,0.0,0.0,0.0,2203,224c2092-44e1-4b73-879c-d0ad0c4b4c87
69295088,8,1632.0,1657.0,1621.0,1597.0,1500.0,1500.0,0.0,0.0,0.0,0.0,0.0,0.0,0.0,0.0,0.0,0.0,2203,224c2092-44e1-4b73-879c-d0ad0c4b4c87
69390661,8,1653.0,1653.0,1617.0,1591.0,1500.0,1500.0,0.0,0.0,0.0,0.0,0.0,0.0,0.0,0.0,0.0,0.0,2203,224c2092-44e1-4b73-879c-d0ad0c4b4c87
69500274,8,1648.0,1665.0,1609.0,1586.0,1500.0,1500.0,0.0,0.0,0.0,0.0,0.0,0.0,0.0,0.0,0.0,0.0,2203,224c2092-44e1-4b73-879c-d0ad0c4b4c87
69588232,8,1643.0,1655.0,1610.0,1599.0,1500.0,1500.0,0.0,0.0,0.0,0.0,0.0,0.0,0.0,0.0,0.0,0.0,2203,224c2092-44e1-4b73-879c-d0ad0c4b4c87
69700270,8,1652.0,1660.0,1621.0,1581.0,1500.0,1500.0,0.0,0.0,0.0,0.0,0.0,0.0,0.0,0.0,0.0,0.0,2203,224c2092-44e1-4b73-879c-d0ad0c4b4c87
69788335,8,1644.0,1653.0,1608.0,1602.0,1500.0,1500.0,0.0,0.0,0.0,0.0,0.0,0.0,0.0,0.0,0.0,0.0,2203,224c2092-44e1-4b73-879c-d0ad0c4b4c87
69900520,8,1656.0,1652.0,1619.0,1590.0,1500.0,1500.0,0.0,0.0,0.0,0.0,0.0,0.0,0.0,0.0,0.0,0.0,2203,224c2092-44e1-4b73-879c-d0ad0c4b4c87
70008501,8,1644.0,1670.0,1604.0,1591.0,1500.0,1500.0,0.0,0.0,0.0,0.0,0.0,0.0,0.0,0.0,0.0,0.0,2203,224c2092-44e1-4b73-879c-d0ad0c4b4c87
70100591,8,1643.0,1659.0,1625.0,1587.0,1500.0,1500.0,0.0,0.0,0.0,0.0,0.0,0.0,0.0,0.0,0.0,0.0,2203,224c2092-44e1-4b73-879c-d0ad0c4b4c87
70196605,8,1632.0,1660.0,1618.0,1599.0,1500.0,1500.0,0.0,0.0,0.0,0.0,0.0,0.0,0.0,0.0,0.0,0.0,2203,224c2092-44e1-4b73-879c-d0ad0c4b4c87
70316163,8,1647.0,1675.0,1618.0,1583.0,1500.0,1500.0,0.0,0.0,0.0,0.0,0.0,0.0,0.0,0.0,0.0,0.0,2203,224c2092-44e1-4b73-879c-d0ad0c4b4c87
70420278,8,1635.0,1665.0,1625.0,1601.0,1500.0,1500.0,0.0,0.0,0.0,0.0,0.0,0.0,0.0,0.0,0.0,0.0,2203,224c2092-44e1-4b73-879c-d0ad0c4b4c87
70505896,8,1651.0,1658.0,1619.0,1600.0,1500.0,1500.0,0.0,0.0,0.0,0.0,0.0,0.0,0.0,0.0,0.0,0.0,2203,224c2092-44e1-4b73-879c-d0ad0c4b4c87
70609865,8,1648.0,1667.0,1629.0,1587.0,1500.0,1500.0,0.0,0.0,0.0,0.0,0.0,0.0,0.0,0.0,0.0,0.0,2203,224c2092-44e1-4b73-879c-d0ad0c4b4c87
70725783,8,1646.0,1658.0,1620.0,1600.0,1500.0,1500.0,0.0,0.0,0.0,0.0,0.0,0.0,0.0,0.0,0.0,0.0,2203,224c2092-44e1-4b73-879c-d0ad0c4b4c87
70813873,8,1659.0,1670.0,1618.0,1581.0,1500.0,1500.0,0.0,0.0,0.0,0.0,0.0,0.0,0.0,0.0,0.0,0.0,2203,224c2092-44e1-4b73-879c-d0ad0c4b4c87
70925915,8,1644.0,1660.0,1617.0,1607.0,1500.0,1500.0,0.0,0.0,0.0,0.0,0.0,0.0,0.0,0.0,0.0,0.0,2203,224c2092-44e1-4b73-879c-d0ad0c4b4c87
71013878,8,1649.0,1672.0,1607.0,1597.0,1500.0,1500.0,0.0,0.0,0.0,0.0,0.0,0.0,0.0,0.0,0.0,0.0,2203,224c2092-44e1-4b73-879c-d0ad0c4b4c87
71125868,8,1650.0,1669.0,1615.0,1592.0,1500.0,1500.0,0.0,0.0,0.0,0.0,0.0,0.0,0.0,0.0,0.0,0.0,2203,224c2092-44e1-4b73-879c-d0ad0c4b4c87
71213861,8,1644.0,1681.0,1613.0,1591.0,1500.0,1500.0,0.0,0.0,0.0,0.0,0.0,0.0,0.0,0.0,0.0,0.0,2203,224c2092-44e1-4b73-879c-d0ad0c4b4c87
71322127,8,1660.0,1663.0,1620.0,1591.0,1500.0,1500.0,0.0,0.0,0.0,0.0,0.0,0.0,0.0,0.0,0.0,0.0,2203,224c2092-44e1-4b73-879c-d0ad0c4b4c87
71429870,8,1662.0,1667.0,1612.0,1593.0,1500.0,1500.0,0.0,0.0,0.0,0.0,0.0,0.0,0.0,0.0,0.0,0.0,2203,224c2092-44e1-4b73-879c-d0ad0c4b4c87
71539408,8,1660.0,1669.0,1625.0,1592.0,1500.0,1500.0,0.0,0.0,0.0,0.0,0.0,0.0,0.0,0.0,0.0,0.0,2203,224c2092-44e1-4b73-879c-d0ad0c4b4c87
71631493,8,1659.0,1670.0,1618.0,1596.0,1500.0,1500.0,0.0,0.0,0.0,0.0,0.0,0.0,0.0,0.0,0.0,0.0,2203,224c2092-44e1-4b73-879c-d0ad0c4b4c87
71719736,8,1659.0,1676.0,1613.0,1597.0,1500.0,1500.0,0.0,0.0,0.0,0.0,0.0,0.0,0.0,0.0,0.0,0.0,2203,224c2092-44e1-4b73-879c-d0ad0c4b4c87
71831485,8,1660.0,1665.0,1620.0,1602.0,1500.0,1500.0,0.0,0.0,0.0,0.0,0.0,0.0,0.0,0.0,0.0,0.0,2203,224c2092-44e1-4b73-879c-d0ad0c4b4c87
71943753,8,1652.0,1659.0,1621.0,1612.0,1500.0,1500.0,0.0,0.0,0.0,0.0,0.0,0.0,0.0,0.0,0.0,0.0,2203,224c2092-44e1-4b73-879c-d0ad0c4b4c87
72035497,8,1645.0,1669.0,1625.0,1610.0,1500.0,1500.0,0.0,0.0,0.0,0.0,0.0,0.0,0.0,0.0,0.0,0.0,2203,224c2092-44e1-4b73-879c-d0ad0c4b4c87
72143489,8,1652.0,1673.0,1620.0,1606.0,1500.0,1500.0,0.0,0.0,0.0,0.0,0.0,0.0,0.0,0.0,0.0,0.0,2203,224c2092-44e1-4b73-879c-d0ad0c4b4c87
72231533,8,1650.0,1661.0,1623.0,1616.0,1500.0,1500.0,0.0,0.0,0.0,0.0,0.0,0.0,0.0,0.0,0.0,0.0,2203,224c2092-44e1-4b73-879c-d0ad0c4b4c87
72343741,8,1648.0,1687.0,1616.0,1600.0,1500.0,1500.0,0.0,0.0,0.0,0.0,0.0,0.0,0.0,0.0,0.0,0.0,2203,224c2092-44e1-4b73-879c-d0ad0c4b4c87
72451529,8,1668.0,1672.0,1623.0,1591.0,1500.0,1500.0,0.0,0.0,0.0,0.0,0.0,0.0,0.0,0.0,0.0,0.0,2203,224c2092-44e1-4b73-879c-d0ad0c4b4c87
72540983,8,1661.0,1676.0,1625.0,1593.0,1500.0,1500.0,0.0,0.0,0.0,0.0,0.0,0.0,0.0,0.0,0.0,0.0,2203,224c2092-44e1-4b73-879c-d0ad0c4b4c87
72653230,8,1653.0,1667.0,1622.0,1603.0,1500.0,1500.0,0.0,0.0,0.0,0.0,0.0,0.0,0.0,0.0,0.0,0.0,2203,224c2092-44e1-4b73-879c-d0ad0c4b4c87
72741223,8,1663.0,1664.0,1618.0,1603.0,1500.0,1500.0,0.0,0.0,0.0,0.0,0.0,0.0,0.0,0.0,0.0,0.0,2203,224c2092-44e1-4b73-879c-d0ad0c4b4c87
72849058,8,1658.0,1667.0,1622.0,1602.0,1500.0,1500.0,0.0,0.0,0.0,0.0,0.0,0.0,0.0,0.0,0.0,0.0,2203,224c2092-44e1-4b73-879c-d0ad0c4b4c87
72953071,8,1658.0,1682.0,1616.0,1595.0,1500.0,1500.0,0.0,0.0,0.0,0.0,0.0,0.0,0.0,0.0,0.0,0.0,2203,224c2092-44e1-4b73-879c-d0ad0c4b4c87
73045106,8,1672.0,1682.0,1602.0,1601.0,1500.0,1500.0,0.0,0.0,0.0,0.0,0.0,0.0,0.0,0.0,0.0,0.0,2203,224c2092-44e1-4b73-879c-d0ad0c4b4c87
73153344,8,1664.0,1662.0,1637.0,1595.0,1500.0,1500.0,0.0,0.0,0.0,0.0,0.0,0.0,0.0,0.0,0.0,0.0,2203,224c2092-44e1-4b73-879c-d0ad0c4b4c87
73261108,8,1660.0,1656.0,1621.0,1606.0,1500.0,1500.0,0.0,0.0,0.0,0.0,0.0,0.0,0.0,0.0,0.0,0.0,2203,224c2092-44e1-4b73-879c-d0ad0c4b4c87
73353350,8,1662.0,1660.0,1623.0,1597.0,1500.0,1500.0,0.0,0.0,0.0,0.0,0.0,0.0,0.0,0.0,0.0,0.0,2203,224c2092-44e1-4b73-879c-d0ad0c4b4c87
73465105,8,1662.0,1667.0,1625.0,1584.0,1500.0,1500.0,0.0,0.0,0.0,0.0,0.0,0.0,0.0,0.0,0.0,0.0,2203,224c2092-44e1-4b73-879c-d0ad0c4b4c87
73578160,8,1659.0,1661.0,1620.0,1592.0,1500.0,1500.0,0.0,0.0,0.0,0.0,0.0,0.0,0.0,0.0,0.0,0.0,2203,224c2092-44e1-4b73-879c-d0ad0c4b4c87
73661910,8,1656.0,1661.0,1614.0,1598.0,1500.0,1500.0,0.0,0.0,0.0,0.0,0.0,0.0,0.0,0.0,0.0,0.0,2203,224c2092-44e1-4b73-879c-d0ad0c4b4c87
73773884,8,1667.0,1664.0,1624.0,1586.0,1500.0,1500.0,0.0,0.0,0.0,0.0,0.0,0.0,0.0,0.0,0.0,0.0,2203,224c2092-44e1-4b73-879c-d0ad0c4b4c87
73878135,8,1649.0,1652.0,1624.0,1613.0,1500.0,1500.0,0.0,0.0,0.0,0.0,0.0,0.0,0.0,0.0,0.0,0.0,2203,224c2092-44e1-4b73-879c-d0ad0c4b4c87
73970138,8,1669.0,1663.0,1624.0,1589.0,1500.0,1500.0,0.0,0.0,0.0,0.0,0.0,0.0,0.0,0.0,0.0,0.0,2203,224c2092-44e1-4b73-879c-d0ad0c4b4c87
74082155,8,1661.0,1672.0,1625.0,1588.0,1500.0,1500.0,0.0,0.0,0.0,0.0,0.0,0.0,0.0,0.0,0.0,0.0,2203,224c2092-44e1-4b73-879c-d0ad0c4b4c87
74193895,8,1657.0,1667.0,1622.0,1595.0,1500.0,1500.0,0.0,0.0,0.0,0.0,0.0,0.0,0.0,0.0,0.0,0.0,2203,224c2092-44e1-4b73-879c-d0ad0c4b4c87
74282116,8,1649.0,1658.0,1626.0,1605.0,1500.0,1500.0,0.0,0.0,0.0,0.0,0.0,0.0,0.0,0.0,0.0,0.0,2203,224c2092-44e1-4b73-879c-d0ad0c4b4c87
74394132,8,1659.0,1659.0,1621.0,1590.0,1500.0,1500.0,0.0,0.0,0.0,0.0,0.0,0.0,0.0,0.0,0.0,0.0,2203,224c2092-44e1-4b73-879c-d0ad0c4b4c87
74482199,8,1661.0,1682.0,1625.0,1575.0,1500.0,1500.0,0.0,0.0,0.0,0.0,0.0,0.0,0.0,0.0,0.0,0.0,2203,224c2092-44e1-4b73-879c-d0ad0c4b4c87
74589928,8,1649.0,1660.0,1632.0,1600.0,1500.0,1500.0,0.0,0.0,0.0,0.0,0.0,0.0,0.0,0.0,0.0,0.0,2203,224c2092-44e1-4b73-879c-d0ad0c4b4c87
74677901,8,1658.0,1666.0,1623.0,1597.0,1500.0,1500.0,0.0,0.0,0.0,0.0,0.0,0.0,0.0,0.0,0.0,0.0,2203,224c2092-44e1-4b73-879c-d0ad0c4b4c87
74789893,8,1621.0,1630.0,1594.0,1571.0,1500.0,1500.0,0.0,0.0,0.0,0.0,0.0,0.0,0.0,0.0,0.0,0.0,2203,224c2092-44e1-4b73-879c-d0ad0c4b4c87
74895442,8,1603.0,1605.0,1557.0,1547.0,1500.0,1500.0,0.0,0.0,0.0,0.0,0.0,0.0,0.0,0.0,0.0,0.0,2203,224c2092-44e1-4b73-879c-d0ad0c4b4c87
74983787,8,1599.0,1604.0,1553.0,1510.0,1500.0,1500.0,0.0,0.0,0.0,0.0,0.0,0.0,0.0,0.0,0.0,0.0,2203,224c2092-44e1-4b73-879c-d0ad0c4b4c87
75099372,8,1592.0,1590.0,1534.0,1519.0,1500.0,1500.0,0.0,0.0,0.0,0.0,0.0,0.0,0.0,0.0,0.0,0.0,2203,224c2092-44e1-4b73-879c-d0ad0c4b4c87
75207566,8,1591.0,1574.0,1559.0,1509.0,1500.0,1500.0,0.0,0.0,0.0,0.0,0.0,0.0,0.0,0.0,0.0,0.0,2203,224c2092-44e1-4b73-879c-d0ad0c4b4c87
75295721,8,1556.0,1618.0,1569.0,1492.0,1500.0,1500.0,0.0,0.0,0.0,0.0,0.0,0.0,0.0,0.0,0.0,0.0,2203,224c2092-44e1-4b73-879c-d0ad0c4b4c87
75403749,8,1592.0,1574.0,1546.0,1530.0,1500.0,1500.0,0.0,0.0,0.0,0.0,0.0,0.0,0.0,0.0,0.0,0.0,2203,224c2092-44e1-4b73-879c-d0ad0c4b4c87
75507757,8,1569.0,1616.0,1576.0,1509.0,1500.0,1500.0,0.0,0.0,0.0,0.0,0.0,0.0,0.0,0.0,0.0,0.0,2203,224c2092-44e1-4b73-879c-d0ad0c4b4c87
75595836,8,1610.0,1582.0,1549.0,1543.0,1500.0,1500.0,0.0,0.0,0.0,0.0,0.0,0.0,0.0,0.0,0.0,0.0,2203,224c2092-44e1-4b73-879c-d0ad0c4b4c87
75707509,8,1615.0,1607.0,1569.0,1525.0,1500.0,1500.0,0.0,0.0,0.0,0.0,0.0,0.0,0.0,0.0,0.0,0.0,2203,224c2092-44e1-4b73-879c-d0ad0c4b4c87
75795478,8,1601.0,1610.0,1589.0,1539.0,1500.0,1500.0,0.0,0.0,0.0,0.0,0.0,0.0,0.0,0.0,0.0,0.0,2203,224c2092-44e1-4b73-879c-d0ad0c4b4c87
75905340,8,1601.0,1619.0,1600.0,1540.0,1500.0,1500.0,0.0,0.0,0.0,0.0,0.0,0.0,0.0,0.0,0.0,0.0,2203,224c2092-44e1-4b73-879c-d0ad0c4b4c87
76017112,8,1613.0,1631.0,1579.0,1550.0,1500.0,1500.0,0.0,0.0,0.0,0.0,0.0,0.0,0.0,0.0,0.0,0.0,2203,224c2092-44e1-4b73-879c-d0ad0c4b4c87
76121158,8,1624.0,1604.0,1591.0,1571.0,1500.0,1500.0,0.0,0.0,0.0,0.0,0.0,0.0,0.0,0.0,0.0,0.0,2203,224c2092-44e1-4b73-879c-d0ad0c4b4c87
76205503,8,1617.0,1617.0,1609.0,1562.0,1500.0,1500.0,0.0,0.0,0.0,0.0,0.0,0.0,0.0,0.0,0.0,0.0,2203,224c2092-44e1-4b73-879c-d0ad0c4b4c87
76301311,8,1677.0,1715.0,1725.0,1595.0,1500.0,1500.0,0.0,0.0,0.0,0.0,0.0,0.0,0.0,0.0,0.0,0.0,2203,224c2092-44e1-4b73-879c-d0ad0c4b4c87
76417009,8,1808.0,1777.0,1730.0,1796.0,1500.0,1500.0,0.0,0.0,0.0,0.0,0.0,0.0,0.0,0.0,0.0,0.0,2203,224c2092-44e1-4b73-879c-d0ad0c4b4c87
76505069,8,1873.0,1869.0,1837.0,1829.0,1500.0,1500.0,0.0,0.0,0.0,0.0,0.0,0.0,0.0,0.0,0.0,0.0,2203,224c2092-44e1-4b73-879c-d0ad0c4b4c87
76617308,8,1768.0,1789.0,1743.0,1703.0,1500.0,1500.0,0.0,0.0,0.0,0.0,0.0,0.0,0.0,0.0,0.0,0.0,2203,224c2092-44e1-4b73-879c-d0ad0c4b4c87
76709463,8,1722.0,1745.0,1702.0,1658.0,1500.0,1500.0,0.0,0.0,0.0,0.0,0.0,0.0,0.0,0.0,0.0,0.0,2203,224c2092-44e1-4b73-879c-d0ad0c4b4c87
76818706,8,1690.0,1727.0,1674.0,1627.0,1500.0,1500.0,0.0,0.0,0.0,0.0,0.0,0.0,0.0,0.0,0.0,0.0,2203,224c2092-44e1-4b73-879c-d0ad0c4b4c87
76923054,8,1675.0,1690.0,1663.0,1616.0,1500.0,1500.0,0.0,0.0,0.0,0.0,0.0,0.0,0.0,0.0,0.0,0.0,2203,224c2092-44e1-4b73-879c-d0ad0c4b4c87
77034726,8,1676.0,1689.0,1649.0,1595.0,1500.0,1500.0,0.0,0.0,0.0,0.0,0.0,0.0,0.0,0.0,0.0,0.0,2203,224c2092-44e1-4b73-879c-d0ad0c4b4c87
77122673,8,1681.0,1684.0,1651.0,1575.0,1500.0,1500.0,0.0,0.0,0.0,0.0,0.0,0.0,0.0,0.0,0.0,0.0,2203,224c2092-44e1-4b73-879c-d0ad0c4b4c87
77226968,8,1675.0,1674.0,1646.0,1586.0,1500.0,1500.0,0.0,0.0,0.0,0.0,0.0,0.0,0.0,0.0,0.0,0.0,2203,224c2092-44e1-4b73-879c-d0ad0c4b4c87
77330833,8,1671.0,1682.0,1647.0,1565.0,1500.0,1500.0,0.0,0.0,0.0,0.0,0.0,0.0,0.0,0.0,0.0,0.0,2203,224c2092-44e1-4b73-879c-d0ad0c4b4c87
77422765,8,1674.0,1682.0,1638.0,1567.0,1500.0,1500.0,0.0,0.0,0.0,0.0,0.0,0.0,0.0,0.0,0.0,0.0,2203,224c2092-44e1-4b73-879c-d0ad0c4b4c87
77534833,8,1678.0,1679.0,1643.0,1559.0,1500.0,1500.0,0.0,0.0,0.0,0.0,0.0,0.0,0.0,0.0,0.0,0.0,2203,224c2092-44e1-4b73-879c-d0ad0c4b4c87
77626951,8,1669.0,1681.0,1633.0,1572.0,1500.0,1500.0,0.0,0.0,0.0,0.0,0.0,0.0,0.0,0.0,0.0,0.0,2203,224c2092-44e1-4b73-879c-d0ad0c4b4c87
77734678,8,1677.0,1691.0,1636.0,1555.0,1500.0,1500.0,0.0,0.0,0.0,0.0,0.0,0.0,0.0,0.0,0.0,0.0,2203,224c2092-44e1-4b73-879c-d0ad0c4b4c87
77847755,8,1658.0,1679.0,1635.0,1578.0,1500.0,1500.0,0.0,0.0,0.0,0.0,0.0,0.0,0.0,0.0,0.0,0.0,2203,224c2092-44e1-4b73-879c-d0ad0c4b4c87
77939469,8,1675.0,1677.0,1629.0,1570.0,1500.0,1500.0,0.0,0.0,0.0,0.0,0.0,0.0,0.0,0.0,0.0,0.0,2203,224c2092-44e1-4b73-879c-d0ad0c4b4c87
78043489,8,1673.0,1680.0,1627.0,1574.0,1500.0,1500.0,0.0,0.0,0.0,0.0,0.0,0.0,0.0,0.0,0.0,0.0,2203,224c2092-44e1-4b73-879c-d0ad0c4b4c87
78151733,8,1673.0,1682.0,1634.0,1568.0,1500.0,1500.0,0.0,0.0,0.0,0.0,0.0,0.0,0.0,0.0,0.0,0.0,2203,224c2092-44e1-4b73-879c-d0ad0c4b4c87
78239613,8,1666.0,1667.0,1644.0,1582.0,1500.0,1500.0,0.0,0.0,0.0,0.0,0.0,0.0,0.0,0.0,0.0,0.0,2203,224c2092-44e1-4b73-879c-d0ad0c4b4c87
78347486,8,1647.0,1685.0,1636.0,1588.0,1500.0,1500.0,0.0,0.0,0.0,0.0,0.0,0.0,0.0,0.0,0.0,0.0,2203,224c2092-44e1-4b73-879c-d0ad0c4b4c87
78435752,8,1659.0,1678.0,1632.0,1586.0,1500.0,1500.0,0.0,0.0,0.0,0.0,0.0,0.0,0.0,0.0,0.0,0.0,2203,224c2092-44e1-4b73-879c-d0ad0c4b4c87
78543848,8,1656.0,1670.0,1643.0,1594.0,1500.0,1500.0,0.0,0.0,0.0,0.0,0.0,0.0,0.0,0.0,0.0,0.0,2203,224c2092-44e1-4b73-879c-d0ad0c4b4c87
78651802,8,1656.0,1692.0,1628.0,1584.0,1500.0,1500.0,0.0,0.0,0.0,0.0,0.0,0.0,0.0,0.0,0.0,0.0,2203,224c2092-44e1-4b73-879c-d0ad0c4b4c87
78759797,8,1663.0,1669.0,1633.0,1599.0,1500.0,1500.0,0.0,0.0,0.0,0.0,0.0,0.0,0.0,0.0,0.0,0.0,2203,224c2092-44e1-4b73-879c-d0ad0c4b4c87
78847472,8,1655.0,1688.0,1631.0,1594.0,1500.0,1500.0,0.0,0.0,0.0,0.0,0.0,0.0,0.0,0.0,0.0,0.0,2203,224c2092-44e1-4b73-879c-d0ad0c4b4c87
78959438,8,1661.0,1674.0,1640.0,1596.0,1500.0,1500.0,0.0,0.0,0.0,0.0,0.0,0.0,0.0,0.0,0.0,0.0,2203,224c2092-44e1-4b73-879c-d0ad0c4b4c87
79047848,8,1675.0,1677.0,1633.0,1586.0,1500.0,1500.0,0.0,0.0,0.0,0.0,0.0,0.0,0.0,0.0,0.0,0.0,2203,224c2092-44e1-4b73-879c-d0ad0c4b4c87
79157101,8,1654.0,1679.0,1643.0,1588.0,1500.0,1500.0,0.0,0.0,0.0,0.0,0.0,0.0,0.0,0.0,0.0,0.0,2203,224c2092-44e1-4b73-879c-d0ad0c4b4c87
79269337,8,1657.0,1683.0,1643.0,1581.0,1500.0,1500.0,0.0,0.0,0.0,0.0,0.0,0.0,0.0,0.0,0.0,0.0,2203,224c2092-44e1-4b73-879c-d0ad0c4b4c87
79377327,8,1644.0,1677.0,1640.0,1597.0,1500.0,1500.0,0.0,0.0,0.0,0.0,0.0,0.0,0.0,0.0,0.0,0.0,2203,224c2092-44e1-4b73-879c-d0ad0c4b4c87
79461370,8,1650.0,1669.0,1654.0,1589.0,1500.0,1500.0,0.0,0.0,0.0,0.0,0.0,0.0,0.0,0.0,0.0,0.0,2203,224c2092-44e1-4b73-879c-d0ad0c4b4c87
79569361,8,1637.0,1686.0,1646.0,1584.0,1500.0,1500.0,0.0,0.0,0.0,0.0,0.0,0.0,0.0,0.0,0.0,0.0,2203,224c2092-44e1-4b73-879c-d0ad0c4b4c87
79673089,8,1648.0,1689.0,1640.0,1577.0,1500.0,1500.0,0.0,0.0,0.0,0.0,0.0,0.0,0.0,0.0,0.0,0.0,2203,224c2092-44e1-4b73-879c-d0ad0c4b4c87
79781333,8,1652.0,1664.0,1648.0,1590.0,1500.0,1500.0,0.0,0.0,0.0,0.0,0.0,0.0,0.0,0.0,0.0,0.0,2203,224c2092-44e1-4b73-879c-d0ad0c4b4c87
79869052,8,1664.0,1670.0,1643.0,1582.0,1500.0,1500.0,0.0,0.0,0.0,0.0,0.0,0.0,0.0,0.0,0.0,0.0,2203,224c2092-44e1-4b73-879c-d0ad0c4b4c87
79977136,8,1661.0,1691.0,1634.0,1574.0,1500.0,1500.0,0.0,0.0,0.0,0.0,0.0,0.0,0.0,0.0,0.0,0.0,2203,224c2092-44e1-4b73-879c-d0ad0c4b4c87
80065074,8,1662.0,1669.0,1643.0,1583.0,1500.0,1500.0,0.0,0.0,0.0,0.0,0.0,0.0,0.0,0.0,0.0,0.0,2203,224c2092-44e1-4b73-879c-d0ad0c4b4c87
80174949,8,1663.0,1691.0,1639.0,1562.0,1500.0,1500.0,0.0,0.0,0.0,0.0,0.0,0.0,0.0,0.0,0.0,0.0,2203,224c2092-44e1-4b73-879c-d0ad0c4b4c87
80290690,8,1664.0,1686.0,1628.0,1576.0,1500.0,1500.0,0.0,0.0,0.0,0.0,0.0,0.0,0.0,0.0,0.0,0.0,2203,224c2092-44e1-4b73-879c-d0ad0c4b4c87
80378990,8,1666.0,1675.0,1640.0,1575.0,1500.0,1500.0,0.0,0.0,0.0,0.0,0.0,0.0,0.0,0.0,0.0,0.0,2203,224c2092-44e1-4b73-879c-d0ad0c4b4c87
80490660,8,1665.0,1684.0,1639.0,1568.0,1500.0,1500.0,0.0,0.0,0.0,0.0,0.0,0.0,0.0,0.0,0.0,0.0,2203,224c2092-44e1-4b73-879c-d0ad0c4b4c87
80595032,8,1675.0,1673.0,1639.0,1573.0,1500.0,1500.0,0.0,0.0,0.0,0.0,0.0,0.0,0.0,0.0,0.0,0.0,2203,224c2092-44e1-4b73-879c-d0ad0c4b4c87
80682688,8,1671.0,1672.0,1639.0,1581.0,1500.0,1500.0,0.0,0.0,0.0,0.0,0.0,0.0,0.0,0.0,0.0,0.0,2203,224c2092-44e1-4b73-879c-d0ad0c4b4c87
80794938,8,1669.0,1690.0,1636.0,1567.0,1500.0,1500.0,0.0,0.0,0.0,0.0,0.0,0.0,0.0,0.0,0.0,0.0,2203,224c2092-44e1-4b73-879c-d0ad0c4b4c87
80902715,8,1661.0,1696.0,1647.0,1559.0,1500.0,1500.0,0.0,0.0,0.0,0.0,0.0,0.0,0.0,0.0,0.0,0.0,2203,224c2092-44e1-4b73-879c-d0ad0c4b4c87
80986685,8,1674.0,1691.0,1640.0,1554.0,1500.0,1500.0,0.0,0.0,0.0,0.0,0.0,0.0,0.0,0.0,0.0,0.0,2203,224c2092-44e1-4b73-879c-d0ad0c4b4c87
81102920,8,1654.0,1690.0,1659.0,1558.0,1500.0,1500.0,0.0,0.0,0.0,0.0,0.0,0.0,0.0,0.0,0.0,0.0,2203,224c2092-44e1-4b73-879c-d0ad0c4b4c87
81212323,8,1658.0,1680.0,1639.0,1577.0,1500.0,1500.0,0.0,0.0,0.0,0.0,0.0,0.0,0.0,0.0,0.0,0.0,2203,224c2092-44e1-4b73-879c-d0ad0c4b4c87
81300297,8,1652.0,1668.0,1646.0,1589.0,1500.0,1500.0,0.0,0.0,0.0,0.0,0.0,0.0,0.0,0.0,0.0,0.0,2203,224c2092-44e1-4b73-879c-d0ad0c4b4c87
81416298,8,1661.0,1683.0,1642.0,1573.0,1500.0,1500.0,0.0,0.0,0.0,0.0,0.0,0.0,0.0,0.0,0.0,0.0,2203,224c2092-44e1-4b73-879c-d0ad0c4b4c87
81504316,8,1662.0,1695.0,1638.0,1573.0,1500.0,1500.0,0.0,0.0,0.0,0.0,0.0,0.0,0.0,0.0,0.0,0.0,2203,224c2092-44e1-4b73-879c-d0ad0c4b4c87
81612435,8,1659.0,1681.0,1652.0,1583.0,1500.0,1500.0,0.0,0.0,0.0,0.0,0.0,0.0,0.0,0.0,0.0,0.0,2203,224c2092-44e1-4b73-879c-d0ad0c4b4c87
81720261,8,1663.0,1695.0,1645.0,1570.0,1500.0,1500.0,0.0,0.0,0.0,0.0,0.0,0.0,0.0,0.0,0.0,0.0,2203,224c2092-44e1-4b73-879c-d0ad0c4b4c87
81808439,8,1663.0,1679.0,1646.0,1585.0,1500.0,1500.0,0.0,0.0,0.0,0.0,0.0,0.0,0.0,0.0,0.0,0.0,2203,224c2092-44e1-4b73-879c-d0ad0c4b4c87
81920271,8,1668.0,1671.0,1649.0,1585.0,1500.0,1500.0,0.0,0.0,0.0,0.0,0.0,0.0,0.0,0.0,0.0,0.0,2203,224c2092-44e1-4b73-879c-d0ad0c4b4c87
82024560,8,1669.0,1659.0,1662.0,1583.0,1500.0,1500.0,0.0,0.0,0.0,0.0,0.0,0.0,0.0,0.0,0.0,0.0,2203,224c2092-44e1-4b73-879c-d0ad0c4b4c87
82113085,8,1686.0,1671.0,1638.0,1577.0,1500.0,1500.0,0.0,0.0,0.0,0.0,0.0,0.0,0.0,0.0,0.0,0.0,2203,224c2092-44e1-4b73-879c-d0ad0c4b4c87
82221374,8,1677.0,1667.0,1650.0,1582.0,1500.0,1500.0,0.0,0.0,0.0,0.0,0.0,0.0,0.0,0.0,0.0,0.0,2203,224c2092-44e1-4b73-879c-d0ad0c4b4c87
82309134,8,1665.0,1672.0,1656.0,1580.0,1500.0,1500.0,0.0,0.0,0.0,0.0,0.0,0.0,0.0,0.0,0.0,0.0,2203,224c2092-44e1-4b73-879c-d0ad0c4b4c87
82425063,8,1680.0,1675.0,1652.0,1558.0,1500.0,1500.0,0.0,0.0,0.0,0.0,0.0,0.0,0.0,0.0,0.0,0.0,2203,224c2092-44e1-4b73-879c-d0ad0c4b4c87
82513089,8,1685.0,1678.0,1638.0,1566.0,1500.0,1500.0,0.0,0.0,0.0,0.0,0.0,0.0,0.0,0.0,0.0,0.0,2203,224c2092-44e1-4b73-879c-d0ad0c4b4c87
82629235,8,1679.0,1666.0,1639.0,1576.0,1500.0,1500.0,0.0,0.0,0.0,0.0,0.0,0.0,0.0,0.0,0.0,0.0,2203,224c2092-44e1-4b73-879c-d0ad0c4b4c87
82737079,8,1671.0,1677.0,1634.0,1579.0,1500.0,1500.0,0.0,0.0,0.0,0.0,0.0,0.0,0.0,0.0,0.0,0.0,2203,224c2092-44e1-4b73-879c-d0ad0c4b4c87
82825435,8,1671.0,1671.0,1642.0,1579.0,1500.0,1500.0,0.0,0.0,0.0,0.0,0.0,0.0,0.0,0.0,0.0,0.0,2203,224c2092-44e1-4b73-879c-d0ad0c4b4c87
82941349,8,1672.0,1675.0,1635.0,1582.0,1500.0,1500.0,0.0,0.0,0.0,0.0,0.0,0.0,0.0,0.0,0.0,0.0,2203,224c2092-44e1-4b73-879c-d0ad0c4b4c87
83033059,8,1672.0,1677.0,1638.0,1580.0,1500.0,1500.0,0.0,0.0,0.0,0.0,0.0,0.0,0.0,0.0,0.0,0.0,2203,224c2092-44e1-4b73-879c-d0ad0c4b4c87
83141335,8,1686.0,1685.0,1644.0,1558.0,1500.0,1500.0,0.0,0.0,0.0,0.0,0.0,0.0,0.0,0.0,0.0,0.0,2203,224c2092-44e1-4b73-879c-d0ad0c4b4c87
83253353,8,1692.0,1676.0,1641.0,1564.0,1500.0,1500.0,0.0,0.0,0.0,0.0,0.0,0.0,0.0,0.0,0.0,0.0,2203,224c2092-44e1-4b73-879c-d0ad0c4b4c87
83341069,8,1696.0,1663.0,1644.0,1568.0,1500.0,1500.0,0.0,0.0,0.0,0.0,0.0,0.0,0.0,0.0,0.0,0.0,2203,224c2092-44e1-4b73-879c-d0ad0c4b4c87
83450646,8,1683.0,1674.0,1639.0,1567.0,1500.0,1500.0,0.0,0.0,0.0,0.0,0.0,0.0,0.0,0.0,0.0,0.0,2203,224c2092-44e1-4b73-879c-d0ad0c4b4c87
83542654,8,1664.0,1656.0,1647.0,1588.0,1500.0,1500.0,0.0,0.0,0.0,0.0,0.0,0.0,0.0,0.0,0.0,0.0,2203,224c2092-44e1-4b73-879c-d0ad0c4b4c87
83650806,8,1674.0,1661.0,1632.0,1584.0,1500.0,1500.0,0.0,0.0,0.0,0.0,0.0,0.0,0.0,0.0,0.0,0.0,2203,224c2092-44e1-4b73-879c-d0ad0c4b4c87
83763043,8,1671.0,1673.0,1638.0,1575.0,1500.0,1500.0,0.0,0.0,0.0,0.0,0.0,0.0,0.0,0.0,0.0,0.0,2203,224c2092-44e1-4b73-879c-d0ad0c4b4c87
83850688,8,1670.0,1657.0,1639.0,1593.0,1500.0,1500.0,0.0,0.0,0.0,0.0,0.0,0.0,0.0,0.0,0.0,0.0,2203,224c2092-44e1-4b73-879c-d0ad0c4b4c87
83954663,8,1667.0,1664.0,1656.0,1578.0,1500.0,1500.0,0.0,0.0,0.0,0.0,0.0,0.0,0.0,0.0,0.0,0.0,2203,224c2092-44e1-4b73-879c-d0ad0c4b4c87
84062708,8,1682.0,1672.0,1644.0,1584.0,1500.0,1500.0,0.0,0.0,0.0,0.0,0.0,0.0,0.0,0.0,0.0,0.0,2203,224c2092-44e1-4b73-879c-d0ad0c4b4c87
84150834,8,1677.0,1668.0,1657.0,1575.0,1500.0,1500.0,0.0,0.0,0.0,0.0,0.0,0.0,0.0,0.0,0.0,0.0,2203,224c2092-44e1-4b73-879c-d0ad0c4b4c87
84267072,8,1690.0,1678.0,1635.0,1575.0,1500.0,1500.0,0.0,0.0,0.0,0.0,0.0,0.0,0.0,0.0,0.0,0.0,2203,224c2092-44e1-4b73-879c-d0ad0c4b4c87
84350834,8,1680.0,1685.0,1646.0,1567.0,1500.0,1500.0,0.0,0.0,0.0,0.0,0.0,0.0,0.0,0.0,0.0,0.0,2203,224c2092-44e1-4b73-879c-d0ad0c4b4c87
84468551,8,1683.0,1684.0,1642.0,1563.0,1500.0,1500.0,0.0,0.0,0.0,0.0,0.0,0.0,0.0,0.0,0.0,0.0,2203,224c2092-44e1-4b73-879c-d0ad0c4b4c87
84552533,8,1673.0,1688.0,1647.0,1563.0,1500.0,1500.0,0.0,0.0,0.0,0.0,0.0,0.0,0.0,0.0,0.0,0.0,2203,224c2092-44e1-4b73-879c-d0ad0c4b4c87
84664329,8,1676.0,1674.0,1652.0,1567.0,1500.0,1500.0,0.0,0.0,0.0,0.0,0.0,0.0,0.0,0.0,0.0,0.0,2203,224c2092-44e1-4b73-879c-d0ad0c4b4c87
84776265,8,1698.0,1670.0,1635.0,1564.0,1500.0,1500.0,0.0,0.0,0.0,0.0,0.0,0.0,0.0,0.0,0.0,0.0,2203,224c2092-44e1-4b73-879c-d0ad0c4b4c87
84864168,8,1691.0,1659.0,1641.0,1576.0,1500.0,1500.0,0.0,0.0,0.0,0.0,0.0,0.0,0.0,0.0,0.0,0.0,2203,224c2092-44e1-4b73-879c-d0ad0c4b4c87
84976306,8,1680.0,1658.0,1649.0,1579.0,1500.0,1500.0,0.0,0.0,0.0,0.0,0.0,0.0,0.0,0.0,0.0,0.0,2203,224c2092-44e1-4b73-879c-d0ad0c4b4c87
85064173,8,1673.0,1665.0,1652.0,1577.0,1500.0,1500.0,0.0,0.0,0.0,0.0,0.0,0.0,0.0,0.0,0.0,0.0,2203,224c2092-44e1-4b73-879c-d0ad0c4b4c87
85180236,8,1676.0,1671.0,1637.0,1580.0,1500.0,1500.0,0.0,0.0,0.0,0.0,0.0,0.0,0.0,0.0,0.0,0.0,2203,224c2092-44e1-4b73-879c-d0ad0c4b4c87
85272650,8,1672.0,1665.0,1650.0,1580.0,1500.0,1500.0,0.0,0.0,0.0,0.0,0.0,0.0,0.0,0.0,0.0,0.0,2203,224c2092-44e1-4b73-879c-d0ad0c4b4c87
85384289,8,1671.0,1669.0,1649.0,1582.0,1500.0,1500.0,0.0,0.0,0.0,0.0,0.0,0.0,0.0,0.0,0.0,0.0,2203,224c2092-44e1-4b73-879c-d0ad0c4b4c87
85469872,8,1674.0,1666.0,1653.0,1581.0,1500.0,1500.0,0.0,0.0,0.0,0.0,0.0,0.0,0.0,0.0,0.0,0.0,2203,224c2092-44e1-4b73-879c-d0ad0c4b4c87
85582144,8,1676.0,1677.0,1653.0,1568.0,1500.0,1500.0,0.0,0.0,0.0,0.0,0.0,0.0,0.0,0.0,0.0,0.0,2203,224c2092-44e1-4b73-879c-d0ad0c4b4c87
85693904,8,1668.0,1691.0,1648.0,1558.0,1500.0,1500.0,0.0,0.0,0.0,0.0,0.0,0.0,0.0,0.0,0.0,0.0,2203,224c2092-44e1-4b73-879c-d0ad0c4b4c87
85797956,8,1651.0,1676.0,1644.0,1583.0,1500.0,1500.0,0.0,0.0,0.0,0.0,0.0,0.0,0.0,0.0,0.0,0.0,2203,224c2092-44e1-4b73-879c-d0ad0c4b4c87
85882102,8,1667.0,1673.0,1640.0,1582.0,1500.0,1500.0,0.0,0.0,0.0,0.0,0.0,0.0,0.0,0.0,0.0,0.0,2203,224c2092-44e1-4b73-879c-d0ad0c4b4c87
85997885,8,1660.0,1677.0,1655.0,1569.0,1500.0,1500.0,0.0,0.0,0.0,0.0,0.0,0.0,0.0,0.0,0.0,0.0,2203,224c2092-44e1-4b73-879c-d0ad0c4b4c87
86105898,8,1657.0,1681.0,1654.0,1566.0,1500.0,1500.0,0.0,0.0,0.0,0.0,0.0,0.0,0.0,0.0,0.0,0.0,2203,224c2092-44e1-4b73-879c-d0ad0c4b4c87
86193861,8,1664.0,1672.0,1641.0,1577.0,1500.0,1500.0,0.0,0.0,0.0,0.0,0.0,0.0,0.0,0.0,0.0,0.0,2203,224c2092-44e1-4b73-879c-d0ad0c4b4c87
86305920,8,1656.0,1671.0,1658.0,1574.0,1500.0,1500.0,0.0,0.0,0.0,0.0,0.0,0.0,0.0,0.0,0.0,0.0,2203,224c2092-44e1-4b73-879c-d0ad0c4b4c87
86393907,8,1665.0,1676.0,1640.0,1572.0,1500.0,1500.0,0.0,0.0,0.0,0.0,0.0,0.0,0.0,0.0,0.0,0.0,2203,224c2092-44e1-4b73-879c-d0ad0c4b4c87
86499494,8,1659.0,1675.0,1666.0,1558.0,1500.0,1500.0,0.0,0.0,0.0,0.0,0.0,0.0,0.0,0.0,0.0,0.0,2203,224c2092-44e1-4b73-879c-d0ad0c4b4c87
86611374,8,1668.0,1685.0,1653.0,1550.0,1500.0,1500.0,0.0,0.0,0.0,0.0,0.0,0.0,0.0,0.0,0.0,0.0,2203,224c2092-44e1-4b73-879c-d0ad0c4b4c87
86703491,8,1653.0,1672.0,1659.0,1569.0,1500.0,1500.0,0.0,0.0,0.0,0.0,0.0,0.0,0.0,0.0,0.0,0.0,2203,224c2092-44e1-4b73-879c-d0ad0c4b4c87
86815480,8,1661.0,1672.0,1647.0,1572.0,1500.0,1500.0,0.0,0.0,0.0,0.0,0.0,0.0,0.0,0.0,0.0,0.0,2203,224c2092-44e1-4b73-879c-d0ad0c4b4c87
86907485,8,1653.0,1670.0,1651.0,1576.0,1500.0,1500.0,0.0,0.0,0.0,0.0,0.0,0.0,0.0,0.0,0.0,0.0,2203,224c2092-44e1-4b73-879c-d0ad0c4b4c87
87015477,8,1661.0,1689.0,1646.0,1556.0,1500.0,1500.0,0.0,0.0,0.0,0.0,0.0,0.0,0.0,0.0,0.0,0.0,2203,224c2092-44e1-4b73-879c-d0ad0c4b4c87
87111477,8,1666.0,1661.0,1656.0,1570.0,1500.0,1500.0,0.0,0.0,0.0,0.0,0.0,0.0,0.0,0.0,0.0,0.0,2203,224c2092-44e1-4b73-879c-d0ad0c4b4c87
87219461,8,1654.0,1665.0,1650.0,1579.0,1500.0,1500.0,0.0,0.0,0.0,0.0,0.0,0.0,0.0,0.0,0.0,0.0,2203,224c2092-44e1-4b73-879c-d0ad0c4b4c87
87311396,8,1668.0,1677.0,1649.0,1559.0,1500.0,1500.0,0.0,0.0,0.0,0.0,0.0,0.0,0.0,0.0,0.0,0.0,2203,224c2092-44e1-4b73-879c-d0ad0c4b4c87
87420988,8,1652.0,1682.0,1657.0,1559.0,1500.0,1500.0,0.0,0.0,0.0,0.0,0.0,0.0,0.0,0.0,0.0,0.0,2203,224c2092-44e1-4b73-879c-d0ad0c4b4c87
87525307,8,1657.0,1674.0,1652.0,1566.0,1500.0,1500.0,0.0,0.0,0.0,0.0,0.0,0.0,0.0,0.0,0.0,0.0,2203,224c2092-44e1-4b73-879c-d0ad0c4b4c87
87613294,8,1662.0,1683.0,1652.0,1554.0,1500.0,1500.0,0.0,0.0,0.0,0.0,0.0,0.0,0.0,0.0,0.0,0.0,2203,224c2092-44e1-4b73-879c-d0ad0c4b4c87
87721110,8,1662.0,1669.0,1642.0,1573.0,1500.0,1500.0,0.0,0.0,0.0,0.0,0.0,0.0,0.0,0.0,0.0,0.0,2203,224c2092-44e1-4b73-879c-d0ad0c4b4c87
87833349,8,1656.0,1674.0,1645.0,1573.0,1500.0,1500.0,0.0,0.0,0.0,0.0,0.0,0.0,0.0,0.0,0.0,0.0,2203,224c2092-44e1-4b73-879c-d0ad0c4b4c87
87921131,8,1652.0,1668.0,1653.0,1572.0,1500.0,1500.0,0.0,0.0,0.0,0.0,0.0,0.0,0.0,0.0,0.0,0.0,2203,224c2092-44e1-4b73-879c-d0ad0c4b4c87
88036969,8,1646.0,1670.0,1657.0,1572.0,1500.0,1500.0,0.0,0.0,0.0,0.0,0.0,0.0,0.0,0.0,0.0,0.0,2203,224c2092-44e1-4b73-879c-d0ad0c4b4c87
88141067,8,1649.0,1668.0,1654.0,1574.0,1500.0,1500.0,0.0,0.0,0.0,0.0,0.0,0.0,0.0,0.0,0.0,0.0,2203,224c2092-44e1-4b73-879c-d0ad0c4b4c87
88237326,8,1659.0,1670.0,1648.0,1567.0,1500.0,1500.0,0.0,0.0,0.0,0.0,0.0,0.0,0.0,0.0,0.0,0.0,2203,224c2092-44e1-4b73-879c-d0ad0c4b4c87
88329500,8,1655.0,1687.0,1653.0,1547.0,1500.0,1500.0,0.0,0.0,0.0,0.0,0.0,0.0,0.0,0.0,0.0,0.0,2203,224c2092-44e1-4b73-879c-d0ad0c4b4c87
88442698,8,1661.0,1673.0,1648.0,1562.0,1500.0,1500.0,0.0,0.0,0.0,0.0,0.0,0.0,0.0,0.0,0.0,0.0,2203,224c2092-44e1-4b73-879c-d0ad0c4b4c87
88534674,8,1649.0,1681.0,1660.0,1554.0,1500.0,1500.0,0.0,0.0,0.0,0.0,0.0,0.0,0.0,0.0,0.0,0.0,2203,224c2092-44e1-4b73-879c-d0ad0c4b4c87
88646963,8,1655.0,1680.0,1668.0,1544.0,1500.0,1500.0,0.0,0.0,0.0,0.0,0.0,0.0,0.0,0.0,0.0,0.0,2203,224c2092-44e1-4b73-879c-d0ad0c4b4c87
88734940,8,1662.0,1676.0,1654.0,1553.0,1500.0,1500.0,0.0,0.0,0.0,0.0,0.0,0.0,0.0,0.0,0.0,0.0,2203,224c2092-44e1-4b73-879c-d0ad0c4b4c87
88838680,8,1669.0,1665.0,1643.0,1569.0,1500.0,1500.0,0.0,0.0,0.0,0.0,0.0,0.0,0.0,0.0,0.0,0.0,2203,224c2092-44e1-4b73-879c-d0ad0c4b4c87
88950993,8,1662.0,1683.0,1658.0,1544.0,1500.0,1500.0,0.0,0.0,0.0,0.0,0.0,0.0,0.0,0.0,0.0,0.0,2203,224c2092-44e1-4b73-879c-d0ad0c4b4c87
89046922,8,1659.0,1677.0,1641.0,1562.0,1500.0,1500.0,0.0,0.0,0.0,0.0,0.0,0.0,0.0,0.0,0.0,0.0,2203,224c2092-44e1-4b73-879c-d0ad0c4b4c87
89138931,8,1655.0,1674.0,1666.0,1551.0,1500.0,1500.0,0.0,0.0,0.0,0.0,0.0,0.0,0.0,0.0,0.0,0.0,2203,224c2092-44e1-4b73-879c-d0ad0c4b4c87
89251025,8,1659.0,1672.0,1647.0,1565.0,1500.0,1500.0,0.0,0.0,0.0,0.0,0.0,0.0,0.0,0.0,0.0,0.0,2203,224c2092-44e1-4b73-879c-d0ad0c4b4c87
89358968,8,1659.0,1673.0,1649.0,1561.0,1500.0,1500.0,0.0,0.0,0.0,0.0,0.0,0.0,0.0,0.0,0.0,0.0,2203,224c2092-44e1-4b73-879c-d0ad0c4b4c87
89444627,8,1666.0,1685.0,1647.0,1549.0,1500.0,1500.0,0.0,0.0,0.0,0.0,0.0,0.0,0.0,0.0,0.0,0.0,2203,224c2092-44e1-4b73-879c-d0ad0c4b4c87
89552643,8,1663.0,1679.0,1652.0,1552.0,1500.0,1500.0,0.0,0.0,0.0,0.0,0.0,0.0,0.0,0.0,0.0,0.0,2203,224c2092-44e1-4b73-879c-d0ad0c4b4c87
89664413,8,1660.0,1664.0,1648.0,1570.0,1500.0,1500.0,0.0,0.0,0.0,0.0,0.0,0.0,0.0,0.0,0.0,0.0,2203,224c2092-44e1-4b73-879c-d0ad0c4b4c87
89760245,8,1650.0,1673.0,1659.0,1564.0,1500.0,1500.0,0.0,0.0,0.0,0.0,0.0,0.0,0.0,0.0,0.0,0.0,2203,224c2092-44e1-4b73-879c-d0ad0c4b4c87
89872531,8,1666.0,1683.0,1646.0,1554.0,1500.0,1500.0,0.0,0.0,0.0,0.0,0.0,0.0,0.0,0.0,0.0,0.0,2203,224c2092-44e1-4b73-879c-d0ad0c4b4c87
89960528,8,1660.0,1669.0,1655.0,1564.0,1500.0,1500.0,0.0,0.0,0.0,0.0,0.0,0.0,0.0,0.0,0.0,0.0,2203,224c2092-44e1-4b73-879c-d0ad0c4b4c87
90076277,8,1664.0,1665.0,1641.0,1574.0,1500.0,1500.0,0.0,0.0,0.0,0.0,0.0,0.0,0.0,0.0,0.0,0.0,2203,224c2092-44e1-4b73-879c-d0ad0c4b4c87
90168550,8,1657.0,1684.0,1659.0,1547.0,1500.0,1500.0,0.0,0.0,0.0,0.0,0.0,0.0,0.0,0.0,0.0,0.0,2203,224c2092-44e1-4b73-879c-d0ad0c4b4c87
90256565,8,1659.0,1682.0,1655.0,1553.0,1500.0,1500.0,0.0,0.0,0.0,0.0,0.0,0.0,0.0,0.0,0.0,0.0,2203,224c2092-44e1-4b73-879c-d0ad0c4b4c87
90368295,8,1663.0,1681.0,1647.0,1554.0,1500.0,1500.0,0.0,0.0,0.0,0.0,0.0,0.0,0.0,0.0,0.0,0.0,2203,224c2092-44e1-4b73-879c-d0ad0c4b4c87
90474008,8,1671.0,1680.0,1646.0,1553.0,1500.0,1500.0,0.0,0.0,0.0,0.0,0.0,0.0,0.0,0.0,0.0,0.0,2203,224c2092-44e1-4b73-879c-d0ad0c4b4c87
90577924,8,1653.0,1666.0,1649.0,1578.0,1500.0,1500.0,0.0,0.0,0.0,0.0,0.0,0.0,0.0,0.0,0.0,0.0,2203,224c2092-44e1-4b73-879c-d0ad0c4b4c87
90670174,8,1667.0,1676.0,1643.0,1560.0,1500.0,1500.0,0.0,0.0,0.0,0.0,0.0,0.0,0.0,0.0,0.0,0.0,2203,224c2092-44e1-4b73-879c-d0ad0c4b4c87
90785859,8,1667.0,1672.0,1649.0,1560.0,1500.0,1500.0,0.0,0.0,0.0,0.0,0.0,0.0,0.0,0.0,0.0,0.0,2203,224c2092-44e1-4b73-879c-d0ad0c4b4c87
90874152,8,1653.0,1673.0,1656.0,1569.0,1500.0,1500.0,0.0,0.0,0.0,0.0,0.0,0.0,0.0,0.0,0.0,0.0,2203,224c2092-44e1-4b73-879c-d0ad0c4b4c87
90986115,8,1660.0,1675.0,1659.0,1554.0,1500.0,1500.0,0.0,0.0,0.0,0.0,0.0,0.0,0.0,0.0,0.0,0.0,2203,224c2092-44e1-4b73-879c-d0ad0c4b4c87
91074139,8,1653.0,1668.0,1647.0,1577.0,1500.0,1500.0,0.0,0.0,0.0,0.0,0.0,0.0,0.0,0.0,0.0,0.0,2203,224c2092-44e1-4b73-879c-d0ad0c4b4c87
91185866,8,1657.0,1663.0,1653.0,1574.0,1500.0,1500.0,0.0,0.0,0.0,0.0,0.0,0.0,0.0,0.0,0.0,0.0,2203,224c2092-44e1-4b73-879c-d0ad0c4b4c87
91277905,8,1673.0,1671.0,1647.0,1560.0,1500.0,1500.0,0.0,0.0,0.0,0.0,0.0,0.0,0.0,0.0,0.0,0.0,2203,224c2092-44e1-4b73-879c-d0ad0c4b4c87
91383385,8,1651.0,1675.0,1657.0,1563.0,1500.0,1500.0,0.0,0.0,0.0,0.0,0.0,0.0,0.0,0.0,0.0,0.0,2203,224c2092-44e1-4b73-879c-d0ad0c4b4c87
91491493,8,1668.0,1658.0,1654.0,1571.0,1500.0,1500.0,0.0,0.0,0.0,0.0,0.0,0.0,0.0,0.0,0.0,0.0,2203,224c2092-44e1-4b73-879c-d0ad0c4b4c87
91599519,8,1655.0,1666.0,1658.0,1566.0,1500.0,1500.0,0.0,0.0,0.0,0.0,0.0,0.0,0.0,0.0,0.0,0.0,2203,224c2092-44e1-4b73-879c-d0ad0c4b4c87
91687760,8,1661.0,1679.0,1647.0,1559.0,1500.0,1500.0,0.0,0.0,0.0,0.0,0.0,0.0,0.0,0.0,0.0,0.0,2203,224c2092-44e1-4b73-879c-d0ad0c4b4c87
91799410,8,1666.0,1676.0,1642.0,1559.0,1500.0,1500.0,0.0,0.0,0.0,0.0,0.0,0.0,0.0,0.0,0.0,0.0,2203,224c2092-44e1-4b73-879c-d0ad0c4b4c87
91887451,8,1656.0,1668.0,1657.0,1563.0,1500.0,1500.0,0.0,0.0,0.0,0.0,0.0,0.0,0.0,0.0,0.0,0.0,2203,224c2092-44e1-4b73-879c-d0ad0c4b4c87
91999910,8,1660.0,1665.0,1649.0,1568.0,1500.0,1500.0,0.0,0.0,0.0,0.0,0.0,0.0,0.0,0.0,0.0,0.0,2203,224c2092-44e1-4b73-879c-d0ad0c4b4c87
92111806,8,1655.0,1672.0,1644.0,1574.0,1500.0,1500.0,0.0,0.0,0.0,0.0,0.0,0.0,0.0,0.0,0.0,0.0,2203,224c2092-44e1-4b73-879c-d0ad0c4b4c87
92207736,8,1665.0,1673.0,1655.0,1555.0,1500.0,1500.0,0.0,0.0,0.0,0.0,0.0,0.0,0.0,0.0,0.0,0.0,2203,224c2092-44e1-4b73-879c-d0ad0c4b4c87
92303498,8,1659.0,1673.0,1661.0,1556.0,1500.0,1500.0,0.0,0.0,0.0,0.0,0.0,0.0,0.0,0.0,0.0,0.0,2203,224c2092-44e1-4b73-879c-d0ad0c4b4c87
92405028,8,1657.0,1676.0,1661.0,1556.0,1500.0,1500.0,0.0,0.0,0.0,0.0,0.0,0.0,0.0,0.0,0.0,0.0,2203,224c2092-44e1-4b73-879c-d0ad0c4b4c87
92513102,8,1677.0,1668.0,1643.0,1560.0,1500.0,1500.0,0.0,0.0,0.0,0.0,0.0,0.0,0.0,0.0,0.0,0.0,2203,224c2092-44e1-4b73-879c-d0ad0c4b4c87
92621211,8,1666.0,1661.0,1655.0,1568.0,1500.0,1500.0,0.0,0.0,0.0,0.0,0.0,0.0,0.0,0.0,0.0,0.0,2203,224c2092-44e1-4b73-879c-d0ad0c4b4c87
92709142,8,1667.0,1670.0,1651.0,1560.0,1500.0,1500.0,0.0,0.0,0.0,0.0,0.0,0.0,0.0,0.0,0.0,0.0,2203,224c2092-44e1-4b73-879c-d0ad0c4b4c87
92817074,8,1655.0,1674.0,1660.0,1556.0,1500.0,1500.0,0.0,0.0,0.0,0.0,0.0,0.0,0.0,0.0,0.0,0.0,2203,224c2092-44e1-4b73-879c-d0ad0c4b4c87
92925090,8,1658.0,1663.0,1652.0,1574.0,1500.0,1500.0,0.0,0.0,0.0,0.0,0.0,0.0,0.0,0.0,0.0,0.0,2203,224c2092-44e1-4b73-879c-d0ad0c4b4c87
93017036,8,1656.0,1668.0,1655.0,1568.0,1500.0,1500.0,0.0,0.0,0.0,0.0,0.0,0.0,0.0,0.0,0.0,0.0,2203,224c2092-44e1-4b73-879c-d0ad0c4b4c87
93109077,8,1656.0,1667.0,1648.0,1573.0,1500.0,1500.0,0.0,0.0,0.0,0.0,0.0,0.0,0.0,0.0,0.0,0.0,2203,224c2092-44e1-4b73-879c-d0ad0c4b4c87
93225477,8,1665.0,1689.0,1655.0,1542.0,1500.0,1500.0,0.0,0.0,0.0,0.0,0.0,0.0,0.0,0.0,0.0,0.0,2203,224c2092-44e1-4b73-879c-d0ad0c4b4c87
93317166,8,1668.0,1685.0,1652.0,1545.0,1500.0,1500.0,0.0,0.0,0.0,0.0,0.0,0.0,0.0,0.0,0.0,0.0,2203,224c2092-44e1-4b73-879c-d0ad0c4b4c87
93418659,8,1660.0,1669.0,1646.0,1571.0,1500.0,1500.0,0.0,0.0,0.0,0.0,0.0,0.0,0.0,0.0,0.0,0.0,2203,224c2092-44e1-4b73-879c-d0ad0c4b4c87
93534934,8,1662.0,1659.0,1661.0,1571.0,1500.0,1500.0,0.0,0.0,0.0,0.0,0.0,0.0,0.0,0.0,0.0,0.0,2203,224c2092-44e1-4b73-879c-d0ad0c4b4c87
93622948,8,1665.0,1680.0,1645.0,1557.0,1500.0,1500.0,0.0,0.0,0.0,0.0,0.0,0.0,0.0,0.0,0.0,0.0,2203,224c2092-44e1-4b73-879c-d0ad0c4b4c87
93730883,8,1656.0,1668.0,1657.0,1567.0,1500.0,1500.0,0.0,0.0,0.0,0.0,0.0,0.0,0.0,0.0,0.0,0.0,2203,224c2092-44e1-4b73-879c-d0ad0c4b4c87
93842956,8,1669.0,1683.0,1638.0,1560.0,1500.0,1500.0,0.0,0.0,0.0,0.0,0.0,0.0,0.0,0.0,0.0,0.0,2203,224c2092-44e1-4b73-879c-d0ad0c4b4c87
93930703,8,1665.0,1670.0,1645.0,1568.0,1500.0,1500.0,0.0,0.0,0.0,0.0,0.0,0.0,0.0,0.0,0.0,0.0,2203,224c2092-44e1-4b73-879c-d0ad0c4b4c87
94046914,8,1656.0,1669.0,1654.0,1569.0,1500.0,1500.0,0.0,0.0,0.0,0.0,0.0,0.0,0.0,0.0,0.0,0.0,2203,224c2092-44e1-4b73-879c-d0ad0c4b4c87
94154943,8,1667.0,1672.0,1652.0,1561.0,1500.0,1500.0,0.0,0.0,0.0,0.0,0.0,0.0,0.0,0.0,0.0,0.0,2203,224c2092-44e1-4b73-879c-d0ad0c4b4c87
94242903,8,1657.0,1671.0,1653.0,1571.0,1500.0,1500.0,0.0,0.0,0.0,0.0,0.0,0.0,0.0,0.0,0.0,0.0,2203,224c2092-44e1-4b73-879c-d0ad0c4b4c87
94351747,8,1676.0,1675.0,1645.0,1560.0,1500.0,1500.0,0.0,0.0,0.0,0.0,0.0,0.0,0.0,0.0,0.0,0.0,2203,224c2092-44e1-4b73-879c-d0ad0c4b4c87
94456279,8,1668.0,1679.0,1646.0,1563.0,1500.0,1500.0,0.0,0.0,0.0,0.0,0.0,0.0,0.0,0.0,0.0,0.0,2203,224c2092-44e1-4b73-879c-d0ad0c4b4c87
94564255,8,1663.0,1675.0,1657.0,1561.0,1500.0,1500.0,0.0,0.0,0.0,0.0,0.0,0.0,0.0,0.0,0.0,0.0,2203,224c2092-44e1-4b73-879c-d0ad0c4b4c87
94656448,8,1667.0,1663.0,1645.0,1575.0,1500.0,1500.0,0.0,0.0,0.0,0.0,0.0,0.0,0.0,0.0,0.0,0.0,2203,224c2092-44e1-4b73-879c-d0ad0c4b4c87
94748281,8,1674.0,1666.0,1649.0,1579.0,1500.0,1500.0,0.0,0.0,0.0,0.0,0.0,0.0,0.0,0.0,0.0,0.0,2203,224c2092-44e1-4b73-879c-d0ad0c4b4c87
94860251,8,1663.0,1680.0,1646.0,1561.0,1500.0,1500.0,0.0,0.0,0.0,0.0,0.0,0.0,0.0,0.0,0.0,0.0,2203,224c2092-44e1-4b73-879c-d0ad0c4b4c87
94968435,8,1661.0,1660.0,1646.0,1580.0,1500.0,1500.0,0.0,0.0,0.0,0.0,0.0,0.0,0.0,0.0,0.0,0.0,2203,224c2092-44e1-4b73-879c-d0ad0c4b4c87
95056273,8,1657.0,1669.0,1651.0,1571.0,1500.0,1500.0,0.0,0.0,0.0,0.0,0.0,0.0,0.0,0.0,0.0,0.0,2203,224c2092-44e1-4b73-879c-d0ad0c4b4c87
95164281,8,1665.0,1666.0,1658.0,1565.0,1500.0,1500.0,0.0,0.0,0.0,0.0,0.0,0.0,0.0,0.0,0.0,0.0,2203,224c2092-44e1-4b73-879c-d0ad0c4b4c87
95260270,8,1666.0,1670.0,1664.0,1557.0,1500.0,1500.0,0.0,0.0,0.0,0.0,0.0,0.0,0.0,0.0,0.0,0.0,2203,224c2092-44e1-4b73-879c-d0ad0c4b4c87
95370160,8,1661.0,1680.0,1652.0,1558.0,1500.0,1500.0,0.0,0.0,0.0,0.0,0.0,0.0,0.0,0.0,0.0,0.0,2203,224c2092-44e1-4b73-879c-d0ad0c4b4c87
95481867,8,1655.0,1668.0,1647.0,1579.0,1500.0,1500.0,0.0,0.0,0.0,0.0,0.0,0.0,0.0,0.0,0.0,0.0,2203,224c2092-44e1-4b73-879c-d0ad0c4b4c87
95585925,8,1663.0,1675.0,1667.0,1550.0,1500.0,1500.0,0.0,0.0,0.0,0.0,0.0,0.0,0.0,0.0,0.0,0.0,2203,224c2092-44e1-4b73-879c-d0ad0c4b4c87
95674214,8,1674.0,1672.0,1656.0,1552.0,1500.0,1500.0,0.0,0.0,0.0,0.0,0.0,0.0,0.0,0.0,0.0,0.0,2203,224c2092-44e1-4b73-879c-d0ad0c4b4c87
95782199,8,1661.0,1672.0,1641.0,1567.0,1500.0,1500.0,0.0,0.0,0.0,0.0,0.0,0.0,0.0,0.0,0.0,0.0,2203,224c2092-44e1-4b73-879c-d0ad0c4b4c87
95877899,8,1674.0,1684.0,1642.0,1551.0,1500.0,1500.0,0.0,0.0,0.0,0.0,0.0,0.0,0.0,0.0,0.0,0.0,2203,224c2092-44e1-4b73-879c-d0ad0c4b4c87
95982186,8,1660.0,1663.0,1652.0,1571.0,1500.0,1500.0,0.0,0.0,0.0,0.0,0.0,0.0,0.0,0.0,0.0,0.0,2203,224c2092-44e1-4b73-879c-d0ad0c4b4c87
96090132,8,1673.0,1676.0,1642.0,1560.0,1500.0,1500.0,0.0,0.0,0.0,0.0,0.0,0.0,0.0,0.0,0.0,0.0,2203,224c2092-44e1-4b73-879c-d0ad0c4b4c87
96201867,8,1666.0,1675.0,1643.0,1564.0,1500.0,1500.0,0.0,0.0,0.0,0.0,0.0,0.0,0.0,0.0,0.0,0.0,2203,224c2092-44e1-4b73-879c-d0ad0c4b4c87
96290036,8,1676.0,1680.0,1648.0,1550.0,1500.0,1500.0,0.0,0.0,0.0,0.0,0.0,0.0,0.0,0.0,0.0,0.0,2203,224c2092-44e1-4b73-879c-d0ad0c4b4c87
96403763,8,1665.0,1666.0,1655.0,1569.0,1500.0,1500.0,0.0,0.0,0.0,0.0,0.0,0.0,0.0,0.0,0.0,0.0,2203,224c2092-44e1-4b73-879c-d0ad0c4b4c87
96491504,8,1665.0,1667.0,1653.0,1569.0,1500.0,1500.0,0.0,0.0,0.0,0.0,0.0,0.0,0.0,0.0,0.0,0.0,2203,224c2092-44e1-4b73-879c-d0ad0c4b4c87
96599499,8,1662.0,1674.0,1659.0,1565.0,1500.0,1500.0,0.0,0.0,0.0,0.0,0.0,0.0,0.0,0.0,0.0,0.0,2203,224c2092-44e1-4b73-879c-d0ad0c4b4c87
96711455,8,1671.0,1680.0,1654.0,1550.0,1500.0,1500.0,0.0,0.0,0.0,0.0,0.0,0.0,0.0,0.0,0.0,0.0,2203,224c2092-44e1-4b73-879c-d0ad0c4b4c87
96803744,8,1671.0,1674.0,1658.0,1554.0,1500.0,1500.0,0.0,0.0,0.0,0.0,0.0,0.0,0.0,0.0,0.0,0.0,2203,224c2092-44e1-4b73-879c-d0ad0c4b4c87
96919503,8,1654.0,1672.0,1659.0,1568.0,1500.0,1500.0,0.0,0.0,0.0,0.0,0.0,0.0,0.0,0.0,0.0,0.0,2203,224c2092-44e1-4b73-879c-d0ad0c4b4c87
97011743,8,1664.0,1668.0,1653.0,1570.0,1500.0,1500.0,0.0,0.0,0.0,0.0,0.0,0.0,0.0,0.0,0.0,0.0,2203,224c2092-44e1-4b73-879c-d0ad0c4b4c87
97119722,8,1666.0,1674.0,1646.0,1567.0,1500.0,1500.0,0.0,0.0,0.0,0.0,0.0,0.0,0.0,0.0,0.0,0.0,2203,224c2092-44e1-4b73-879c-d0ad0c4b4c87
97211465,8,1672.0,1682.0,1657.0,1548.0,1500.0,1500.0,0.0,0.0,0.0,0.0,0.0,0.0,0.0,0.0,0.0,0.0,2203,224c2092-44e1-4b73-879c-d0ad0c4b4c87
97321347,8,1673.0,1681.0,1648.0,1554.0,1500.0,1500.0,0.0,0.0,0.0,0.0,0.0,0.0,0.0,0.0,0.0,0.0,2203,224c2092-44e1-4b73-879c-d0ad0c4b4c87
97413284,8,1668.0,1676.0,1662.0,1555.0,1500.0,1500.0,0.0,0.0,0.0,0.0,0.0,0.0,0.0,0.0,0.0,0.0,2203,224c2092-44e1-4b73-879c-d0ad0c4b4c87
97521300,8,1671.0,1684.0,1643.0,1559.0,1500.0,1500.0,0.0,0.0,0.0,0.0,0.0,0.0,0.0,0.0,0.0,0.0,2203,224c2092-44e1-4b73-879c-d0ad0c4b4c87
97629019,8,1685.0,1677.0,1649.0,1554.0,1500.0,1500.0,0.0,0.0,0.0,0.0,0.0,0.0,0.0,0.0,0.0,0.0,2203,224c2092-44e1-4b73-879c-d0ad0c4b4c87
97721111,8,1657.0,1680.0,1660.0,1561.0,1500.0,1500.0,0.0,0.0,0.0,0.0,0.0,0.0,0.0,0.0,0.0,0.0,2203,224c2092-44e1-4b73-879c-d0ad0c4b4c87
97833510,8,1666.0,1682.0,1662.0,1549.0,1500.0,1500.0,0.0,0.0,0.0,0.0,0.0,0.0,0.0,0.0,0.0,0.0,2203,224c2092-44e1-4b73-879c-d0ad0c4b4c87
97921353,8,1669.0,1685.0,1657.0,1574.0,1500.0,1500.0,0.0,0.0,0.0,0.0,0.0,0.0,0.0,0.0,0.0,0.0,2203,224c2092-44e1-4b73-879c-d0ad0c4b4c87
98029151,8,1669.0,1683.0,1652.0,1571.0,1500.0,1500.0,0.0,0.0,0.0,0.0,0.0,0.0,0.0,0.0,0.0,0.0,2203,224c2092-44e1-4b73-879c-d0ad0c4b4c87
98117075,8,1675.0,1680.0,1645.0,1558.0,1500.0,1500.0,0.0,0.0,0.0,0.0,0.0,0.0,0.0,0.0,0.0,0.0,2203,224c2092-44e1-4b73-879c-d0ad0c4b4c87
98229374,8,1664.0,1665.0,1654.0,1575.0,1500.0,1500.0,0.0,0.0,0.0,0.0,0.0,0.0,0.0,0.0,0.0,0.0,2203,224c2092-44e1-4b73-879c-d0ad0c4b4c87
98342828,8,1668.0,1676.0,1659.0,1561.0,1500.0,1500.0,0.0,0.0,0.0,0.0,0.0,0.0,0.0,0.0,0.0,0.0,2203,224c2092-44e1-4b73-879c-d0ad0c4b4c87
98434729,8,1676.0,1679.0,1656.0,1553.0,1500.0,1500.0,0.0,0.0,0.0,0.0,0.0,0.0,0.0,0.0,0.0,0.0,2203,224c2092-44e1-4b73-879c-d0ad0c4b4c87
98546946,8,1671.0,1664.0,1654.0,1572.0,1500.0,1500.0,0.0,0.0,0.0,0.0,0.0,0.0,0.0,0.0,0.0,0.0,2203,224c2092-44e1-4b73-879c-d0ad0c4b4c87
98630835,8,1663.0,1664.0,1657.0,1574.0,1500.0,1500.0,0.0,0.0,0.0,0.0,0.0,0.0,0.0,0.0,0.0,0.0,2203,224c2092-44e1-4b73-879c-d0ad0c4b4c87
98742908,8,1669.0,1678.0,1654.0,1558.0,1500.0,1500.0,0.0,0.0,0.0,0.0,0.0,0.0,0.0,0.0,0.0,0.0,2203,224c2092-44e1-4b73-879c-d0ad0c4b4c87
98830662,8,1664.0,1680.0,1658.0,1554.0,1500.0,1500.0,0.0,0.0,0.0,0.0,0.0,0.0,0.0,0.0,0.0,0.0,2203,224c2092-44e1-4b73-879c-d0ad0c4b4c87
98942673,8,1662.0,1668.0,1654.0,1572.0,1500.0,1500.0,0.0,0.0,0.0,0.0,0.0,0.0,0.0,0.0,0.0,0.0,2203,224c2092-44e1-4b73-879c-d0ad0c4b4c87
99046952,8,1657.0,1651.0,1651.0,1550.0,1500.0,1500.0,0.0,0.0,0.0,0.0,0.0,0.0,0.0,0.0,0.0,0.0,2203,224c2092-44e1-4b73-879c-d0ad0c4b4c87
99158572,8,1639.0,1654.0,1629.0,1520.0,1500.0,1500.0,0.0,0.0,0.0,0.0,0.0,0.0,0.0,0.0,0.0,0.0,2203,224c2092-44e1-4b73-879c-d0ad0c4b4c87
99242696,8,1630.0,1637.0,1622.0,1528.0,1500.0,1500.0,0.0,0.0,0.0,0.0,0.0,0.0,0.0,0.0,0.0,0.0,2203,224c2092-44e1-4b73-879c-d0ad0c4b4c87
99356411,8,1647.0,1635.0,1598.0,1515.0,1500.0,1500.0,0.0,0.0,0.0,0.0,0.0,0.0,0.0,0.0,0.0,0.0,2203,224c2092-44e1-4b73-879c-d0ad0c4b4c87
99468516,8,1618.0,1630.0,1628.0,1509.0,1500.0,1500.0,0.0,0.0,0.0,0.0,0.0,0.0,0.0,0.0,0.0,0.0,2203,224c2092-44e1-4b73-879c-d0ad0c4b4c87
99560548,8,1613.0,1629.0,1625.0,1514.0,1500.0,1500.0,0.0,0.0,0.0,0.0,0.0,0.0,0.0,0.0,0.0,0.0,2203,224c2092-44e1-4b73-879c-d0ad0c4b4c87
99672440,8,1620.0,1632.0,1592.0,1535.0,1500.0,1500.0,0.0,0.0,0.0,0.0,0.0,0.0,0.0,0.0,0.0,0.0,2203,224c2092-44e1-4b73-879c-d0ad0c4b4c87
99760279,8,1617.0,1619.0,1605.0,1535.0,1500.0,1500.0,0.0,0.0,0.0,0.0,0.0,0.0,0.0,0.0,0.0,0.0,2203,224c2092-44e1-4b73-879c-d0ad0c4b4c87
99868437,8,1617.0,1631.0,1613.0,1520.0,1500.0,1500.0,0.0,0.0,0.0,0.0,0.0,0.0,0.0,0.0,0.0,0.0,2203,224c2092-44e1-4b73-879c-d0ad0c4b4c87
99976245,8,1630.0,1638.0,1605.0,1506.0,1500.0,1500.0,0.0,0.0,0.0,0.0,0.0,0.0,0.0,0.0,0.0,0.0,2203,224c2092-44e1-4b73-879c-d0ad0c4b4c87
100068296,8,1616.0,1612.0,1621.0,1532.0,1500.0,1500.0,0.0,0.0,0.0,0.0,0.0,0.0,0.0,0.0,0.0,0.0,2203,224c2092-44e1-4b73-879c-d0ad0c4b4c87
100176434,8,1629.0,1622.0,1609.0,1520.0,1500.0,1500.0,0.0,0.0,0.0,0.0,0.0,0.0,0.0,0.0,0.0,0.0,2203,224c2092-44e1-4b73-879c-d0ad0c4b4c87
100278196,8,1632.0,1639.0,1605.0,1509.0,1500.0,1500.0,0.0,0.0,0.0,0.0,0.0,0.0,0.0,0.0,0.0,0.0,2203,224c2092-44e1-4b73-879c-d0ad0c4b4c87
100362150,8,1852.0,1623.0,1625.0,1532.0,1500.0,1500.0,0.0,0.0,0.0,0.0,0.0,0.0,0.0,0.0,0.0,0.0,2203,224c2092-44e1-4b73-879c-d0ad0c4b4c87
100473877,8,1747.0,1733.0,1571.0,1409.0,1500.0,1500.0,0.0,0.0,0.0,0.0,0.0,0.0,0.0,0.0,0.0,0.0,2203,224c2092-44e1-4b73-879c-d0ad0c4b4c87
100585877,8,1662.0,1673.0,1580.0,1454.0,1500.0,1500.0,0.0,0.0,0.0,0.0,0.0,0.0,0.0,0.0,0.0,0.0,2203,224c2092-44e1-4b73-879c-d0ad0c4b4c87
100674211,8,1640.0,1641.0,1567.0,1501.0,1500.0,1500.0,0.0,0.0,0.0,0.0,0.0,0.0,0.0,0.0,0.0,0.0,2203,224c2092-44e1-4b73-879c-d0ad0c4b4c87
100782227,8,1584.0,1675.0,1575.0,1512.0,1500.0,1500.0,0.0,0.0,0.0,0.0,0.0,0.0,0.0,0.0,0.0,0.0,2203,224c2092-44e1-4b73-879c-d0ad0c4b4c87
100877880,8,1580.0,1642.0,1584.0,1555.0,1500.0,1500.0,0.0,0.0,0.0,0.0,0.0,0.0,0.0,0.0,0.0,0.0,2203,224c2092-44e1-4b73-879c-d0ad0c4b4c87
100986203,8,1595.0,1637.0,1630.0,1551.0,1500.0,1500.0,0.0,0.0,0.0,0.0,0.0,0.0,0.0,0.0,0.0,0.0,2203,224c2092-44e1-4b73-879c-d0ad0c4b4c87
101093896,8,1601.0,1652.0,1655.0,1560.0,1500.0,1500.0,0.0,0.0,0.0,0.0,0.0,0.0,0.0,0.0,0.0,0.0,2203,224c2092-44e1-4b73-879c-d0ad0c4b4c87
101181887,8,1622.0,1638.0,1659.0,1576.0,1500.0,1500.0,0.0,0.0,0.0,0.0,0.0,0.0,0.0,0.0,0.0,0.0,2203,224c2092-44e1-4b73-879c-d0ad0c4b4c87
101291635,8,1606.0,1643.0,1664.0,1600.0,1500.0,1500.0,0.0,0.0,0.0,0.0,0.0,0.0,0.0,0.0,0.0,0.0,2203,224c2092-44e1-4b73-879c-d0ad0c4b4c87
101399491,8,1607.0,1676.0,1658.0,1599.0,1500.0,1500.0,0.0,0.0,0.0,0.0,0.0,0.0,0.0,0.0,0.0,0.0,2203,224c2092-44e1-4b73-879c-d0ad0c4b4c87
101487755,8,1608.0,1689.0,1650.0,1602.0,1500.0,1500.0,0.0,0.0,0.0,0.0,0.0,0.0,0.0,0.0,0.0,0.0,2203,224c2092-44e1-4b73-879c-d0ad0c4b4c87
101599467,8,1612.0,1692.0,1663.0,1611.0,1500.0,1500.0,0.0,0.0,0.0,0.0,0.0,0.0,0.0,0.0,0.0,0.0,2203,224c2092-44e1-4b73-879c-d0ad0c4b4c87
101691378,8,1627.0,1704.0,1639.0,1619.0,1500.0,1500.0,0.0,0.0,0.0,0.0,0.0,0.0,0.0,0.0,0.0,0.0,2203,224c2092-44e1-4b73-879c-d0ad0c4b4c87
101799480,8,1628.0,1723.0,1654.0,1611.0,1500.0,1500.0,0.0,0.0,0.0,0.0,0.0,0.0,0.0,0.0,0.0,0.0,2203,224c2092-44e1-4b73-879c-d0ad0c4b4c87
101911722,8,1633.0,1738.0,1633.0,1640.0,1500.0,1500.0,0.0,0.0,0.0,0.0,0.0,0.0,0.0,0.0,0.0,0.0,2203,224c2092-44e1-4b73-879c-d0ad0c4b4c87
102003401,8,1647.0,1743.0,1642.0,1628.0,1500.0,1500.0,0.0,0.0,0.0,0.0,0.0,0.0,0.0,0.0,0.0,0.0,2203,224c2092-44e1-4b73-879c-d0ad0c4b4c87
102111473,8,1651.0,1756.0,1646.0,1631.0,1500.0,1500.0,0.0,0.0,0.0,0.0,0.0,0.0,0.0,0.0,0.0,0.0,2203,224c2092-44e1-4b73-879c-d0ad0c4b4c87
102199745,8,1656.0,1766.0,1628.0,1648.0,1500.0,1500.0,0.0,0.0,0.0,0.0,0.0,0.0,0.0,0.0,0.0,0.0,2203,224c2092-44e1-4b73-879c-d0ad0c4b4c87
102313087,8,1649.0,1764.0,1628.0,1663.0,1500.0,1500.0,0.0,0.0,0.0,0.0,0.0,0.0,0.0,0.0,0.0,0.0,2203,224c2092-44e1-4b73-879c-d0ad0c4b4c87
102420972,8,1660.0,1771.0,1631.0,1652.0,1500.0,1500.0,0.0,0.0,0.0,0.0,0.0,0.0,0.0,0.0,0.0,0.0,2203,224c2092-44e1-4b73-879c-d0ad0c4b4c87
102509296,8,1662.0,1772.0,1615.0,1653.0,1500.0,1500.0,0.0,0.0,0.0,0.0,0.0,0.0,0.0,0.0,0.0,0.0,2203,224c2092-44e1-4b73-879c-d0ad0c4b4c87
102617339,8,1656.0,1761.0,1616.0,1670.0,1500.0,1500.0,0.0,0.0,0.0,0.0,0.0,0.0,0.0,0.0,0.0,0.0,2203,224c2092-44e1-4b73-879c-d0ad0c4b4c87
102733122,8,1663.0,1769.0,1622.0,1665.0,1500.0,1500.0,0.0,0.0,0.0,0.0,0.0,0.0,0.0,0.0,0.0,0.0,2203,224c2092-44e1-4b73-879c-d0ad0c4b4c87
102825355,8,1669.0,1761.0,1627.0,1673.0,1500.0,1500.0,0.0,0.0,0.0,0.0,0.0,0.0,0.0,0.0,0.0,0.0,2203,224c2092-44e1-4b73-879c-d0ad0c4b4c87
102937100,8,1665.0,1768.0,1613.0,1683.0,1500.0,1500.0,0.0,0.0,0.0,0.0,0.0,0.0,0.0,0.0,0.0,0.0,2203,224c2092-44e1-4b73-879c-d0ad0c4b4c87
103033100,8,1663.0,1768.0,1622.0,1676.0,1500.0,1500.0,0.0,0.0,0.0,0.0,0.0,0.0,0.0,0.0,0.0,0.0,2203,224c2092-44e1-4b73-879c-d0ad0c4b4c87
103121351,8,1666.0,1784.0,1601.0,1676.0,1500.0,1500.0,0.0,0.0,0.0,0.0,0.0,0.0,0.0,0.0,0.0,0.0,2203,224c2092-44e1-4b73-879c-d0ad0c4b4c87
103231183,8,1667.0,1736.0,1615.0,1654.0,1500.0,1500.0,0.0,0.0,0.0,0.0,0.0,0.0,0.0,0.0,0.0,0.0,2203,224c2092-44e1-4b73-879c-d0ad0c4b4c87
103342827,8,1634.0,1736.0,1596.0,1643.0,1500.0,1500.0,0.0,0.0,0.0,0.0,0.0,0.0,0.0,0.0,0.0,0.0,2203,224c2092-44e1-4b73-879c-d0ad0c4b4c87
103430659,8,1609.0,1717.0,1586.0,1647.0,1500.0,1500.0,0.0,0.0,0.0,0.0,0.0,0.0,0.0,0.0,0.0,0.0,2203,224c2092-44e1-4b73-879c-d0ad0c4b4c87
103546927,8,1580.0,1717.0,1567.0,1651.0,1500.0,1500.0,0.0,0.0,0.0,0.0,0.0,0.0,0.0,0.0,0.0,0.0,2203,224c2092-44e1-4b73-879c-d0ad0c4b4c87
103630719,8,1574.0,1700.0,1565.0,1646.0,1500.0,1500.0,0.0,0.0,0.0,0.0,0.0,0.0,0.0,0.0,0.0,0.0,2203,224c2092-44e1-4b73-879c-d0ad0c4b4c87
103742683,8,1577.0,1697.0,1526.0,1629.0,1500.0,1500.0,0.0,0.0,0.0,0.0,0.0,0.0,0.0,0.0,0.0,0.0,2203,224c2092-44e1-4b73-879c-d0ad0c4b4c87
103854951,8,1538.0,1687.0,1506.0,1646.0,1500.0,1500.0,0.0,0.0,0.0,0.0,0.0,0.0,0.0,0.0,0.0,0.0,2203,224c2092-44e1-4b73-879c-d0ad0c4b4c87
103946675,8,1520.0,1680.0,1527.0,1613.0,1500.0,1500.0,0.0,0.0,0.0,0.0,0.0,0.0,0.0,0.0,0.0,0.0,2203,224c2092-44e1-4b73-879c-d0ad0c4b4c87
104054705,8,1523.0,1682.0,1490.0,1610.0,1500.0,1500.0,0.0,0.0,0.0,0.0,0.0,0.0,0.0,0.0,0.0,0.0,2203,224c2092-44e1-4b73-879c-d0ad0c4b4c87
104146950,8,1478.0,1693.0,1522.0,1596.0,1500.0,1500.0,0.0,0.0,0.0,0.0,0.0,0.0,0.0,0.0,0.0,0.0,2203,224c2092-44e1-4b73-879c-d0ad0c4b4c87
104252563,8,1522.0,1676.0,1464.0,1607.0,1500.0,1500.0,0.0,0.0,0.0,0.0,0.0,0.0,0.0,0.0,0.0,0.0,2203,224c2092-44e1-4b73-879c-d0ad0c4b4c87
104344311,8,1544.0,1631.0,1442.0,1641.0,1500.0,1500.0,0.0,0.0,0.0,0.0,0.0,0.0,0.0,0.0,0.0,0.0,2203,224c2092-44e1-4b73-879c-d0ad0c4b4c87
104456610,8,1511.0,1641.0,1485.0,1578.0,1500.0,1500.0,0.0,0.0,0.0,0.0,0.0,0.0,0.0,0.0,0.0,0.0,2203,224c2092-44e1-4b73-879c-d0ad0c4b4c87
