timestamp,roll,pitch,yaw,thrust,basestation,flight_number
59527024,,,,0.12,2203,224c2092-44e1-4b73-879c-d0ad0c4b4c87
59627000,,,,0.12,2203,224c2092-44e1-4b73-879c-d0ad0c4b4c87
59731092,,,,0.12,2203,224c2092-44e1-4b73-879c-d0ad0c4b4c87
59834933,,,,0.12,2203,224c2092-44e1-4b73-879c-d0ad0c4b4c87
59934967,,,,0.12,2203,224c2092-44e1-4b73-879c-d0ad0c4b4c87
60038997,,,,0.12,2203,224c2092-44e1-4b73-879c-d0ad0c4b4c87
60136540,,,,0.12,2203,224c2092-44e1-4b73-879c-d0ad0c4b4c87
60240600,,,,0.12,2203,224c2092-44e1-4b73-879c-d0ad0c4b4c87
60340741,,,,0.12,2203,224c2092-44e1-4b73-879c-d0ad0c4b4c87
60444846,,,,0.12,2203,224c2092-44e1-4b73-879c-d0ad0c4b4c87
60548617,,,,0.12,2203,224c2092-44e1-4b73-879c-d0ad0c4b4c87
60648564,,,,0.12,2203,224c2092-44e1-4b73-879c-d0ad0c4b4c87
60752564,,,,0.12,2203,224c2092-44e1-4b73-879c-d0ad0c4b4c87
60852607,,,,0.12,2203,224c2092-44e1-4b73-879c-d0ad0c4b4c87
60952569,,,,0.12,2203,224c2092-44e1-4b73-879c-d0ad0c4b4c87
61056584,,,,0.12,2203,224c2092-44e1-4b73-879c-d0ad0c4b4c87
61158175,,,,0.12,2203,224c2092-44e1-4b73-879c-d0ad0c4b4c87
61258200,,,,0.12,2203,224c2092-44e1-4b73-879c-d0ad0c4b4c87
61358226,,,,0.12,2203,224c2092-44e1-4b73-879c-d0ad0c4b4c87
61462196,,,,0.12,2203,224c2092-44e1-4b73-879c-d0ad0c4b4c87
61562161,,,,0.12,2203,224c2092-44e1-4b73-879c-d0ad0c4b4c87
61666138,,,,0.12,2203,224c2092-44e1-4b73-879c-d0ad0c4b4c87
61766161,,,,0.12,2203,224c2092-44e1-4b73-879c-d0ad0c4b4c87
61866191,,,,0.12,2203,224c2092-44e1-4b73-879c-d0ad0c4b4c87
61970196,,,,0.12,2203,224c2092-44e1-4b73-879c-d0ad0c4b4c87
62070252,,,,0.12,2203,224c2092-44e1-4b73-879c-d0ad0c4b4c87
62171789,,,,0.12,2203,224c2092-44e1-4b73-879c-d0ad0c4b4c87
62271807,,,,0.12,2203,224c2092-44e1-4b73-879c-d0ad0c4b4c87
62375809,,,,0.12,2203,224c2092-44e1-4b73-879c-d0ad0c4b4c87
62475781,,,,0.12,2203,224c2092-44e1-4b73-879c-d0ad0c4b4c87
62579745,,,,0.12,2203,224c2092-44e1-4b73-879c-d0ad0c4b4c87
62679770,,,,0.12,2203,224c2092-44e1-4b73-879c-d0ad0c4b4c87
62779836,,,,0.12,2203,224c2092-44e1-4b73-879c-d0ad0c4b4c87
62883784,,,,0.12,2203,224c2092-44e1-4b73-879c-d0ad0c4b4c87
62983768,,,,0.12,2203,224c2092-44e1-4b73-879c-d0ad0c4b4c87
63083765,,,,0.12,2203,224c2092-44e1-4b73-879c-d0ad0c4b4c87
63188603,,,,0.12,2203,224c2092-44e1-4b73-879c-d0ad0c4b4c87
63288609,,,,0.12,2203,224c2092-44e1-4b73-879c-d0ad0c4b4c87
63388563,,,,0.12,2203,224c2092-44e1-4b73-879c-d0ad0c4b4c87
63492586,,,,0.12,2203,224c2092-44e1-4b73-879c-d0ad0c4b4c87
63592605,,,,0.12,2203,224c2092-44e1-4b73-879c-d0ad0c4b4c87
63696578,,,,0.12,2203,224c2092-44e1-4b73-879c-d0ad0c4b4c87
63800654,,,,0.12,2203,224c2092-44e1-4b73-879c-d0ad0c4b4c87
63900568,,,,0.12,2203,224c2092-44e1-4b73-879c-d0ad0c4b4c87
64000563,,,,0.12,2203,224c2092-44e1-4b73-879c-d0ad0c4b4c87
64104661,,,,0.12,2203,224c2092-44e1-4b73-879c-d0ad0c4b4c87
64204731,,,,0.12,2203,224c2092-44e1-4b73-879c-d0ad0c4b4c87
64308618,,,,0.12,2203,224c2092-44e1-4b73-879c-d0ad0c4b4c87
64408589,,,,0.12,2203,224c2092-44e1-4b73-879c-d0ad0c4b4c87
64510145,,,,0.12,2203,224c2092-44e1-4b73-879c-d0ad0c4b4c87
64610155,,,,0.12,2203,224c2092-44e1-4b73-879c-d0ad0c4b4c87
64714177,,,,0.12,2203,224c2092-44e1-4b73-879c-d0ad0c4b4c87
64814158,,,,0.12,2203,224c2092-44e1-4b73-879c-d0ad0c4b4c87
64918213,,,,0.12,2203,224c2092-44e1-4b73-879c-d0ad0c4b4c87
65018203,,,,0.12,2203,224c2092-44e1-4b73-879c-d0ad0c4b4c87
65118188,,,,0.12,2203,224c2092-44e1-4b73-879c-d0ad0c4b4c87
65222226,,,,0.12,2203,224c2092-44e1-4b73-879c-d0ad0c4b4c87
65322184,,,,0.12,2203,224c2092-44e1-4b73-879c-d0ad0c4b4c87
65422190,,,,0.12,2203,224c2092-44e1-4b73-879c-d0ad0c4b4c87
65523765,,,,0.12,2203,224c2092-44e1-4b73-879c-d0ad0c4b4c87
65627778,,,,0.12,2203,224c2092-44e1-4b73-879c-d0ad0c4b4c87
65727764,0.03500356,-0.061710484,-5.190605e-05,0.50685704,2203,224c2092-44e1-4b73-879c-d0ad0c4b4c87
65827791,0.07047601,-0.050139934,0.0018617167,0.57309955,2203,224c2092-44e1-4b73-879c-d0ad0c4b4c87
65931765,0.04466116,-0.024445081,0.0013932914,0.6510105,2203,224c2092-44e1-4b73-879c-d0ad0c4b4c87
66031774,-0.012497068,-0.036709543,0.009853599,0.69699514,2203,224c2092-44e1-4b73-879c-d0ad0c4b4c87
66135862,-0.00037857663,-0.00917743,0.023159448,0.721814,2203,224c2092-44e1-4b73-879c-d0ad0c4b4c87
66235772,-0.00417539,0.029459652,0.035725698,0.7448321,2203,224c2092-44e1-4b73-879c-d0ad0c4b4c87
66335778,-0.014586348,0.045874033,0.047036365,0.7084612,2203,224c2092-44e1-4b73-879c-d0ad0c4b4c87
66439791,-0.0050273538,0.018177046,0.057611227,0.6808596,2203,224c2092-44e1-4b73-879c-d0ad0c4b4c87
66541387,0.017292758,0.03769951,0.07072474,0.6651293,2203,224c2092-44e1-4b73-879c-d0ad0c4b4c87
66645377,0.02819847,0.040512167,0.08173346,0.6596889,2203,224c2092-44e1-4b73-879c-d0ad0c4b4c87
66745378,-0.013378003,0.02019264,0.086469255,0.64906025,2203,224c2092-44e1-4b73-879c-d0ad0c4b4c87
66849414,-0.025507571,-0.03326674,0.087237805,0.64297765,2203,224c2092-44e1-4b73-879c-d0ad0c4b4c87
66949429,0.0065686596,-0.0657023,0.082462244,0.64335227,2203,224c2092-44e1-4b73-879c-d0ad0c4b4c87
67049548,-0.038704082,-0.047675487,0.076112695,0.6413824,2203,224c2092-44e1-4b73-879c-d0ad0c4b4c87
67153419,-0.04305899,-0.039215416,0.07082282,0.6374422,2203,224c2092-44e1-4b73-879c-d0ad0c4b4c87
67253405,-0.039100986,0.02902004,0.06744979,0.63351387,2203,224c2092-44e1-4b73-879c-d0ad0c4b4c87
67357379,-0.024149843,0.061490472,0.06326155,0.63131595,2203,224c2092-44e1-4b73-879c-d0ad0c4b4c87
67462210,-3.8520597e-05,0.07913329,0.06271766,0.6316917,2203,224c2092-44e1-4b73-879c-d0ad0c4b4c87
67563008,0.04044125,0.061757572,0.062916555,0.6308947,2203,224c2092-44e1-4b73-879c-d0ad0c4b4c87
67663196,0.07453907,0.042489935,0.06308252,0.63131654,2203,224c2092-44e1-4b73-879c-d0ad0c4b4c87
67766981,0.08352232,0.032485217,0.06270105,0.6305171,2203,224c2092-44e1-4b73-879c-d0ad0c4b4c87
67870980,0.10629339,0.021066975,0.06167928,0.630685,2203,224c2092-44e1-4b73-879c-d0ad0c4b4c87
67971047,0.102636404,0.02718229,0.06071865,0.631454,2203,224c2092-44e1-4b73-879c-d0ad0c4b4c87
68075055,0.11084991,0.009254064,0.062172383,0.6307289,2203,224c2092-44e1-4b73-879c-d0ad0c4b4c87
68175044,0.09678762,0.02248449,0.063188195,0.6312795,2203,224c2092-44e1-4b73-879c-d0ad0c4b4c87
68274967,0.091525756,0.027819216,0.064328104,0.63109815,2203,224c2092-44e1-4b73-879c-d0ad0c4b4c87
68378970,0.079094,0.018464832,0.06507283,0.63062644,2203,224c2092-44e1-4b73-879c-d0ad0c4b4c87
68480574,0.069473326,0.019444652,0.06651446,0.6315814,2203,224c2092-44e1-4b73-879c-d0ad0c4b4c87
68584657,0.07518946,0.017508075,0.06739843,0.6314624,2203,224c2092-44e1-4b73-879c-d0ad0c4b4c87
68684573,0.052083794,0.03497819,0.06716699,0.6318637,2203,224c2092-44e1-4b73-879c-d0ad0c4b4c87
68788608,0.05898878,0.048448056,0.06716232,0.63156664,2203,224c2092-44e1-4b73-879c-d0ad0c4b4c87
68888583,0.061653066,0.049510837,0.06633732,0.6322547,2203,224c2092-44e1-4b73-879c-d0ad0c4b4c87
68988800,0.057723902,0.05205608,0.06656342,0.63149095,2203,224c2092-44e1-4b73-879c-d0ad0c4b4c87
69092628,0.059987552,0.05191345,0.06664275,0.63079184,2203,224c2092-44e1-4b73-879c-d0ad0c4b4c87
69192598,0.061236747,0.03954745,0.06596949,0.6307064,2203,224c2092-44e1-4b73-879c-d0ad0c4b4c87
69292652,0.07433843,0.040073086,0.06517461,0.6316681,2203,224c2092-44e1-4b73-879c-d0ad0c4b4c87
69396582,0.077489085,0.05309295,0.06244755,0.6320496,2203,224c2092-44e1-4b73-879c-d0ad0c4b4c87
69498173,0.08828462,0.046791732,0.06022565,0.6321603,2203,224c2092-44e1-4b73-879c-d0ad0c4b4c87
69602214,0.07085137,0.049687073,0.058253303,0.6336869,2203,224c2092-44e1-4b73-879c-d0ad0c4b4c87
69702183,0.086428694,0.043660022,0.05613609,0.6332336,2203,224c2092-44e1-4b73-879c-d0ad0c4b4c87
69806177,0.10546606,0.039644916,0.05257052,0.6350736,2203,224c2092-44e1-4b73-879c-d0ad0c4b4c87
69906451,0.10654105,0.027862612,0.04945223,0.63421196,2203,224c2092-44e1-4b73-879c-d0ad0c4b4c87
70010216,0.11668134,0.0141579965,0.047748204,0.6333855,2203,224c2092-44e1-4b73-879c-d0ad0c4b4c87
70114243,0.10952393,-0.0017311921,0.0453283,0.6331546,2203,224c2092-44e1-4b73-879c-d0ad0c4b4c87
70214200,0.12983996,0.0051150518,0.042769648,0.63458174,2203,224c2092-44e1-4b73-879c-d0ad0c4b4c87
70318150,0.13358304,-0.00091663067,0.04102632,0.6370912,2203,224c2092-44e1-4b73-879c-d0ad0c4b4c87
70418163,0.13443589,0.0059302966,0.038871218,0.638263,2203,224c2092-44e1-4b73-879c-d0ad0c4b4c87
70519762,0.14510737,0.012246848,0.038371824,0.63894457,2203,224c2092-44e1-4b73-879c-d0ad0c4b4c87
70619774,0.15200172,0.011045414,0.035955776,0.638327,2203,224c2092-44e1-4b73-879c-d0ad0c4b4c87
70723740,0.12772264,0.020951184,0.035967477,0.6384814,2203,224c2092-44e1-4b73-879c-d0ad0c4b4c87
70827783,0.12169698,0.022265963,0.036892455,0.63818574,2203,224c2092-44e1-4b73-879c-d0ad0c4b4c87
70927838,0.10802922,0.03318114,0.038524155,0.63852286,2203,224c2092-44e1-4b73-879c-d0ad0c4b4c87
71031802,0.10397191,0.018637031,0.040626086,0.6377472,2203,224c2092-44e1-4b73-879c-d0ad0c4b4c87
71131781,0.09868747,0.018786293,0.04255107,0.63915676,2203,224c2092-44e1-4b73-879c-d0ad0c4b4c87
71231760,0.08174633,0.023351658,0.04362814,0.6387661,2203,224c2092-44e1-4b73-879c-d0ad0c4b4c87
71335763,0.09171625,0.025236808,0.044358935,0.63901734,2203,224c2092-44e1-4b73-879c-d0ad0c4b4c87
71435772,0.08631855,0.030110903,0.04446604,0.6405966,2203,224c2092-44e1-4b73-879c-d0ad0c4b4c87
71537369,0.0705185,0.04243003,0.042807788,0.640586,2203,224c2092-44e1-4b73-879c-d0ad0c4b4c87
71641376,0.08285801,0.04132286,0.039524686,0.6416136,2203,224c2092-44e1-4b73-879c-d0ad0c4b4c87
71741405,0.08525677,0.047072947,0.03731862,0.6421934,2203,224c2092-44e1-4b73-879c-d0ad0c4b4c87
71841461,0.077665634,0.051715735,0.033793963,0.64284337,2203,224c2092-44e1-4b73-879c-d0ad0c4b4c87
71945434,0.09402667,0.061886966,0.030272333,0.64547557,2203,224c2092-44e1-4b73-879c-d0ad0c4b4c87
72045498,0.09365173,0.058876175,0.026932484,0.6450084,2203,224c2092-44e1-4b73-879c-d0ad0c4b4c87
72145385,0.09580179,0.044670086,0.02433058,0.6452798,2203,224c2092-44e1-4b73-879c-d0ad0c4b4c87
72249339,0.0898028,0.029535227,0.023390576,0.6455078,2203,224c2092-44e1-4b73-879c-d0ad0c4b4c87
72349367,0.082965836,0.033986755,0.023369921,0.6454261,2203,224c2092-44e1-4b73-879c-d0ad0c4b4c87
72453381,0.090622276,0.02037363,0.02430405,0.64497495,2203,224c2092-44e1-4b73-879c-d0ad0c4b4c87
72554956,0.09331722,0.028129721,0.025189312,0.64344764,2203,224c2092-44e1-4b73-879c-d0ad0c4b4c87
72654992,0.10723944,0.031234074,0.026024925,0.64336497,2203,224c2092-44e1-4b73-879c-d0ad0c4b4c87
72755011,0.116894394,0.031095875,0.027262412,0.64449227,2203,224c2092-44e1-4b73-879c-d0ad0c4b4c87
72859009,0.11785675,0.040397473,0.02799916,0.64343387,2203,224c2092-44e1-4b73-879c-d0ad0c4b4c87
72959002,0.12231931,0.044565845,0.027954724,0.643896,2203,224c2092-44e1-4b73-879c-d0ad0c4b4c87
73058950,0.12362306,0.038151678,0.027819736,0.6457362,2203,224c2092-44e1-4b73-879c-d0ad0c4b4c87
73162983,0.11440778,0.05781945,0.027564667,0.64553815,2203,224c2092-44e1-4b73-879c-d0ad0c4b4c87
73263043,0.10933688,0.059569437,0.026745226,0.6432406,2203,224c2092-44e1-4b73-879c-d0ad0c4b4c87
73367019,0.089960165,0.057444476,0.026129792,0.6419865,2203,224c2092-44e1-4b73-879c-d0ad0c4b4c87
73471809,0.105021276,0.064885035,0.024201714,0.63945615,2203,224c2092-44e1-4b73-879c-d0ad0c4b4c87
73572000,0.11204578,0.06818186,0.021943912,0.63795847,2203,224c2092-44e1-4b73-879c-d0ad0c4b4c87
73671766,0.09734995,0.067400664,0.019346466,0.6391877,2203,224c2092-44e1-4b73-879c-d0ad0c4b4c87
73775831,0.10109407,0.06401468,0.017923798,0.6399327,2203,224c2092-44e1-4b73-879c-d0ad0c4b4c87
73879776,0.07395577,0.06972727,0.015927512,0.64277583,2203,224c2092-44e1-4b73-879c-d0ad0c4b4c87
73979779,0.06360432,0.07258286,0.014056826,0.6418729,2203,224c2092-44e1-4b73-879c-d0ad0c4b4c87
74083790,0.06154184,0.07109385,0.01248539,0.6426794,2203,224c2092-44e1-4b73-879c-d0ad0c4b4c87
74183783,0.06768531,0.07701311,0.012103273,0.6434107,2203,224c2092-44e1-4b73-879c-d0ad0c4b4c87
74283818,0.07570186,0.08659133,0.012290495,0.64326125,2203,224c2092-44e1-4b73-879c-d0ad0c4b4c87
74387823,0.08404722,0.07987533,0.0132872695,0.64125717,2203,224c2092-44e1-4b73-879c-d0ad0c4b4c87
74487805,0.09595617,0.0877366,0.014500299,0.64107746,2203,224c2092-44e1-4b73-879c-d0ad0c4b4c87
74591776,0.12838101,0.088531144,0.013961965,0.6417554,2203,224c2092-44e1-4b73-879c-d0ad0c4b4c87
74695792,0.11827081,0.107763775,0.013974115,0.64459026,2203,224c2092-44e1-4b73-879c-d0ad0c4b4c87
74795769,0.12298027,0.11547968,0.014347153,0.6044149,2203,224c2092-44e1-4b73-879c-d0ad0c4b4c87
74897394,0.14304487,0.11347983,0.011908398,0.57741815,2203,224c2092-44e1-4b73-879c-d0ad0c4b4c87
75001372,0.13872135,0.08922992,0.008985804,0.56082654,2203,224c2092-44e1-4b73-879c-d0ad0c4b4c87
75105345,0.11829744,0.07862547,0.0061609903,0.5546574,2203,224c2092-44e1-4b73-879c-d0ad0c4b4c87
75205396,0.13017432,0.077497356,0.0021527081,0.5519344,2203,224c2092-44e1-4b73-879c-d0ad0c4b4c87
75309468,0.18888023,0.07813006,-0.00015743205,0.5543877,2203,224c2092-44e1-4b73-879c-d0ad0c4b4c87
75409467,0.13624206,0.0850076,0.0018542511,0.5576623,2203,224c2092-44e1-4b73-879c-d0ad0c4b4c87
75509411,0.108739085,0.07268068,0.0039338013,0.56162083,2203,224c2092-44e1-4b73-879c-d0ad0c4b4c87
75613467,0.16141458,0.068968914,0.007056461,0.57035476,2203,224c2092-44e1-4b73-879c-d0ad0c4b4c87
75713408,0.117216825,0.08788497,0.011233503,0.5788047,2203,224c2092-44e1-4b73-879c-d0ad0c4b4c87
75815015,0.1308917,0.08773524,0.012100948,0.585199,2203,224c2092-44e1-4b73-879c-d0ad0c4b4c87
75915027,0.12520203,0.10027367,0.012406745,0.5912017,2203,224c2092-44e1-4b73-879c-d0ad0c4b4c87
76018954,0.12027677,0.10499274,0.009347824,0.5947862,2203,224c2092-44e1-4b73-879c-d0ad0c4b4c87
76119003,0.118910655,0.09812443,0.0033673912,0.5983731,2203,224c2092-44e1-4b73-879c-d0ad0c4b4c87
76223036,0.105395325,0.1037714,-0.0019752611,0.6012572,2203,224c2092-44e1-4b73-879c-d0ad0c4b4c87
76322974,0.86319697,0.5346376,-0.03667236,0.6857675,2203,224c2092-44e1-4b73-879c-d0ad0c4b4c87
76422970,0.33826846,0.2341815,-0.026882218,0.81478035,2203,224c2092-44e1-4b73-879c-d0ad0c4b4c87
76526984,-0.006156708,0.035679188,-0.017123083,0.86058027,2203,224c2092-44e1-4b73-879c-d0ad0c4b4c87
76627003,-0.11032783,-0.033483624,-0.007309035,0.76455665,2203,224c2092-44e1-4b73-879c-d0ad0c4b4c87
76727043,-0.10127591,-0.07111281,-0.00047573622,0.7160262,2203,224c2092-44e1-4b73-879c-d0ad0c4b4c87
76828601,-0.07496947,-0.09158617,0.0038352902,0.6886133,2203,224c2092-44e1-4b73-879c-d0ad0c4b4c87
76932542,-0.05137477,-0.0991341,0.007357675,0.6690996,2203,224c2092-44e1-4b73-879c-d0ad0c4b4c87
77032654,-0.03854235,-0.07481714,0.009317874,0.6608891,2203,224c2092-44e1-4b73-879c-d0ad0c4b4c87
77136622,-0.006420037,-0.045892533,0.01181666,0.6540568,2203,224c2092-44e1-4b73-879c-d0ad0c4b4c87
77236571,0.028306779,-0.0144858025,0.01588231,0.6507231,2203,224c2092-44e1-4b73-879c-d0ad0c4b4c87
77336661,0.065405495,0.025169399,0.023046909,0.6479626,2203,224c2092-44e1-4b73-879c-d0ad0c4b4c87
77440629,0.12140329,0.08365451,0.03170135,0.64616346,2203,224c2092-44e1-4b73-879c-d0ad0c4b4c87
77540570,0.14620599,0.1315041,0.038026895,0.64589214,2203,224c2092-44e1-4b73-879c-d0ad0c4b4c87
77640625,0.16423067,0.15909955,0.042440433,0.6455817,2203,224c2092-44e1-4b73-879c-d0ad0c4b4c87
77744706,0.19207186,0.17471695,0.04536341,0.6452511,2203,224c2092-44e1-4b73-879c-d0ad0c4b4c87
77845532,0.23280695,0.18662885,0.046251077,0.6440996,2203,224c2092-44e1-4b73-879c-d0ad0c4b4c87
77945401,0.26848823,0.19221604,0.046441257,0.64317846,2203,224c2092-44e1-4b73-879c-d0ad0c4b4c87
78049404,0.27882296,0.19662637,0.04614656,0.6452853,2203,224c2092-44e1-4b73-879c-d0ad0c4b4c87
78149454,0.2788729,0.19641311,0.045984235,0.6458926,2203,224c2092-44e1-4b73-879c-d0ad0c4b4c87
78249461,0.28350845,0.18973555,0.043315157,0.64629596,2203,224c2092-44e1-4b73-879c-d0ad0c4b4c87
78353419,0.28304958,0.17313267,0.038930763,0.6464736,2203,224c2092-44e1-4b73-879c-d0ad0c4b4c87
78453395,0.28549054,0.16583188,0.033093493,0.64702064,2203,224c2092-44e1-4b73-879c-d0ad0c4b4c87
78557440,0.2680409,0.1578781,0.02632625,0.6460652,2203,224c2092-44e1-4b73-879c-d0ad0c4b4c87
78661409,0.26574042,0.13844056,0.01939956,0.6461479,2203,224c2092-44e1-4b73-879c-d0ad0c4b4c87
78761402,0.23779504,0.11675865,0.013187178,0.64732236,2203,224c2092-44e1-4b73-879c-d0ad0c4b4c87
78865390,0.20981203,0.11545857,0.008439992,0.6491902,2203,224c2092-44e1-4b73-879c-d0ad0c4b4c87
78965370,0.2015229,0.10685098,0.006097054,0.6494207,2203,224c2092-44e1-4b73-879c-d0ad0c4b4c87
79065383,0.19875942,0.10758657,0.0020624953,0.6492337,2203,224c2092-44e1-4b73-879c-d0ad0c4b4c87
79166966,0.20104109,0.118225254,0.00027723252,0.6485965,2203,224c2092-44e1-4b73-879c-d0ad0c4b4c87
79271050,0.20301117,0.12151032,-0.00232773,0.6489183,2203,224c2092-44e1-4b73-879c-d0ad0c4b4c87
79374951,0.20836282,0.10014025,-0.0049186177,0.6462584,2203,224c2092-44e1-4b73-879c-d0ad0c4b4c87
79475010,0.22065106,0.10017638,-0.008433902,0.64659715,2203,224c2092-44e1-4b73-879c-d0ad0c4b4c87
79578966,0.24178492,0.0900047,-0.011154612,0.64449304,2203,224c2092-44e1-4b73-879c-d0ad0c4b4c87
79678969,0.24931702,0.08155486,-0.013796085,0.64547557,2203,224c2092-44e1-4b73-879c-d0ad0c4b4c87
79778990,0.24751535,0.08251823,-0.012498671,0.64631677,2203,224c2092-44e1-4b73-879c-d0ad0c4b4c87
79882960,0.21884501,0.074969776,-0.009033842,0.64585614,2203,224c2092-44e1-4b73-879c-d0ad0c4b4c87
79982938,0.20390116,0.08790493,-0.002756054,0.6476581,2203,224c2092-44e1-4b73-879c-d0ad0c4b4c87
80087034,0.20493445,0.10748877,0.004669213,0.6460861,2203,224c2092-44e1-4b73-879c-d0ad0c4b4c87
80188611,0.20325364,0.122952946,0.013013098,0.64468783,2203,224c2092-44e1-4b73-879c-d0ad0c4b4c87
80292553,0.19606255,0.1362407,0.019284751,0.64730054,2203,224c2092-44e1-4b73-879c-d0ad0c4b4c87
80392579,0.20243213,0.14447075,0.024967853,0.64696217,2203,224c2092-44e1-4b73-879c-d0ad0c4b4c87
80492666,0.20617186,0.15680116,0.029342577,0.6466026,2203,224c2092-44e1-4b73-879c-d0ad0c4b4c87
80596633,0.21476029,0.14107004,0.03252558,0.64557374,2203,224c2092-44e1-4b73-879c-d0ad0c4b4c87
80696576,0.2169803,0.14386055,0.03349165,0.6460577,2203,224c2092-44e1-4b73-879c-d0ad0c4b4c87
80800604,0.22808838,0.14771062,0.034126878,0.64731294,2203,224c2092-44e1-4b73-879c-d0ad0c4b4c87
80904544,0.22174382,0.14828093,0.034821622,0.64909256,2203,224c2092-44e1-4b73-879c-d0ad0c4b4c87
81004568,0.23327547,0.15194616,0.03340251,0.64852554,2203,224c2092-44e1-4b73-879c-d0ad0c4b4c87
81108642,0.24524562,0.14146496,0.030704236,0.6456852,2203,224c2092-44e1-4b73-879c-d0ad0c4b4c87
81210271,0.26255423,0.13468637,0.02521949,0.6448674,2203,224c2092-44e1-4b73-879c-d0ad0c4b4c87
81314144,0.27621713,0.14004056,0.018667579,0.646013,2203,224c2092-44e1-4b73-879c-d0ad0c4b4c87
81414197,0.27723816,0.13052583,0.0130188735,0.646582,2203,224c2092-44e1-4b73-879c-d0ad0c4b4c87
81518198,0.26328605,0.1290566,0.009269375,0.6511504,2203,224c2092-44e1-4b73-879c-d0ad0c4b4c87
81618163,0.2507189,0.13864447,0.0077827177,0.65204555,2203,224c2092-44e1-4b73-879c-d0ad0c4b4c87
81718173,0.24308752,0.14967988,0.0071355193,0.6514086,2203,224c2092-44e1-4b73-879c-d0ad0c4b4c87
81822182,0.23128779,0.13974462,0.0072739506,0.65182185,2203,224c2092-44e1-4b73-879c-d0ad0c4b4c87
81922177,0.21274328,0.15251985,0.007885006,0.6514216,2203,224c2092-44e1-4b73-879c-d0ad0c4b4c87
82022228,0.19426942,0.19821958,0.0076080253,0.6509051,2203,224c2092-44e1-4b73-879c-d0ad0c4b4c87
82126992,0.17066519,0.21239555,0.008675549,0.6504016,2203,224c2092-44e1-4b73-879c-d0ad0c4b4c87
82227051,0.16334978,0.22197832,0.011898008,0.6521431,2203,224c2092-44e1-4b73-879c-d0ad0c4b4c87
82326980,0.16388643,0.2277798,0.015697492,0.65129423,2203,224c2092-44e1-4b73-879c-d0ad0c4b4c87
82430998,0.17150232,0.2387696,0.018824343,0.64777064,2203,224c2092-44e1-4b73-879c-d0ad0c4b4c87
82530991,0.1733156,0.2403933,0.023474518,0.6478033,2203,224c2092-44e1-4b73-879c-d0ad0c4b4c87
82634990,0.15448156,0.26600975,0.0275483,0.64831537,2203,224c2092-44e1-4b73-879c-d0ad0c4b4c87
82738981,0.1758574,0.23840214,0.029277995,0.6468308,2203,224c2092-44e1-4b73-879c-d0ad0c4b4c87
82842936,0.15278895,0.23277526,0.033148516,0.6498088,2203,224c2092-44e1-4b73-879c-d0ad0c4b4c87
82943025,0.1525191,0.20942123,0.032297175,0.64960164,2203,224c2092-44e1-4b73-879c-d0ad0c4b4c87
83047048,0.16168472,0.18795766,0.030379806,0.6486169,2203,224c2092-44e1-4b73-879c-d0ad0c4b4c87
83147019,0.16049288,0.19342254,0.030083826,0.6492737,2203,224c2092-44e1-4b73-879c-d0ad0c4b4c87
83251031,0.16203912,0.19297035,0.03120487,0.6500559,2203,224c2092-44e1-4b73-879c-d0ad0c4b4c87
83355159,0.17161271,0.19599621,0.029091759,0.6481786,2203,224c2092-44e1-4b73-879c-d0ad0c4b4c87
83456646,0.17373547,0.20565532,0.02572742,0.64816505,2203,224c2092-44e1-4b73-879c-d0ad0c4b4c87
83556576,0.18327655,0.2145462,0.019320527,0.64674366,2203,224c2092-44e1-4b73-879c-d0ad0c4b4c87
83656574,0.17378077,0.20904921,0.012479271,0.6466287,2203,224c2092-44e1-4b73-879c-d0ad0c4b4c87
83760638,0.17327183,0.18574807,0.005110925,0.645834,2203,224c2092-44e1-4b73-879c-d0ad0c4b4c87
83860620,0.16790543,0.17646591,0.0021603089,0.6468341,2203,224c2092-44e1-4b73-879c-d0ad0c4b4c87
83964665,0.17724788,0.18867959,0.002282792,0.65008324,2203,224c2092-44e1-4b73-879c-d0ad0c4b4c87
84064663,0.17601301,0.18443154,0.0047635594,0.65194964,2203,224c2092-44e1-4b73-879c-d0ad0c4b4c87
84164657,0.18954626,0.18507469,0.0077495463,0.6526517,2203,224c2092-44e1-4b73-879c-d0ad0c4b4c87
84268616,0.20059575,0.18869533,0.012134317,0.6513854,2203,224c2092-44e1-4b73-879c-d0ad0c4b4c87
84368557,0.21537001,0.18914129,0.016344227,0.65172136,2203,224c2092-44e1-4b73-879c-d0ad0c4b4c87
84470170,0.1983243,0.19007418,0.019732596,0.65148854,2203,224c2092-44e1-4b73-879c-d0ad0c4b4c87
84570164,0.19199277,0.19441135,0.02297813,0.6508774,2203,224c2092-44e1-4b73-879c-d0ad0c4b4c87
84674149,0.21243931,0.2067479,0.025140576,0.64950913,2203,224c2092-44e1-4b73-879c-d0ad0c4b4c87
84774192,0.18652326,0.21857552,0.026428377,0.64889777,2203,224c2092-44e1-4b73-879c-d0ad0c4b4c87
84878226,0.17658736,0.22338432,0.027095556,0.64676744,2203,224c2092-44e1-4b73-879c-d0ad0c4b4c87
84982207,0.17154326,0.22544014,0.024006201,0.64898413,2203,224c2092-44e1-4b73-879c-d0ad0c4b4c87
85082169,0.16590619,0.21886407,0.02049987,0.6507493,2203,224c2092-44e1-4b73-879c-d0ad0c4b4c87
85186222,0.16344519,0.20158304,0.015554847,0.64809227,2203,224c2092-44e1-4b73-879c-d0ad0c4b4c87
85286149,0.1719689,0.19272114,0.009240268,0.64746726,2203,224c2092-44e1-4b73-879c-d0ad0c4b4c87
85386324,0.1835959,0.17979474,0.003566705,0.64851403,2203,224c2092-44e1-4b73-879c-d0ad0c4b4c87
85487773,0.20159423,0.18220505,-0.0012242277,0.64878917,2203,224c2092-44e1-4b73-879c-d0ad0c4b4c87
85591799,0.2111666,0.18495391,-0.005455577,0.6509428,2203,224c2092-44e1-4b73-879c-d0ad0c4b4c87
85695771,0.23126382,0.15702787,-0.006722342,0.6461959,2203,224c2092-44e1-4b73-879c-d0ad0c4b4c87
85795810,0.26295593,0.13149902,-0.007196388,0.64495856,2203,224c2092-44e1-4b73-879c-d0ad0c4b4c87
85899851,0.28468138,0.11605327,-0.0049974164,0.64612204,2203,224c2092-44e1-4b73-879c-d0ad0c4b4c87
85999786,0.2993909,0.122552514,-0.0020576273,0.6456992,2203,224c2092-44e1-4b73-879c-d0ad0c4b4c87
86099778,0.29962733,0.13438922,-0.0010344895,0.6454664,2203,224c2092-44e1-4b73-879c-d0ad0c4b4c87
86203786,0.31657815,0.16058072,-0.0015659635,0.64622515,2203,224c2092-44e1-4b73-879c-d0ad0c4b4c87
86303799,0.31202587,0.17738107,-0.0027845548,0.6463878,2203,224c2092-44e1-4b73-879c-d0ad0c4b4c87
86403880,0.30869806,0.19200858,-0.00525426,0.64524543,2203,224c2092-44e1-4b73-879c-d0ad0c4b4c87
86509349,0.29697606,0.18771397,-0.006936691,0.6467052,2203,224c2092-44e1-4b73-879c-d0ad0c4b4c87
86609362,0.29263446,0.19470897,-0.007721553,0.6458168,2203,224c2092-44e1-4b73-879c-d0ad0c4b4c87
86709442,0.29050997,0.20268187,-0.008355426,0.6459087,2203,224c2092-44e1-4b73-879c-d0ad0c4b4c87
86813409,0.28444976,0.20781359,-0.007858179,0.6447256,2203,224c2092-44e1-4b73-879c-d0ad0c4b4c87
86913360,0.27984017,0.20140927,-0.008611484,0.64493626,2203,224c2092-44e1-4b73-879c-d0ad0c4b4c87
87013372,0.27730805,0.1992192,-0.008754191,0.64465714,2203,224c2092-44e1-4b73-879c-d0ad0c4b4c87
87117364,0.28402707,0.2003234,-0.008271309,0.6437985,2203,224c2092-44e1-4b73-879c-d0ad0c4b4c87
87217363,0.2821639,0.20603654,-0.008018089,0.6434979,2203,224c2092-44e1-4b73-879c-d0ad0c4b4c87
87321392,0.27502885,0.21072464,-0.008589188,0.6443244,2203,224c2092-44e1-4b73-879c-d0ad0c4b4c87
87423090,0.2752267,0.2054312,-0.008353594,0.6441567,2203,224c2092-44e1-4b73-879c-d0ad0c4b4c87
87523097,0.27218518,0.20565963,-0.007259882,0.6439322,2203,224c2092-44e1-4b73-879c-d0ad0c4b4c87
87627005,0.27587175,0.20303378,-0.0064341035,0.6448663,2203,224c2092-44e1-4b73-879c-d0ad0c4b4c87
87731093,0.27384016,0.1950918,-0.00471359,0.642459,2203,224c2092-44e1-4b73-879c-d0ad0c4b4c87
87835008,0.28632462,0.19148707,-0.0055677276,0.64296365,2203,224c2092-44e1-4b73-879c-d0ad0c4b4c87
87935070,0.2827763,0.19499546,-0.005371287,0.64222574,2203,224c2092-44e1-4b73-879c-d0ad0c4b4c87
88034952,0.2854414,0.19304559,-0.006082072,0.6424215,2203,224c2092-44e1-4b73-879c-d0ad0c4b4c87
88138960,0.2892449,0.19206749,-0.0087831,0.6429096,2203,224c2092-44e1-4b73-879c-d0ad0c4b4c87
88239005,0.29250982,0.19059928,-0.009920595,0.64194304,2203,224c2092-44e1-4b73-879c-d0ad0c4b4c87
88342993,0.28217265,0.19499159,-0.011055378,0.643099,2203,224c2092-44e1-4b73-879c-d0ad0c4b4c87
88444698,0.2834195,0.19994317,-0.011619565,0.6437127,2203,224c2092-44e1-4b73-879c-d0ad0c4b4c87
88544653,0.288517,0.19941227,-0.011910693,0.6436231,2203,224c2092-44e1-4b73-879c-d0ad0c4b4c87
88644698,0.29375088,0.20184927,-0.0117937215,0.6431454,2203,224c2092-44e1-4b73-879c-d0ad0c4b4c87
88748693,0.27825278,0.1990268,-0.010974512,0.64310616,2203,224c2092-44e1-4b73-879c-d0ad0c4b4c87
88848620,0.2773846,0.20351632,-0.010618587,0.6429879,2203,224c2092-44e1-4b73-879c-d0ad0c4b4c87
88948622,0.2808143,0.20799577,-0.009919608,0.6428564,2203,224c2092-44e1-4b73-879c-d0ad0c4b4c87
89052586,0.28458187,0.20733967,-0.0076354486,0.64234334,2203,224c2092-44e1-4b73-879c-d0ad0c4b4c87
89152575,0.2797648,0.20401646,-0.006619341,0.6431943,2203,224c2092-44e1-4b73-879c-d0ad0c4b4c87
89256619,0.27999586,0.19887888,-0.0041985367,0.6412641,2203,224c2092-44e1-4b73-879c-d0ad0c4b4c87
89360649,0.2876561,0.20402776,-0.005322446,0.6419881,2203,224c2092-44e1-4b73-879c-d0ad0c4b4c87
89462193,0.28490835,0.20934914,-0.0061991327,0.64241534,2203,224c2092-44e1-4b73-879c-d0ad0c4b4c87
89562261,0.28687525,0.21498947,-0.0061392123,0.6421839,2203,224c2092-44e1-4b73-879c-d0ad0c4b4c87
89666241,0.27695793,0.21372722,-0.006220687,0.64327997,2203,224c2092-44e1-4b73-879c-d0ad0c4b4c87
89770245,0.27753088,0.21440266,-0.0044576772,0.6429296,2203,224c2092-44e1-4b73-879c-d0ad0c4b4c87
89870169,0.27718693,0.21089832,-0.0052112523,0.643902,2203,224c2092-44e1-4b73-879c-d0ad0c4b4c87
89974168,0.28584033,0.21236616,-0.004302744,0.64215845,2203,224c2092-44e1-4b73-879c-d0ad0c4b4c87
90074224,0.27722022,0.21479398,-0.0038229213,0.6419724,2203,224c2092-44e1-4b73-879c-d0ad0c4b4c87
90174232,0.27367347,0.21412107,-0.0034712027,0.6429887,2203,224c2092-44e1-4b73-879c-d0ad0c4b4c87
90278164,0.29135165,0.21493676,-0.0028114093,0.6428155,2203,224c2092-44e1-4b73-879c-d0ad0c4b4c87
90379189,0.29182103,0.21688513,-0.002811167,0.6426872,2203,224c2092-44e1-4b73-879c-d0ad0c4b4c87
90479776,0.2892926,0.21160083,-0.00462911,0.6432366,2203,224c2092-44e1-4b73-879c-d0ad0c4b4c87
90579852,0.28559077,0.20807247,-0.005140244,0.64335376,2203,224c2092-44e1-4b73-879c-d0ad0c4b4c87
90683763,0.2810849,0.21971133,-0.004638586,0.64346004,2203,224c2092-44e1-4b73-879c-d0ad0c4b4c87
90783736,0.2786004,0.21174434,-0.0046418,0.6435908,2203,224c2092-44e1-4b73-879c-d0ad0c4b4c87
90887795,0.2696138,0.21648185,-0.003951666,0.6440075,2203,224c2092-44e1-4b73-879c-d0ad0c4b4c87
90991799,0.27415517,0.20796083,-0.0035010697,0.64292806,2203,224c2092-44e1-4b73-879c-d0ad0c4b4c87
91091775,0.28070608,0.2071225,-0.0034414798,0.6430547,2203,224c2092-44e1-4b73-879c-d0ad0c4b4c87
91195820,0.2780261,0.21081737,-0.003443342,0.6430499,2203,224c2092-44e1-4b73-879c-d0ad0c4b4c87
91295783,0.27969557,0.2138179,-0.0020210485,0.6430691,2203,224c2092-44e1-4b73-879c-d0ad0c4b4c87
91397419,0.28603777,0.22068073,-0.0012022625,0.64329207,2203,224c2092-44e1-4b73-879c-d0ad0c4b4c87
91497404,0.2794363,0.22894338,-9.747828e-05,0.64303744,2203,224c2092-44e1-4b73-879c-d0ad0c4b4c87
91601452,0.27475658,0.2219582,0.0004410396,0.6437686,2203,224c2092-44e1-4b73-879c-d0ad0c4b4c87
91705375,0.27076116,0.22062573,0.0006677717,0.6433864,2203,224c2092-44e1-4b73-879c-d0ad0c4b4c87
91805398,0.26673126,0.21895449,-0.00065404235,0.6430225,2203,224c2092-44e1-4b73-879c-d0ad0c4b4c87
91909401,0.26893935,0.2246277,-0.0031444766,0.64157575,2203,224c2092-44e1-4b73-879c-d0ad0c4b4c87
92009363,0.26478744,0.22402236,-0.004396839,0.6416258,2203,224c2092-44e1-4b73-879c-d0ad0c4b4c87
92109376,0.27029422,0.21341065,-0.005662291,0.6423719,2203,224c2092-44e1-4b73-879c-d0ad0c4b4c87
92213440,0.27340794,0.2169317,-0.0063795866,0.6430089,2203,224c2092-44e1-4b73-879c-d0ad0c4b4c87
92313435,0.28401563,0.21250752,-0.0056336694,0.6432111,2203,224c2092-44e1-4b73-879c-d0ad0c4b4c87
92415030,0.27572882,0.21702978,-0.004893757,0.6436611,2203,224c2092-44e1-4b73-879c-d0ad0c4b4c87
92519009,0.2547143,0.21285799,-0.0048063993,0.643916,2203,224c2092-44e1-4b73-879c-d0ad0c4b4c87
92618960,0.25604483,0.2185168,-0.0027998956,0.6437514,2203,224c2092-44e1-4b73-879c-d0ad0c4b4c87
92718992,0.26263794,0.21348195,-0.00065951067,0.6435593,2203,224c2092-44e1-4b73-879c-d0ad0c4b4c87
92822971,0.2597043,0.22135797,0.00018743779,0.6429915,2203,224c2092-44e1-4b73-879c-d0ad0c4b4c87
92922973,0.2559896,0.22257529,0.0017016202,0.64306134,2203,224c2092-44e1-4b73-879c-d0ad0c4b4c87
93023024,0.26158518,0.21808657,0.0017079951,0.6433825,2203,224c2092-44e1-4b73-879c-d0ad0c4b4c87
93127019,0.26417258,0.22030109,0.0015553272,0.6423252,2203,224c2092-44e1-4b73-879c-d0ad0c4b4c87
93226964,0.2624916,0.2194335,0.0026643267,0.64186287,2203,224c2092-44e1-4b73-879c-d0ad0c4b4c87
93331026,0.27054563,0.228307,0.0023250054,0.64380866,2203,224c2092-44e1-4b73-879c-d0ad0c4b4c87
93432623,0.25998497,0.2241518,0.0028000928,0.64466894,2203,224c2092-44e1-4b73-879c-d0ad0c4b4c87
93536596,0.26501963,0.22096,0.002700079,0.64434516,2203,224c2092-44e1-4b73-879c-d0ad0c4b4c87
93640607,0.27628732,0.21771538,0.0036555978,0.64278245,2203,224c2092-44e1-4b73-879c-d0ad0c4b4c87
93740621,0.27700853,0.2145284,0.0037922491,0.6435796,2203,224c2092-44e1-4b73-879c-d0ad0c4b4c87
93844648,0.2782168,0.2283928,0.0035712507,0.64460063,2203,224c2092-44e1-4b73-879c-d0ad0c4b4c87
93944566,0.2785166,0.22506142,0.003963663,0.6443596,2203,224c2092-44e1-4b73-879c-d0ad0c4b4c87
94048555,0.26354504,0.21962567,0.003523756,0.6449747,2203,224c2092-44e1-4b73-879c-d0ad0c4b4c87
94152589,0.26640558,0.21560588,0.0044800574,0.6437096,2203,224c2092-44e1-4b73-879c-d0ad0c4b4c87
94256573,0.27020583,0.22786716,0.004588183,0.64460987,2203,224c2092-44e1-4b73-879c-d0ad0c4b4c87
94357380,0.27003706,0.22890037,0.0055094115,0.64488333,2203,224c2092-44e1-4b73-879c-d0ad0c4b4c87
94458149,0.2639157,0.22935943,0.0055705337,0.6451707,2203,224c2092-44e1-4b73-879c-d0ad0c4b4c87
94562261,0.2591887,0.22641976,0.0061870688,0.6456519,2203,224c2092-44e1-4b73-879c-d0ad0c4b4c87
94666229,0.2643822,0.21957922,0.0065084063,0.644403,2203,224c2092-44e1-4b73-879c-d0ad0c4b4c87
94766171,0.25572148,0.21714698,0.0066194735,0.64436436,2203,224c2092-44e1-4b73-879c-d0ad0c4b4c87
94870202,0.26392055,0.21949358,0.0060466435,0.64523745,2203,224c2092-44e1-4b73-879c-d0ad0c4b4c87
94970150,0.25970232,0.22401957,0.0055454844,0.6449544,2203,224c2092-44e1-4b73-879c-d0ad0c4b4c87
95070193,0.26235804,0.23354815,0.0049763964,0.64516455,2203,224c2092-44e1-4b73-879c-d0ad0c4b4c87
95174248,0.2606501,0.22878398,0.0038555348,0.6457193,2203,224c2092-44e1-4b73-879c-d0ad0c4b4c87
95274228,0.2580857,0.22805884,0.0038213616,0.64630795,2203,224c2092-44e1-4b73-879c-d0ad0c4b4c87
95375765,0.26220202,0.22271457,0.003573844,0.6450693,2203,224c2092-44e1-4b73-879c-d0ad0c4b4c87
95479771,0.27913183,0.21899676,0.0034540123,0.6436659,2203,224c2092-44e1-4b73-879c-d0ad0c4b4c87
95583803,0.2804645,0.22664067,0.0014467898,0.645431,2203,224c2092-44e1-4b73-879c-d0ad0c4b4c87
95687764,0.26805225,0.2195124,0.0015973549,0.6452762,2203,224c2092-44e1-4b73-879c-d0ad0c4b4c87
95787807,0.26225448,0.21998844,0.0009006474,0.6451661,2203,224c2092-44e1-4b73-879c-d0ad0c4b4c87
95891746,0.26251635,0.22443858,0.0013626117,0.6431,2203,224c2092-44e1-4b73-879c-d0ad0c4b4c87
95991778,0.26618186,0.22754644,0.0007884137,0.64353544,2203,224c2092-44e1-4b73-879c-d0ad0c4b4c87
96095814,0.271037,0.22623429,0.0018962887,0.64342403,2203,224c2092-44e1-4b73-879c-d0ad0c4b4c87
96199766,0.25364476,0.22915554,0.002686196,0.6448872,2203,224c2092-44e1-4b73-879c-d0ad0c4b4c87
96303805,0.26108757,0.21660134,0.0029680897,0.64425087,2203,224c2092-44e1-4b73-879c-d0ad0c4b4c87
96405462,0.26262912,0.21113399,0.002950853,0.6443206,2203,224c2092-44e1-4b73-879c-d0ad0c4b4c87
96505445,0.25631925,0.21413492,0.0038001582,0.6440706,2203,224c2092-44e1-4b73-879c-d0ad0c4b4c87
96609368,0.2687761,0.2230187,0.0052433903,0.6447491,2203,224c2092-44e1-4b73-879c-d0ad0c4b4c87
96709402,0.26630893,0.2252698,0.0060135745,0.64530534,2203,224c2092-44e1-4b73-879c-d0ad0c4b4c87
96813344,0.2643763,0.22462419,0.0071587325,0.64611757,2203,224c2092-44e1-4b73-879c-d0ad0c4b4c87
96917451,0.2682441,0.22276117,0.008358719,0.64488703,2203,224c2092-44e1-4b73-879c-d0ad0c4b4c87
97021404,0.2656081,0.22385739,0.007577763,0.6458489,2203,224c2092-44e1-4b73-879c-d0ad0c4b4c87
97121388,0.26827195,0.23809415,0.0073055355,0.6461201,2203,224c2092-44e1-4b73-879c-d0ad0c4b4c87
97225389,0.2535819,0.22711474,0.0068310075,0.6464162,2203,224c2092-44e1-4b73-879c-d0ad0c4b4c87
97327032,0.2519523,0.22671697,0.0058731614,0.645891,2203,224c2092-44e1-4b73-879c-d0ad0c4b4c87
97427005,0.25534067,0.21971184,0.005456337,0.645978,2203,224c2092-44e1-4b73-879c-d0ad0c4b4c87
97527101,0.2589405,0.22268155,0.006075706,0.64648324,2203,224c2092-44e1-4b73-879c-d0ad0c4b4c87
97631018,0.26653382,0.22435977,0.0068683713,0.64672184,2203,224c2092-44e1-4b73-879c-d0ad0c4b4c87
97731001,0.27098778,0.22165468,0.0066259713,0.6464605,2203,224c2092-44e1-4b73-879c-d0ad0c4b4c87
97834987,0.25495458,0.22133979,0.008000611,0.64702916,2203,224c2092-44e1-4b73-879c-d0ad0c4b4c87
97934999,0.25502005,0.21545,0.00794456,0.6474434,2203,224c2092-44e1-4b73-879c-d0ad0c4b4c87
98034978,0.26205972,0.21895215,0.0076069427,0.6473663,2203,224c2092-44e1-4b73-879c-d0ad0c4b4c87
98138960,0.25934625,0.22409642,0.008888338,0.6461639,2203,224c2092-44e1-4b73-879c-d0ad0c4b4c87
98238936,0.2592936,0.22146717,0.008533525,0.6464546,2203,224c2092-44e1-4b73-879c-d0ad0c4b4c87
98340576,0.25925153,0.21793404,0.00819234,0.64656126,2203,224c2092-44e1-4b73-879c-d0ad0c4b4c87
98444659,0.25648788,0.22321232,0.0076701366,0.64749473,2203,224c2092-44e1-4b73-879c-d0ad0c4b4c87
98544659,0.2590631,0.22407472,0.0076892544,0.6471866,2203,224c2092-44e1-4b73-879c-d0ad0c4b4c87
98644541,0.25826982,0.22845158,0.0068714074,0.64732426,2203,224c2092-44e1-4b73-879c-d0ad0c4b4c87
98748902,0.25606102,0.22967768,0.005898531,0.6466576,2203,224c2092-44e1-4b73-879c-d0ad0c4b4c87
98852602,0.26674262,0.22210753,0.0057039033,0.64558893,2203,224c2092-44e1-4b73-879c-d0ad0c4b4c87
98952571,0.264411,0.2180531,0.0053855204,0.6459822,2203,224c2092-44e1-4b73-879c-d0ad0c4b4c87
99056599,0.2731979,0.2333053,0.005061739,0.62975246,2203,224c2092-44e1-4b73-879c-d0ad0c4b4c87
99160547,0.2731979,0.23127723,0.004263617,0.612084,2203,224c2092-44e1-4b73-879c-d0ad0c4b4c87
99260548,0.27669796,0.24213038,0.0020626315,0.6048292,2203,224c2092-44e1-4b73-879c-d0ad0c4b4c87
99362168,0.2862398,0.23362644,-0.0005658498,0.5996444,2203,224c2092-44e1-4b73-879c-d0ad0c4b4c87
99466215,0.28204504,0.24741977,-0.0038978204,0.5970375,2203,224c2092-44e1-4b73-879c-d0ad0c4b4c87
99570149,0.27100345,0.23180479,-0.006049707,0.5950116,2203,224c2092-44e1-4b73-879c-d0ad0c4b4c87
99670185,0.2488114,0.22524223,-0.009787969,0.59537387,2203,224c2092-44e1-4b73-879c-d0ad0c4b4c87
99774164,0.24666505,0.23149453,-0.014067424,0.5957896,2203,224c2092-44e1-4b73-879c-d0ad0c4b4c87
99874207,0.26724184,0.24071704,-0.017516105,0.59546775,2203,224c2092-44e1-4b73-879c-d0ad0c4b4c87
99974228,0.25624692,0.23370817,-0.017989468,0.59531677,2203,224c2092-44e1-4b73-879c-d0ad0c4b4c87
100078146,0.2603987,0.24690633,-0.017576495,0.595719,2203,224c2092-44e1-4b73-879c-d0ad0c4b4c87
100178173,0.2669719,0.25636065,-0.016871337,0.59642667,2203,224c2092-44e1-4b73-879c-d0ad0c4b4c87
100279773,0.26749462,0.26027596,-0.018224835,0.59654576,2203,224c2092-44e1-4b73-879c-d0ad0c4b4c87
100379772,0.2731879,0.15343305,1.0284615,0.65185666,2203,224c2092-44e1-4b73-879c-d0ad0c4b4c87
100483777,0.35243422,0.19958639,0.93583214,0.614576,2203,224c2092-44e1-4b73-879c-d0ad0c4b4c87
100583803,0.4078918,0.21351632,0.79298735,0.5922852,2203,224c2092-44e1-4b73-879c-d0ad0c4b4c87
100687768,0.38751912,0.19318622,0.6352481,0.5855104,2203,224c2092-44e1-4b73-879c-d0ad0c4b4c87
100791808,0.4354915,-0.19126552,0.49336517,0.58520937,2203,224c2092-44e1-4b73-879c-d0ad0c4b4c87
100891805,0.39738372,-0.5338127,0.37055755,0.5932113,2203,224c2092-44e1-4b73-879c-d0ad0c4b4c87
100995837,0.3609446,-0.6787418,0.2559763,0.60658854,2203,224c2092-44e1-4b73-879c-d0ad0c4b4c87
101095830,0.31553283,-0.64138263,0.15751995,0.620221,2203,224c2092-44e1-4b73-879c-d0ad0c4b4c87
101195816,0.31211826,-0.5693756,0.07577535,0.6295388,2203,224c2092-44e1-4b73-879c-d0ad0c4b4c87
101297406,0.30442187,-0.4784903,0.008003965,0.6345118,2203,224c2092-44e1-4b73-879c-d0ad0c4b4c87
101401346,0.31512243,-0.40219307,-0.04153518,0.6401544,2203,224c2092-44e1-4b73-879c-d0ad0c4b4c87
101505403,0.35078007,-0.35593832,-0.07506935,0.6456407,2203,224c2092-44e1-4b73-879c-d0ad0c4b4c87
101605373,0.3265227,-0.3314103,-0.09135087,0.6503532,2203,224c2092-44e1-4b73-879c-d0ad0c4b4c87
101705414,0.3320372,-0.30562702,-0.094257236,0.6577141,2203,224c2092-44e1-4b73-879c-d0ad0c4b4c87
101809444,0.32661003,-0.28489307,-0.09060876,0.6626097,2203,224c2092-44e1-4b73-879c-d0ad0c4b4c87
101909422,0.30488747,-0.32958826,-0.07752539,0.6711049,2203,224c2092-44e1-4b73-879c-d0ad0c4b4c87
102013364,0.29565784,-0.31524965,-0.06272019,0.674691,2203,224c2092-44e1-4b73-879c-d0ad0c4b4c87
102113377,0.28092095,-0.32218596,-0.047677793,0.6804906,2203,224c2092-44e1-4b73-879c-d0ad0c4b4c87
102217368,0.25654253,-0.36209792,-0.032839626,0.6834815,2203,224c2092-44e1-4b73-879c-d0ad0c4b4c87
102318935,0.22987068,-0.4470356,-0.019556941,0.6915987,2203,224c2092-44e1-4b73-879c-d0ad0c4b4c87
102418964,0.20230606,-0.43763104,-0.01138914,0.6897134,2203,224c2092-44e1-4b73-879c-d0ad0c4b4c87
102523038,0.16572157,-0.4191792,-0.0036189808,0.6858317,2203,224c2092-44e1-4b73-879c-d0ad0c4b4c87
102626968,0.12969886,-0.41203853,0.0025370382,0.6878232,2203,224c2092-44e1-4b73-879c-d0ad0c4b4c87
102731020,0.1087893,-0.41532508,0.0072288923,0.6921985,2203,224c2092-44e1-4b73-879c-d0ad0c4b4c87
102834953,0.0938109,-0.42313862,0.011361853,0.6947514,2203,224c2092-44e1-4b73-879c-d0ad0c4b4c87
102935029,0.08601366,-0.4344628,0.012470485,0.69765687,2203,224c2092-44e1-4b73-879c-d0ad0c4b4c87
103039071,0.09102957,-0.44708052,0.012955094,0.6966046,2203,224c2092-44e1-4b73-879c-d0ad0c4b4c87
103138979,0.10008518,-0.45783347,0.012976005,0.6953184,2203,224c2092-44e1-4b73-879c-d0ad0c4b4c87
103240581,0.09307636,-0.22033527,0.011907881,0.6755369,2203,224c2092-44e1-4b73-879c-d0ad0c4b4c87
103340574,0.09905465,-0.073658235,0.009975707,0.6608443,2203,224c2092-44e1-4b73-879c-d0ad0c4b4c87
103444663,0.110897355,0.0014455467,0.005999813,0.64507836,2203,224c2092-44e1-4b73-879c-d0ad0c4b4c87
103544664,0.10197261,-0.014369344,0.0039334437,0.6341801,2203,224c2092-44e1-4b73-879c-d0ad0c4b4c87
103648581,0.11641344,-0.098658085,-0.00047747185,0.62307334,2203,224c2092-44e1-4b73-879c-d0ad0c4b4c87
103752626,0.12872574,-0.22231549,-0.0036597075,0.6087186,2203,224c2092-44e1-4b73-879c-d0ad0c4b4c87
103852661,0.15338454,-0.35327944,-0.007838745,0.59455484,2203,224c2092-44e1-4b73-879c-d0ad0c4b4c87
103956693,0.13951486,-0.47119182,-0.013943769,0.582245,2203,224c2092-44e1-4b73-879c-d0ad0c4b4c87
104056602,0.14412168,-0.5579787,-0.017696802,0.5726682,2203,224c2092-44e1-4b73-879c-d0ad0c4b4c87
104160586,0.157309,-0.62949187,-0.022468414,0.5691596,2203,224c2092-44e1-4b73-879c-d0ad0c4b4c87
104262209,0.11653301,-0.65816534,-0.030339975,0.56248486,2203,224c2092-44e1-4b73-879c-d0ad0c4b4c87
104362172,0.14009474,-0.67969257,-0.035595994,0.56090844,2203,224c2092-44e1-4b73-879c-d0ad0c4b4c87
104466215,0.14719911,-0.69609874,-0.036160864,0.5586371,2203,224c2092-44e1-4b73-879c-d0ad0c4b4c87
104570167,0.14689238,-0.71889764,-0.04028947,0.5565332,2203,224c2092-44e1-4b73-879c-d0ad0c4b4c87
104674339,0.092870764,-0.73915726,-0.04453153,0.5554143,2203,224c2092-44e1-4b73-879c-d0ad0c4b4c87
104778192,0.10459671,-0.719915,-0.044020046,0.5559695,2203,224c2092-44e1-4b73-879c-d0ad0c4b4c87
104878211,0.100367785,-0.7582161,-0.04224006,0.5554723,2203,224c2092-44e1-4b73-879c-d0ad0c4b4c87
104982171,0.090870686,-0.75023174,-0.04325703,0.5578241,2203,224c2092-44e1-4b73-879c-d0ad0c4b4c87
105082197,0.094811976,-0.75003946,-0.040969186,0.5612946,2203,224c2092-44e1-4b73-879c-d0ad0c4b4c87
105183767,0.086281,-0.77957237,-0.042614825,0.5588421,2203,224c2092-44e1-4b73-879c-d0ad0c4b4c87
105287793,0.109993055,-0.7584045,-0.039838456,0.55874765,2203,224c2092-44e1-4b73-879c-d0ad0c4b4c87
105391781,0.108063266,-0.7577167,-0.03859645,0.5594301,2203,224c2092-44e1-4b73-879c-d0ad0c4b4c87
105495826,0.110100605,-0.7577721,-0.039209936,0.56070095,2203,224c2092-44e1-4b73-879c-d0ad0c4b4c87
105599773,0.07504171,-0.7795188,-0.040750626,0.5606324,2203,224c2092-44e1-4b73-879c-d0ad0c4b4c87
105699884,0.06630745,-0.75086796,-0.042533323,0.5593751,2203,224c2092-44e1-4b73-879c-d0ad0c4b4c87
105803880,0.08198362,-0.774484,-0.0383854,0.5583515,2203,224c2092-44e1-4b73-879c-d0ad0c4b4c87
105903766,0.05791699,-0.7765337,-0.038935386,0.5578636,2203,224c2092-44e1-4b73-879c-d0ad0c4b4c87
106011755,0.033071566,-0.72603303,-0.039492227,0.5555731,2203,224c2092-44e1-4b73-879c-d0ad0c4b4c87
106115787,0.060981445,-0.7498654,-0.036983937,0.55754524,2203,224c2092-44e1-4b73-879c-d0ad0c4b4c87
106217486,0.04592835,-0.76079947,-0.03996532,0.5590637,2203,224c2092-44e1-4b73-879c-d0ad0c4b4c87
106321400,0.033730026,-0.77770734,-0.043145366,0.5598061,2203,224c2092-44e1-4b73-879c-d0ad0c4b4c87
106421339,0.0837358,-0.7213738,-0.040660676,0.5609416,2203,224c2092-44e1-4b73-879c-d0ad0c4b4c87
106525375,0.085194975,-0.75940543,-0.04188913,0.5620767,2203,224c2092-44e1-4b73-879c-d0ad0c4b4c87
106625375,0.11196106,-0.7547953,-0.043214582,0.56248057,2203,224c2092-44e1-4b73-879c-d0ad0c4b4c87
106725374,0.111216106,-0.76715416,-0.043575075,0.5613989,2203,224c2092-44e1-4b73-879c-d0ad0c4b4c87
106825437,0.10187262,-0.7713115,-0.041830186,0.55896026,2203,224c2092-44e1-4b73-879c-d0ad0c4b4c87
106929439,0.084330544,-0.73367304,-0.04049523,0.5604026,2203,224c2092-44e1-4b73-879c-d0ad0c4b4c87
107033370,0.071421236,-0.7911809,-0.0362608,0.5603553,2203,224c2092-44e1-4b73-879c-d0ad0c4b4c87
107141423,0.08843241,-0.77319986,-0.035447773,0.55902714,2203,224c2092-44e1-4b73-879c-d0ad0c4b4c87
107243007,0.073812425,-0.78274417,-0.03658349,0.5578097,2203,224c2092-44e1-4b73-879c-d0ad0c4b4c87
107346975,0.08528282,-0.7312815,-0.03934607,0.55415595,2203,224c2092-44e1-4b73-879c-d0ad0c4b4c87
107451103,0.1279089,-0.74113,-0.037437692,0.5577172,2203,224c2092-44e1-4b73-879c-d0ad0c4b4c87
107555061,0.098710395,-0.7637413,-0.040645152,0.5568992,2203,224c2092-44e1-4b73-879c-d0ad0c4b4c87
107658998,0.08976138,-0.7389796,-0.04163091,0.56123483,2203,224c2092-44e1-4b73-879c-d0ad0c4b4c87
107759002,0.11774506,-0.7762279,-0.03965851,0.55676466,2203,224c2092-44e1-4b73-879c-d0ad0c4b4c87
107862972,0.090316676,-0.7551182,-0.041429263,0.55737925,2203,224c2092-44e1-4b73-879c-d0ad0c4b4c87
107962939,0.10173608,-0.73167336,-0.039765574,0.5589858,2203,224c2092-44e1-4b73-879c-d0ad0c4b4c87
108066990,0.09051196,-0.787746,-0.037503555,0.5610435,2203,224c2092-44e1-4b73-879c-d0ad0c4b4c87
108167808,0.07986219,-0.724683,-0.039666895,0.56057525,2203,224c2092-44e1-4b73-879c-d0ad0c4b4c87
108271794,0.09750607,-0.74154866,-0.036920674,0.56518126,2203,224c2092-44e1-4b73-879c-d0ad0c4b4c87
108371742,0.06500915,-0.76083416,-0.039062824,0.5647467,2203,224c2092-44e1-4b73-879c-d0ad0c4b4c87
108471846,0.09098818,-0.73682815,-0.03775414,0.56283784,2203,224c2092-44e1-4b73-879c-d0ad0c4b4c87
108575767,0.10088737,-0.7763696,-0.040417325,0.5598383,2203,224c2092-44e1-4b73-879c-d0ad0c4b4c87
108675777,0.08787746,-0.7772525,-0.040405072,0.55990803,2203,224c2092-44e1-4b73-879c-d0ad0c4b4c87
108779826,0.09167197,-0.7415364,-0.03847216,0.556874,2203,224c2092-44e1-4b73-879c-d0ad0c4b4c87
108883769,0.10069971,-0.7877446,-0.034112193,0.55809486,2203,224c2092-44e1-4b73-879c-d0ad0c4b4c87
108983782,0.09363168,-0.7219966,-0.03431171,0.55899304,2203,224c2092-44e1-4b73-879c-d0ad0c4b4c87
109087775,0.097077675,-0.77415323,-0.029704964,0.55738854,2203,224c2092-44e1-4b73-879c-d0ad0c4b4c87
109187802,0.073241785,-0.73844916,-0.029540537,0.56019855,2203,224c2092-44e1-4b73-879c-d0ad0c4b4c87
109287769,0.11035052,-0.7482178,-0.028245298,0.55899185,2203,224c2092-44e1-4b73-879c-d0ad0c4b4c87
109391820,0.1175122,-0.764128,-0.028246205,0.5606782,2203,224c2092-44e1-4b73-879c-d0ad0c4b4c87
109493470,0.1338374,-0.73285574,-0.026809085,0.5607956,2203,224c2092-44e1-4b73-879c-d0ad0c4b4c87
109593364,0.118903175,-0.78258115,-0.02482143,0.5592322,2203,224c2092-44e1-4b73-879c-d0ad0c4b4c87
109693366,0.10949163,-0.71434325,-0.024647182,0.5585532,2203,224c2092-44e1-4b73-879c-d0ad0c4b4c87
109797409,0.119277254,-0.76684934,-0.02471453,0.55775666,2203,224c2092-44e1-4b73-879c-d0ad0c4b4c87
109897375,0.09181657,-0.7275833,-0.02695378,0.55954105,2203,224c2092-44e1-4b73-879c-d0ad0c4b4c87
110001370,0.09009341,-0.7179644,-0.025888829,0.5593221,2203,224c2092-44e1-4b73-879c-d0ad0c4b4c87
110105450,0.069967866,-0.74061745,-0.026989266,0.5577313,2203,224c2092-44e1-4b73-879c-d0ad0c4b4c87
110205532,0.0594121,-0.7305381,-0.031956535,0.55903757,2203,224c2092-44e1-4b73-879c-d0ad0c4b4c87
110309419,0.09062757,-0.74747974,-0.034373812,0.5561799,2203,224c2092-44e1-4b73-879c-d0ad0c4b4c87
110410197,0.065024495,-0.73876786,-0.039265733,0.5584575,2203,224c2092-44e1-4b73-879c-d0ad0c4b4c87
110515008,0.123706676,-0.7274355,-0.035331093,0.5595898,2203,224c2092-44e1-4b73-879c-d0ad0c4b4c87
110614978,0.1122587,-0.7732921,-0.035081048,0.56095177,2203,224c2092-44e1-4b73-879c-d0ad0c4b4c87
110714995,0.10068914,-0.751164,-0.033283062,0.56118405,2203,224c2092-44e1-4b73-879c-d0ad0c4b4c87
110818984,0.11147263,-0.7626201,-0.03127031,0.55792266,2203,224c2092-44e1-4b73-879c-d0ad0c4b4c87
110918972,0.11183944,-0.7184346,-0.028874777,0.5598089,2203,224c2092-44e1-4b73-879c-d0ad0c4b4c87
111018988,0.08332537,-0.78495276,-0.025831798,0.56219995,2203,224c2092-44e1-4b73-879c-d0ad0c4b4c87
111123036,0.07741464,-0.73318446,-0.02984182,0.559396,2203,224c2092-44e1-4b73-879c-d0ad0c4b4c87
111223017,0.086136036,-0.7728328,-0.02791436,0.55918396,2203,224c2092-44e1-4b73-879c-d0ad0c4b4c87
111326943,0.100174144,-0.7435937,-0.027582718,0.5591274,2203,224c2092-44e1-4b73-879c-d0ad0c4b4c87
111427768,0.10583362,-0.7660942,-0.024440564,0.5590486,2203,224c2092-44e1-4b73-879c-d0ad0c4b4c87
111527990,0.10396847,-0.7160262,-0.022916691,0.5609417,2203,224c2092-44e1-4b73-879c-d0ad0c4b4c87
111631797,0.10800779,-0.7378285,-0.020105839,0.5612708,2203,224c2092-44e1-4b73-879c-d0ad0c4b4c87
111731760,0.07519002,-0.73139167,-0.020965822,0.56172884,2203,224c2092-44e1-4b73-879c-d0ad0c4b4c87
111831780,0.096290424,-0.7501662,-0.017937807,0.56113946,2203,224c2092-44e1-4b73-879c-d0ad0c4b4c87
111935843,0.08794106,-0.7612613,-0.01772161,0.5632699,2203,224c2092-44e1-4b73-879c-d0ad0c4b4c87
112035770,0.12850024,-0.7328435,-0.016163047,0.5614463,2203,224c2092-44e1-4b73-879c-d0ad0c4b4c87
112139776,0.10105667,-0.7769021,-0.017216347,0.56189156,2203,224c2092-44e1-4b73-879c-d0ad0c4b4c87
112243788,0.08760615,-0.75647223,-0.016201483,0.56103915,2203,224c2092-44e1-4b73-879c-d0ad0c4b4c87
112343736,0.11536778,-0.734,-0.013925657,0.56280166,2203,224c2092-44e1-4b73-879c-d0ad0c4b4c87
112447882,0.1150524,-0.7756197,-0.014191341,0.5616927,2203,224c2092-44e1-4b73-879c-d0ad0c4b4c87
112547852,0.09858841,-0.70969015,-0.01622778,0.5603707,2203,224c2092-44e1-4b73-879c-d0ad0c4b4c87
112647800,0.079010844,-0.7615811,-0.015941638,0.55947506,2203,224c2092-44e1-4b73-879c-d0ad0c4b4c87
112749478,0.078707024,-0.74591595,-0.018408986,0.55517113,2203,224c2092-44e1-4b73-879c-d0ad0c4b4c87
112853451,0.09648386,-0.76553565,-0.021104611,0.5553582,2203,224c2092-44e1-4b73-879c-d0ad0c4b4c87
112953400,0.056795575,-0.7187441,-0.023016695,0.55735064,2203,224c2092-44e1-4b73-879c-d0ad0c4b4c87
113053518,0.082443066,-0.7631588,-0.018587548,0.56129605,2203,224c2092-44e1-4b73-879c-d0ad0c4b4c87
113157372,0.08757758,-0.7143585,-0.017962776,0.5622651,2203,224c2092-44e1-4b73-879c-d0ad0c4b4c87
113257352,0.09539539,-0.7706776,-0.012035072,0.5635811,2203,224c2092-44e1-4b73-879c-d0ad0c4b4c87
113361369,0.08211957,-0.7408281,-0.012218878,0.5622973,2203,224c2092-44e1-4b73-879c-d0ad0c4b4c87
113465471,0.09697528,-0.72928834,-0.01112049,0.55861634,2203,224c2092-44e1-4b73-879c-d0ad0c4b4c87
113569409,0.10124433,-0.7579447,-0.008155908,0.5595664,2203,224c2092-44e1-4b73-879c-d0ad0c4b4c87
113669393,0.064422175,-0.74178207,-0.010237584,0.5562198,2203,224c2092-44e1-4b73-879c-d0ad0c4b4c87
113771041,0.11255531,-0.7439637,-0.008006583,0.5582154,2203,224c2092-44e1-4b73-879c-d0ad0c4b4c87
113875040,0.097265296,-0.73605263,-0.009886185,0.55840296,2203,224c2092-44e1-4b73-879c-d0ad0c4b4c87
113975020,0.13694379,-0.72025883,-0.008223404,0.55875367,2203,224c2092-44e1-4b73-879c-d0ad0c4b4c87
114079014,0.10049122,-0.76999986,-0.008271059,0.5608267,2203,224c2092-44e1-4b73-879c-d0ad0c4b4c87
114178972,0.13443103,-0.72256327,-0.0053552054,0.55570054,2203,224c2092-44e1-4b73-879c-d0ad0c4b4c87
114278997,0.10535247,-0.77312064,-0.0059216777,0.55397266,2203,224c2092-44e1-4b73-879c-d0ad0c4b4c87
114382985,0.10108663,-0.7314509,-0.007642536,0.55491585,2203,224c2092-44e1-4b73-879c-d0ad0c4b4c87
114483040,0.10100553,-0.76772714,-0.007285727,0.55906045,2203,224c2092-44e1-4b73-879c-d0ad0c4b4c87
114582998,0.08816381,-0.701738,-0.009188956,0.5598929,2203,224c2092-44e1-4b73-879c-d0ad0c4b4c87
114684677,0.099135585,-0.76230216,-0.00997981,0.55946153,2203,224c2092-44e1-4b73-879c-d0ad0c4b4c87
114788651,0.09986116,-0.73831224,-0.009547124,0.55817974,2203,224c2092-44e1-4b73-879c-d0ad0c4b4c87
114888574,0.12382,-0.76647973,-0.0074866125,0.5596729,2203,224c2092-44e1-4b73-879c-d0ad0c4b4c87
114988575,0.10934968,-0.7041498,-0.008304507,0.55805266,2203,224c2092-44e1-4b73-879c-d0ad0c4b4c87
115092589,0.12515725,-0.7514137,-0.007977086,0.56101704,2203,224c2092-44e1-4b73-879c-d0ad0c4b4c87
115192625,0.10541208,-0.7319185,-0.010213591,0.5605392,2203,224c2092-44e1-4b73-879c-d0ad0c4b4c87
115296612,0.13086906,-0.73912704,-0.011473486,0.56097806,2203,224c2092-44e1-4b73-879c-d0ad0c4b4c87
115400615,0.14709568,-0.7625942,-0.012336803,0.5558761,2203,224c2092-44e1-4b73-879c-d0ad0c4b4c87
115500576,0.14535643,-0.71121097,-0.015275414,0.5565551,2203,224c2092-44e1-4b73-879c-d0ad0c4b4c87
115604699,0.15120432,-0.78292954,-0.014555044,0.5579893,2203,224c2092-44e1-4b73-879c-d0ad0c4b4c87
115706246,0.1357424,-0.7542807,-0.01657203,0.5563639,2203,224c2092-44e1-4b73-879c-d0ad0c4b4c87
115810221,0.14233509,-0.7593268,-0.012762076,0.560773,2203,224c2092-44e1-4b73-879c-d0ad0c4b4c87
115910169,0.115796134,-0.75209206,-0.013149874,0.5583315,2203,224c2092-44e1-4b73-879c-d0ad0c4b4c87
116010146,0.12657373,-0.7717043,-0.011457846,0.5584786,2203,224c2092-44e1-4b73-879c-d0ad0c4b4c87
116114182,0.11097089,-0.7546337,-0.010344881,0.56039417,2203,224c2092-44e1-4b73-879c-d0ad0c4b4c87
116214177,0.12785764,-0.75236064,-0.006510146,0.55739754,2203,224c2092-44e1-4b73-879c-d0ad0c4b4c87
116318256,0.08051433,-0.76366454,-0.00786711,0.5573999,2203,224c2092-44e1-4b73-879c-d0ad0c4b4c87
116418257,0.123337336,-0.74194777,-0.0060471776,0.55610174,2203,224c2092-44e1-4b73-879c-d0ad0c4b4c87
116518146,0.08980121,-0.74153066,-0.009866573,0.5555389,2203,224c2092-44e1-4b73-879c-d0ad0c4b4c87
116622964,0.11386905,-0.7174351,-0.008652596,0.5581869,2203,224c2092-44e1-4b73-879c-d0ad0c4b4c87
116723780,0.07715427,-0.7434608,-0.010165873,0.55614483,2203,224c2092-44e1-4b73-879c-d0ad0c4b4c87
116823804,0.11400207,-0.729524,-0.009405328,0.5578802,2203,224c2092-44e1-4b73-879c-d0ad0c4b4c87
116927779,0.097761005,-0.7316751,-0.013473436,0.56104463,2203,224c2092-44e1-4b73-879c-d0ad0c4b4c87
117031799,0.11629241,-0.71574754,-0.017826542,0.56292754,2203,224c2092-44e1-4b73-879c-d0ad0c4b4c87
117135778,0.14350192,-0.7293544,-0.012866446,0.56155604,2203,224c2092-44e1-4b73-879c-d0ad0c4b4c87
117235770,0.11451478,-0.73895603,-0.011536717,0.5603822,2203,224c2092-44e1-4b73-879c-d0ad0c4b4c87
117339795,0.10190356,-0.7357052,-0.008529277,0.5601154,2203,224c2092-44e1-4b73-879c-d0ad0c4b4c87
117439777,0.073154196,-0.75754106,-0.009042135,0.55840766,2203,224c2092-44e1-4b73-879c-d0ad0c4b4c87
117543846,0.08399443,-0.7289577,-0.013349056,0.55932087,2203,224c2092-44e1-4b73-879c-d0ad0c4b4c87
117645452,0.05360526,-0.77008146,-0.015930202,0.5607368,2203,224c2092-44e1-4b73-879c-d0ad0c4b4c87
117745441,0.09944115,-0.735471,-0.016661532,0.5629396,2203,224c2092-44e1-4b73-879c-d0ad0c4b4c87
117845581,0.09495718,-0.7410272,-0.020334715,0.56310284,2203,224c2092-44e1-4b73-879c-d0ad0c4b4c87
117949402,0.12051634,-0.7307283,-0.021165794,0.56254333,2203,224c2092-44e1-4b73-879c-d0ad0c4b4c87
118049388,0.107983194,-0.7568423,-0.019316733,0.5617415,2203,224c2092-44e1-4b73-879c-d0ad0c4b4c87
118149460,0.119546,-0.753375,-0.016361212,0.5641364,2203,224c2092-44e1-4b73-879c-d0ad0c4b4c87
118253429,0.10699856,-0.7597061,-0.012958711,0.55966127,2203,224c2092-44e1-4b73-879c-d0ad0c4b4c87
118353367,0.10137603,-0.74656785,-0.011236065,0.56084216,2203,224c2092-44e1-4b73-879c-d0ad0c4b4c87
118457403,0.11248321,-0.75395775,-0.006463622,0.5608939,2203,224c2092-44e1-4b73-879c-d0ad0c4b4c87
118561392,0.07509226,-0.7570945,-0.0065153926,0.56273955,2203,224c2092-44e1-4b73-879c-d0ad0c4b4c87
118662985,0.08188732,-0.7372074,-0.0039008083,0.56092983,2203,224c2092-44e1-4b73-879c-d0ad0c4b4c87
118762938,0.06336279,-0.75126994,-0.0017887446,0.5639533,2203,224c2092-44e1-4b73-879c-d0ad0c4b4c87
118862967,0.099326506,-0.7308329,-0.00096566457,0.5640196,2203,224c2092-44e1-4b73-879c-d0ad0c4b4c87
118966959,0.08526782,-0.73276776,-0.0038835304,0.56305975,2203,224c2092-44e1-4b73-879c-d0ad0c4b4c87
119066973,0.09616254,-0.7125582,-0.0037116183,0.5629754,2203,224c2092-44e1-4b73-879c-d0ad0c4b4c87
119171026,0.116810255,-0.74645823,-3.1886222e-05,0.5617185,2203,224c2092-44e1-4b73-879c-d0ad0c4b4c87
119271054,0.10549302,-0.728691,2.4987288e-05,0.5604686,2203,224c2092-44e1-4b73-879c-d0ad0c4b4c87
119371006,0.11365448,-0.76626515,0.0038652786,0.5609057,2203,224c2092-44e1-4b73-879c-d0ad0c4b4c87
119475020,0.12160163,-0.75020933,0.0076361266,0.56099194,2203,224c2092-44e1-4b73-879c-d0ad0c4b4c87
119576588,0.13632104,-0.73831785,0.010559335,0.5591913,2203,224c2092-44e1-4b73-879c-d0ad0c4b4c87
119676590,0.103378244,-0.7481369,0.008639945,0.55813,2203,224c2092-44e1-4b73-879c-d0ad0c4b4c87
119780573,0.12839557,-0.7248057,0.00958998,0.5584086,2203,224c2092-44e1-4b73-879c-d0ad0c4b4c87
119880599,0.1073125,-0.7786127,0.008345569,0.5576939,2203,224c2092-44e1-4b73-879c-d0ad0c4b4c87
119980580,0.13654433,-0.7208638,0.0076338933,0.5588255,2203,224c2092-44e1-4b73-879c-d0ad0c4b4c87
120084731,0.105452,-0.7785793,0.0053884694,0.55268335,2203,224c2092-44e1-4b73-879c-d0ad0c4b4c87
120184578,0.09115542,-0.7206517,0.0054608453,0.553284,2203,224c2092-44e1-4b73-879c-d0ad0c4b4c87
120284567,0.08757235,-0.7742994,0.0052578836,0.5575727,2203,224c2092-44e1-4b73-879c-d0ad0c4b4c87
120388599,0.07691927,-0.7068853,-0.0013201501,0.5591167,2203,224c2092-44e1-4b73-879c-d0ad0c4b4c87
120488607,0.074460134,-0.7540245,-0.0014090437,0.55984575,2203,224c2092-44e1-4b73-879c-d0ad0c4b4c87
120590199,0.09953454,-0.7400422,-0.0008313177,0.5594069,2203,224c2092-44e1-4b73-879c-d0ad0c4b4c87
120690185,0.0910983,-0.7380819,0.0008240456,0.55783206,2203,224c2092-44e1-4b73-879c-d0ad0c4b4c87
120794222,0.08870218,-0.71817935,0.00040902913,0.5607151,2203,224c2092-44e1-4b73-879c-d0ad0c4b4c87
120894251,0.06699618,-0.7415025,0.0017226442,0.5574059,2203,224c2092-44e1-4b73-879c-d0ad0c4b4c87
120998231,0.08703272,-0.73439723,0.00028273143,0.5602656,2203,224c2092-44e1-4b73-879c-d0ad0c4b4c87
121098160,0.11207968,-0.75830805,0.0026756667,0.5573572,2203,224c2092-44e1-4b73-879c-d0ad0c4b4c87
121198178,0.12894179,-0.7210362,0.0027332448,0.5560347,2203,224c2092-44e1-4b73-879c-d0ad0c4b4c87
121302165,0.09889882,-0.7241089,0.0015554687,0.5584838,2203,224c2092-44e1-4b73-879c-d0ad0c4b4c87
121402169,0.1133527,-0.71032834,-0.00034407558,0.55936944,2203,224c2092-44e1-4b73-879c-d0ad0c4b4c87
121502936,0.10252847,-0.74568087,-0.0030437855,0.5558352,2203,224c2092-44e1-4b73-879c-d0ad0c4b4c87
121603804,0.11234994,-0.73243624,-0.007337316,0.55539864,2203,224c2092-44e1-4b73-879c-d0ad0c4b4c87
121707787,0.09765186,-0.75575596,-0.0048729274,0.55624044,2203,224c2092-44e1-4b73-879c-d0ad0c4b4c87
121807824,0.09855046,-0.71247095,-0.0046183346,0.5559675,2203,224c2092-44e1-4b73-879c-d0ad0c4b4c87
121911814,0.10056561,-0.75399745,-0.0024198834,0.55877817,2203,224c2092-44e1-4b73-879c-d0ad0c4b4c87
122015782,0.053040594,-0.7410333,-0.0041090804,0.5580826,2203,224c2092-44e1-4b73-879c-d0ad0c4b4c87
122116002,0.079014674,-0.7524495,0.0015834976,0.5585528,2203,224c2092-44e1-4b73-879c-d0ad0c4b4c87
122219797,0.08170082,-0.7548578,0.00023034216,0.5576025,2203,224c2092-44e1-4b73-879c-d0ad0c4b4c87
122319789,0.12118419,-0.7287458,-0.0044608233,0.5556173,2203,224c2092-44e1-4b73-879c-d0ad0c4b4c87
122419838,0.102585614,-0.75536203,-0.0047116494,0.5557839,2203,224c2092-44e1-4b73-879c-d0ad0c4b4c87
122520606,0.10246399,-0.764645,-0.002669644,0.5547734,2203,224c2092-44e1-4b73-879c-d0ad0c4b4c87
122624713,0.096214466,-0.7550776,-0.0029376699,0.5553499,2203,224c2092-44e1-4b73-879c-d0ad0c4b4c87
122724653,0.120201,-0.7579612,-0.0027294876,0.5533985,2203,224c2092-44e1-4b73-879c-d0ad0c4b4c87
122828571,0.12979776,-0.7590506,0.00029386824,0.5557992,2203,224c2092-44e1-4b73-879c-d0ad0c4b4c87
122928579,0.123096585,-0.7429884,0.0027029102,0.55669385,2203,224c2092-44e1-4b73-879c-d0ad0c4b4c87
123028569,0.09672281,-0.72657245,0.0043135234,0.5589283,2203,224c2092-44e1-4b73-879c-d0ad0c4b4c87
123132568,0.12459159,-0.7474741,0.00841773,0.55988187,2203,224c2092-44e1-4b73-879c-d0ad0c4b4c87
123232609,0.08398707,-0.7565801,0.0070913765,0.5610444,2203,224c2092-44e1-4b73-879c-d0ad0c4b4c87
123332570,0.12263524,-0.77177334,0.009769062,0.5647797,2203,224c2092-44e1-4b73-879c-d0ad0c4b4c87
123436660,0.10142414,-0.78149706,0.008981785,0.56394565,2203,224c2092-44e1-4b73-879c-d0ad0c4b4c87
123536546,0.108521506,-0.73827845,0.008968738,0.56250936,2203,224c2092-44e1-4b73-879c-d0ad0c4b4c87
123640597,0.079883896,-0.77258784,0.00565846,0.55806184,2203,224c2092-44e1-4b73-879c-d0ad0c4b4c87
123744567,0.09287975,-0.75390404,0.005171119,0.5595777,2203,224c2092-44e1-4b73-879c-d0ad0c4b4c87
123846241,0.098858155,-0.765821,0.0022492174,0.55889356,2203,224c2092-44e1-4b73-879c-d0ad0c4b4c87
123946164,0.096836776,-0.71551985,-0.0024992696,0.5548388,2203,224c2092-44e1-4b73-879c-d0ad0c4b4c87
124050224,0.12415565,-0.7513988,-0.0018700069,0.5556084,2203,224c2092-44e1-4b73-879c-d0ad0c4b4c87
124154187,0.0868399,-0.7598288,-0.005126495,0.5553162,2203,224c2092-44e1-4b73-879c-d0ad0c4b4c87
124254221,0.11586119,-0.69972306,-0.0071325437,0.55633277,2203,224c2092-44e1-4b73-879c-d0ad0c4b4c87
124354199,0.09255647,-0.7221009,-0.009615275,0.55628365,2203,224c2092-44e1-4b73-879c-d0ad0c4b4c87
124458143,0.12241527,-0.68485796,-0.007539014,0.55798155,2203,224c2092-44e1-4b73-879c-d0ad0c4b4c87
124558166,0.09103574,-0.72531664,-0.008922889,0.5561272,2203,224c2092-44e1-4b73-879c-d0ad0c4b4c87
124662205,0.08660354,-0.68197864,-0.0073138494,0.557781,2203,224c2092-44e1-4b73-879c-d0ad0c4b4c87
124763805,0.08320325,-0.7723502,-0.0026412914,0.56037635,2203,224c2092-44e1-4b73-879c-d0ad0c4b4c87
124863817,0.113409355,-0.723981,0.0010448653,0.56258315,2203,224c2092-44e1-4b73-879c-d0ad0c4b4c87
124963850,0.09704288,-0.7622366,0.0009354425,0.5644535,2203,224c2092-44e1-4b73-879c-d0ad0c4b4c87
125067766,0.11767264,-0.7403155,0.0035729709,0.56386334,2203,224c2092-44e1-4b73-879c-d0ad0c4b4c87
