timestamp,rollspeed,pitchspeed,yawspeed,q0,q1,q2,q3,delta_q_reset0,delta_q_reset1,delta_q_reset2,delta_q_reset3,quat_reset_counter,basestation,flight_number
59527276,-0.034545165,-0.01522922,-0.00027405797,0.70647556,-0.00052543177,0.0061084176,-0.7077109,0.7763479,0.0057239314,0.0061299475,-0.63024884,1,2203,224c2092-44e1-4b73-879c-d0ad0c4b4c87
59627359,0.0015719553,-0.040057346,0.0070820358,0.7065998,-0.0004959499,0.005995252,-0.70758796,0.7763479,0.0057239314,0.0061299475,-0.63024884,1,2203,224c2092-44e1-4b73-879c-d0ad0c4b4c87
59731524,0.033405617,-0.03172368,0.0092962,0.70655936,-0.00048947555,0.0060284566,-0.7076281,0.7763479,0.0057239314,0.0061299475,-0.63024884,1,2203,224c2092-44e1-4b73-879c-d0ad0c4b4c87
59835294,0.006555457,-0.012132027,-0.020341817,0.7063816,-0.00046313013,0.006066272,-0.7078051,0.7763479,0.0057239314,0.0061299475,-0.63024884,1,2203,224c2092-44e1-4b73-879c-d0ad0c4b4c87
59935263,0.008525609,0.057328995,0.01062415,0.706489,-0.00042558715,0.0061296104,-0.70769733,0.7763479,0.0057239314,0.0061299475,-0.63024884,1,2203,224c2092-44e1-4b73-879c-d0ad0c4b4c87
60039435,-0.011521239,0.012415494,0.0018209415,0.70644796,-0.0003578054,0.006095645,-0.7077387,0.7763479,0.0057239314,0.0061299475,-0.63024884,1,2203,224c2092-44e1-4b73-879c-d0ad0c4b4c87
60136840,-0.008678028,0.0068787206,-0.009440392,0.70638674,-0.00038842944,0.0061468235,-0.7077994,0.7763479,0.0057239314,0.0061299475,-0.63024884,1,2203,224c2092-44e1-4b73-879c-d0ad0c4b4c87
60241011,-0.0108124865,-0.0026785,-0.013200779,0.7066145,-0.0003588513,0.006082759,-0.7075726,0.7763479,0.0057239314,0.0061299475,-0.63024884,1,2203,224c2092-44e1-4b73-879c-d0ad0c4b4c87
60341035,-0.0018720098,0.003527945,-0.009980431,0.7064245,-0.00039964364,0.0061471597,-0.7077617,0.7763479,0.0057239314,0.0061299475,-0.63024884,1,2203,224c2092-44e1-4b73-879c-d0ad0c4b4c87
60445360,-0.0009934284,-0.015337278,-0.0017994863,0.7065982,-0.00034407704,0.0060926117,-0.70758873,0.7763479,0.0057239314,0.0061299475,-0.63024884,1,2203,224c2092-44e1-4b73-879c-d0ad0c4b4c87
60548914,-0.04226136,0.0046550157,-0.025647163,0.70662105,-0.0003730908,0.0061986847,-0.70756495,0.7763479,0.0057239314,0.0061299475,-0.63024884,1,2203,224c2092-44e1-4b73-879c-d0ad0c4b4c87
60648937,-0.041866343,0.02811653,-0.0474421,0.706693,-0.00032501438,0.0062400755,-0.70749277,0.7763479,0.0057239314,0.0061299475,-0.63024884,1,2203,224c2092-44e1-4b73-879c-d0ad0c4b4c87
60752964,-0.026453193,0.0043832753,0.023432277,0.70658684,-0.00034425317,0.0062288176,-0.70759887,0.7763479,0.0057239314,0.0061299475,-0.63024884,1,2203,224c2092-44e1-4b73-879c-d0ad0c4b4c87
60852964,0.0156605,-0.013759007,-0.015715126,0.70660704,-0.0003173737,0.0061770426,-0.70757914,0.7763479,0.0057239314,0.0061299475,-0.63024884,1,2203,224c2092-44e1-4b73-879c-d0ad0c4b4c87
60952971,0.022616783,-0.030640999,0.019889757,0.70665294,-0.00035667248,0.0061559053,-0.70753354,0.7763479,0.0057239314,0.0061299475,-0.63024884,1,2203,224c2092-44e1-4b73-879c-d0ad0c4b4c87
61057001,0.014021,0.0017864874,-0.01091267,0.7066161,-0.00032026076,0.006152186,-0.7075703,0.7763479,0.0057239314,0.0061299475,-0.63024884,1,2203,224c2092-44e1-4b73-879c-d0ad0c4b4c87
61158547,-0.047803424,0.03117078,0.005424007,0.706693,-0.00031952624,0.006186956,-0.70749325,0.7763479,0.0057239314,0.0061299475,-0.63024884,1,2203,224c2092-44e1-4b73-879c-d0ad0c4b4c87
61258559,0.017273497,-0.05857653,-0.006407301,0.7065893,-0.00035008564,0.006088039,-0.7075977,0.7763479,0.0057239314,0.0061299475,-0.63024884,1,2203,224c2092-44e1-4b73-879c-d0ad0c4b4c87
61358584,-0.009230524,-0.03673162,0.0092817005,0.7066534,-0.00032961933,0.0060804575,-0.7075337,0.7763479,0.0057239314,0.0061299475,-0.63024884,1,2203,224c2092-44e1-4b73-879c-d0ad0c4b4c87
61462495,-0.031147426,-0.0044550486,0.011821159,0.7065994,-0.0003272009,0.0062051187,-0.7075866,0.7763479,0.0057239314,0.0061299475,-0.63024884,1,2203,224c2092-44e1-4b73-879c-d0ad0c4b4c87
61562548,-0.025754528,0.038751505,-0.00865535,0.70665014,-0.000275882,0.006169093,-0.7075363,0.7763479,0.0057239314,0.0061299475,-0.63024884,1,2203,224c2092-44e1-4b73-879c-d0ad0c4b4c87
61666439,-0.0061304714,-0.0013303313,4.1029416e-05,0.7066005,-0.00027010907,0.0061249193,-0.70758617,0.7763479,0.0057239314,0.0061299475,-0.63024884,1,2203,224c2092-44e1-4b73-879c-d0ad0c4b4c87
61766613,0.007817073,0.0012844552,0.0015608391,0.70659256,-0.00023736255,0.0061043035,-0.7075944,0.7763479,0.0057239314,0.0061299475,-0.63024884,1,2203,224c2092-44e1-4b73-879c-d0ad0c4b4c87
61866539,0.018597735,0.03922396,-0.01633378,0.70654947,-0.00016906815,0.006159627,-0.7076369,0.7763479,0.0057239314,0.0061299475,-0.63024884,1,2203,224c2092-44e1-4b73-879c-d0ad0c4b4c87
61970609,0.012612105,0.0555824,-0.0067007756,0.70655924,-0.00015298066,0.006227451,-0.70762646,0.7763479,0.0057239314,0.0061299475,-0.63024884,1,2203,224c2092-44e1-4b73-879c-d0ad0c4b4c87
62070514,0.02218963,0.042971298,-0.007829314,0.70657426,-0.00017568223,0.0061423634,-0.70761234,0.7763479,0.0057239314,0.0061299475,-0.63024884,1,2203,224c2092-44e1-4b73-879c-d0ad0c4b4c87
62172192,0.036905084,0.050396793,0.005547515,0.70661163,-0.00019490154,0.006214971,-0.70757437,0.7763479,0.0057239314,0.0061299475,-0.63024884,1,2203,224c2092-44e1-4b73-879c-d0ad0c4b4c87
62272126,0.024088599,0.030851886,0.028617617,0.706613,-0.00020180499,0.006136091,-0.70757365,0.7763479,0.0057239314,0.0061299475,-0.63024884,1,2203,224c2092-44e1-4b73-879c-d0ad0c4b4c87
62376076,-0.009664318,-0.035513774,-0.01969009,0.7065537,-0.00029100056,0.0061820457,-0.70763236,0.7763479,0.0057239314,0.0061299475,-0.63024884,1,2203,224c2092-44e1-4b73-879c-d0ad0c4b4c87
62476066,-0.058027904,-0.06648022,-0.017377522,0.7065473,-0.0003637292,0.0061742817,-0.7076388,0.7763479,0.0057239314,0.0061299475,-0.63024884,1,2203,224c2092-44e1-4b73-879c-d0ad0c4b4c87
62580168,0.03748106,0.021053184,0.004939033,0.70655656,-0.00022116274,0.006184613,-0.70762956,0.7763479,0.0057239314,0.0061299475,-0.63024884,1,2203,224c2092-44e1-4b73-879c-d0ad0c4b4c87
62680189,0.0025725642,0.014235998,0.0054082368,0.7065487,-0.0002835538,0.0061770068,-0.7076374,0.7763479,0.0057239314,0.0061299475,-0.63024884,1,2203,224c2092-44e1-4b73-879c-d0ad0c4b4c87
62780106,0.024369374,0.040205523,-0.009831513,0.7065151,-0.00020520657,0.0061250227,-0.70767146,0.7763479,0.0057239314,0.0061299475,-0.63024884,1,2203,224c2092-44e1-4b73-879c-d0ad0c4b4c87
62884178,-0.013722748,-0.029372508,-0.008117314,0.7065368,-0.0003586267,0.0061634365,-0.7076494,0.7763479,0.0057239314,0.0061299475,-0.63024884,1,2203,224c2092-44e1-4b73-879c-d0ad0c4b4c87
62984151,-0.023991933,-0.02071741,-0.012263749,0.7065246,-0.00034736856,0.006165141,-0.7076616,0.7763479,0.0057239314,0.0061299475,-0.63024884,1,2203,224c2092-44e1-4b73-879c-d0ad0c4b4c87
63084038,0.03681334,-0.011262985,0.00071323547,0.70652276,-0.00034442116,0.0061887596,-0.7076632,0.7763479,0.0057239314,0.0061299475,-0.63024884,1,2203,224c2092-44e1-4b73-879c-d0ad0c4b4c87
63188874,0.010378525,0.013608001,-0.009737119,0.7065205,-0.00028872874,0.0061623505,-0.7076657,0.7763479,0.0057239314,0.0061299475,-0.63024884,1,2203,224c2092-44e1-4b73-879c-d0ad0c4b4c87
63288863,0.028580759,0.0026714727,-0.009337564,0.7065111,-0.00027953082,0.0061491253,-0.7076753,0.7763479,0.0057239314,0.0061299475,-0.63024884,1,2203,224c2092-44e1-4b73-879c-d0ad0c4b4c87
63389017,0.004330554,0.030417254,-0.006970562,0.7065057,-0.00027310775,0.006140497,-0.7076807,0.7763479,0.0057239314,0.0061299475,-0.63024884,1,2203,224c2092-44e1-4b73-879c-d0ad0c4b4c87
63492987,-0.0138207,-0.011180634,0.00809226,0.70654786,-0.00025444798,0.0061536706,-0.70763844,0.7763479,0.0057239314,0.0061299475,-0.63024884,1,2203,224c2092-44e1-4b73-879c-d0ad0c4b4c87
63592903,-0.043388143,-0.010283713,0.0065875403,0.7065496,-0.0003299765,0.006151032,-0.7076367,0.7763479,0.0057239314,0.0061299475,-0.63024884,1,2203,224c2092-44e1-4b73-879c-d0ad0c4b4c87
63692855,-0.0108903125,0.040795375,0.0015087111,0.7065806,-0.00025064978,0.00618131,-0.70760566,0.7763479,0.0057239314,0.0061299475,-0.63024884,1,2203,224c2092-44e1-4b73-879c-d0ad0c4b4c87
63796835,0.031129293,-0.023996724,-0.017901044,0.70659584,-0.00033130278,0.006133182,-0.7075907,0.7763479,0.0057239314,0.0061299475,-0.63024884,1,2203,224c2092-44e1-4b73-879c-d0ad0c4b4c87
63896833,-0.0013883114,-0.050687473,0.036223285,0.70663965,-0.00028843843,0.0060910536,-0.70754737,0.7763479,0.0057239314,0.0061299475,-0.63024884,1,2203,224c2092-44e1-4b73-879c-d0ad0c4b4c87
64001061,-0.012086209,0.006010307,0.011627121,0.7066051,-0.00034812622,0.006167776,-0.7075813,0.7763479,0.0057239314,0.0061299475,-0.63024884,1,2203,224c2092-44e1-4b73-879c-d0ad0c4b4c87
64105039,-0.0141175445,0.00016789453,-0.0041173743,0.7065986,-0.0003210225,0.0061550215,-0.70758784,0.7763479,0.0057239314,0.0061299475,-0.63024884,1,2203,224c2092-44e1-4b73-879c-d0ad0c4b4c87
64205012,0.02777586,0.028651819,0.00033773715,0.7066249,-0.00028489865,0.006130397,-0.7075618,0.7763479,0.0057239314,0.0061299475,-0.63024884,1,2203,224c2092-44e1-4b73-879c-d0ad0c4b4c87
64308910,-0.029600315,0.019807892,-0.021933515,0.70658314,-0.0003291133,0.0061661303,-0.70760316,0.7763479,0.0057239314,0.0061299475,-0.63024884,1,2203,224c2092-44e1-4b73-879c-d0ad0c4b4c87
64408860,0.022401106,0.005940851,-0.0005958945,0.70656973,-0.0002937143,0.006126323,-0.70761687,0.7763479,0.0057239314,0.0061299475,-0.63024884,1,2203,224c2092-44e1-4b73-879c-d0ad0c4b4c87
64510466,-0.01949456,0.016877178,-0.01332134,0.70658255,-0.00039713693,0.006180878,-0.70760363,0.7763479,0.0057239314,0.0061299475,-0.63024884,1,2203,224c2092-44e1-4b73-879c-d0ad0c4b4c87
64610399,-0.03575345,-0.049549047,-0.001706275,0.7065811,-0.0004271278,0.0061439727,-0.7076053,0.7763479,0.0057239314,0.0061299475,-0.63024884,1,2203,224c2092-44e1-4b73-879c-d0ad0c4b4c87
64714543,-0.033507094,-0.010191776,-0.0028214843,0.70658946,-0.00045243136,0.0061806934,-0.7075966,0.7763479,0.0057239314,0.0061299475,-0.63024884,1,2203,224c2092-44e1-4b73-879c-d0ad0c4b4c87
64814452,0.030773746,-0.008441737,0.007450697,0.7065743,-0.00039032573,0.0061320113,-0.7076122,0.7763479,0.0057239314,0.0061299475,-0.63024884,1,2203,224c2092-44e1-4b73-879c-d0ad0c4b4c87
64914939,-0.0075031086,0.0086629465,-0.001740301,0.7065665,-0.00044083962,0.0061697336,-0.70761967,0.7763479,0.0057239314,0.0061299475,-0.63024884,1,2203,224c2092-44e1-4b73-879c-d0ad0c4b4c87
65018502,-0.010261679,-0.009154561,0.007088202,0.7065757,-0.00042752802,0.006089065,-0.70761126,0.7763479,0.0057239314,0.0061299475,-0.63024884,1,2203,224c2092-44e1-4b73-879c-d0ad0c4b4c87
65118625,-0.009782601,0.020784782,0.018234907,0.7066055,-0.0004193163,0.0061198943,-0.7075812,0.7763479,0.0057239314,0.0061299475,-0.63024884,1,2203,224c2092-44e1-4b73-879c-d0ad0c4b4c87
65222484,-0.020531554,-0.034646843,-0.027339058,0.706581,-0.00045298965,0.006118887,-0.7076056,0.7763479,0.0057239314,0.0061299475,-0.63024884,1,2203,224c2092-44e1-4b73-879c-d0ad0c4b4c87
65322470,0.015342002,-0.011482063,-0.027213087,0.7065533,-0.00032947844,0.0060727596,-0.7076338,0.7763479,0.0057239314,0.0061299475,-0.63024884,1,2203,224c2092-44e1-4b73-879c-d0ad0c4b4c87
65422450,-0.026804091,-0.040546738,-0.0020116915,0.7065613,-0.00045096804,0.006057748,-0.70762587,0.7763479,0.0057239314,0.0061299475,-0.63024884,1,2203,224c2092-44e1-4b73-879c-d0ad0c4b4c87
65524029,0.053989828,-0.012640992,-0.0070761098,0.706521,-0.00029183322,0.0060577276,-0.7076662,0.7763479,0.0057239314,0.0061299475,-0.63024884,1,2203,224c2092-44e1-4b73-879c-d0ad0c4b4c87
65628161,-0.05039555,0.008015858,0.0042045633,0.70654154,-0.00042417255,0.006172743,-0.7076445,0.7763479,0.0057239314,0.0061299475,-0.63024884,1,2203,224c2092-44e1-4b73-879c-d0ad0c4b4c87
65728005,-0.0025009527,0.03633782,0.010708945,0.70658493,-0.00033594572,0.006122054,-0.7076017,0.7763479,0.0057239314,0.0061299475,-0.63024884,1,2203,224c2092-44e1-4b73-879c-d0ad0c4b4c87
65828195,-0.07361028,0.1012458,-0.012821578,0.7063313,-0.0003485172,0.005801224,-0.70785755,0.7763479,0.0057239314,0.0061299475,-0.63024884,1,2203,224c2092-44e1-4b73-879c-d0ad0c4b4c87
65932420,0.07525375,-0.22266026,0.032104444,0.7064455,-0.002033016,0.0055025634,-0.70774317,0.7763479,0.0057239314,0.0061299475,-0.63024884,1,2203,224c2092-44e1-4b73-879c-d0ad0c4b4c87
66032200,-0.004785278,-0.0003991453,-0.056170925,0.7052089,-0.004290438,0.0055658114,-0.7089648,0.7763479,0.0057239314,0.0061299475,-0.63024884,1,2203,224c2092-44e1-4b73-879c-d0ad0c4b4c87
66136120,0.028398223,-0.11291936,-0.038649965,0.7035502,-0.008219852,0.004259482,-0.7105853,0.7763479,0.0057239314,0.0061299475,-0.63024884,1,2203,224c2092-44e1-4b73-879c-d0ad0c4b4c87
66236296,-0.18997309,-0.019375762,-0.029442647,0.7019612,-0.01273415,0.0013350404,-0.7121001,0.7763479,0.0057239314,0.0061299475,-0.63024884,1,2203,224c2092-44e1-4b73-879c-d0ad0c4b4c87
66336192,-0.08460583,-0.016142052,-0.06037783,0.70049644,-0.01479368,0.004011713,-0.71349126,0.7763479,0.0057239314,0.0061299475,-0.63024884,1,2203,224c2092-44e1-4b73-879c-d0ad0c4b4c87
66440159,-0.08746173,0.024154007,-0.039970644,0.6990972,-0.016082253,0.007547531,-0.71480596,0.7763479,0.0057239314,0.0061299475,-0.63024884,1,2203,224c2092-44e1-4b73-879c-d0ad0c4b4c87
66541767,0.017029433,-0.040088333,-0.077832885,0.69740623,-0.017113322,0.009276413,-0.71641165,0.7763479,0.0057239314,0.0061299475,-0.63024884,1,2203,224c2092-44e1-4b73-879c-d0ad0c4b4c87
66645769,-0.10138458,0.019599307,-0.018892325,0.69600946,-0.020553786,0.009427004,-0.71767646,0.7763479,0.0057239314,0.0061299475,-0.63024884,1,2203,224c2092-44e1-4b73-879c-d0ad0c4b4c87
66745770,0.16612029,0.064822204,0.011929718,0.69543755,-0.019312266,0.0108528705,-0.718245,0.7763479,0.0057239314,0.0061299475,-0.63024884,1,2203,224c2092-44e1-4b73-879c-d0ad0c4b4c87
66849791,-0.029127132,0.052332304,0.037802592,0.6953364,-0.013900607,0.0106057,-0.7184717,0.7763479,0.0057239314,0.0061299475,-0.63024884,1,2203,224c2092-44e1-4b73-879c-d0ad0c4b4c87
66949684,-0.12711237,0.029477656,0.02472066,0.6957763,-0.0155247925,0.015466602,-0.71792424,0.7763479,0.0057239314,0.0061299475,-0.63024884,1,2203,224c2092-44e1-4b73-879c-d0ad0c4b4c87
67049804,0.07064757,-0.112117626,-0.08776971,0.6965073,-0.0150340535,0.013980334,-0.717256,0.7763479,0.0057239314,0.0061299475,-0.63024884,1,2203,224c2092-44e1-4b73-879c-d0ad0c4b4c87
67153790,0.04505175,-0.03419498,0.04785739,0.6973747,-0.016693378,0.0098997345,-0.71644396,0.7763479,0.0057239314,0.0061299475,-0.63024884,1,2203,224c2092-44e1-4b73-879c-d0ad0c4b4c87
67253669,0.060561884,-0.051038947,0.032745525,0.6978678,-0.02218216,0.006270249,-0.7158556,0.7763479,0.0057239314,0.0061299475,-0.63024884,1,2203,224c2092-44e1-4b73-879c-d0ad0c4b4c87
67357793,-0.04836453,-0.001761914,-0.044573378,0.69833237,-0.024467848,0.00592788,-0.71533084,0.7763479,0.0057239314,0.0061299475,-0.63024884,1,2203,224c2092-44e1-4b73-879c-d0ad0c4b4c87
67462614,-0.041429333,0.045577023,-0.076613344,0.69832677,-0.026946006,0.008134282,-0.7152255,0.7763479,0.0057239314,0.0061299475,-0.63024884,1,2203,224c2092-44e1-4b73-879c-d0ad0c4b4c87
67563389,-0.10468233,0.08174584,-0.056623768,0.69827896,-0.027066866,0.012408156,-0.7152062,0.7763479,0.0057239314,0.0061299475,-0.63024884,1,2203,224c2092-44e1-4b73-879c-d0ad0c4b4c87
67663636,0.018411914,0.0068687783,-0.0040389383,0.6982919,-0.026039382,0.014698497,-0.7151884,0.7763479,0.0057239314,0.0061299475,-0.63024884,1,2203,224c2092-44e1-4b73-879c-d0ad0c4b4c87
67767221,0.10899773,-0.011611753,0.015364246,0.6983804,-0.024554314,0.015500277,-0.7151375,0.7763479,0.0057239314,0.0061299475,-0.63024884,1,2203,224c2092-44e1-4b73-879c-d0ad0c4b4c87
67871400,0.08917984,0.060490623,-0.015841799,0.6984658,-0.022785278,0.015423743,-0.7151144,0.7763479,0.0057239314,0.0061299475,-0.63024884,1,2203,224c2092-44e1-4b73-879c-d0ad0c4b4c87
67971358,0.055671457,0.00268985,-0.10393135,0.6985298,-0.02107744,0.014094765,-0.7151317,0.7763479,0.0057239314,0.0061299475,-0.63024884,1,2203,224c2092-44e1-4b73-879c-d0ad0c4b4c87
68075327,0.049311627,0.12786984,-0.021645512,0.6984416,-0.01949526,0.012722115,-0.71528834,0.7763479,0.0057239314,0.0061299475,-0.63024884,1,2203,224c2092-44e1-4b73-879c-d0ad0c4b4c87
68175311,0.09378665,0.036446232,-0.019077031,0.6983998,-0.01766667,0.01145658,-0.71539813,0.7763479,0.0057239314,0.0061299475,-0.63024884,1,2203,224c2092-44e1-4b73-879c-d0ad0c4b4c87
68275382,0.0794804,-0.00077351567,-0.009420098,0.6983188,-0.015848413,0.010172379,-0.7155392,0.7763479,0.0057239314,0.0061299475,-0.63024884,1,2203,224c2092-44e1-4b73-879c-d0ad0c4b4c87
68379254,0.07895956,0.027189452,-0.0033714185,0.6982363,-0.014415786,0.009299614,-0.7156618,0.7763479,0.0057239314,0.0061299475,-0.63024884,1,2203,224c2092-44e1-4b73-879c-d0ad0c4b4c87
68480870,0.059228484,0.046307836,-0.066560455,0.6979829,-0.013147666,0.008275064,-0.7159459,0.7763479,0.0057239314,0.0061299475,-0.63024884,1,2203,224c2092-44e1-4b73-879c-d0ad0c4b4c87
68584938,-0.03129262,0.064684235,-0.050243,0.69789207,-0.012495429,0.00741497,-0.71605563,0.7763479,0.0057239314,0.0061299475,-0.63024884,1,2203,224c2092-44e1-4b73-879c-d0ad0c4b4c87
68684939,0.03181119,0.007032984,-0.011560336,0.6980187,-0.011766541,0.005953504,-0.7159581,0.7763479,0.0057239314,0.0061299475,-0.63024884,1,2203,224c2092-44e1-4b73-879c-d0ad0c4b4c87
68789382,-0.02978426,-0.009234256,-0.0018459782,0.69804555,-0.012109248,0.005911675,-0.7159266,0.7763479,0.0057239314,0.0061299475,-0.63024884,1,2203,224c2092-44e1-4b73-879c-d0ad0c4b4c87
68888856,-0.028630016,0.06857044,-0.01864217,0.6981259,-0.012211256,0.006093176,-0.715845,0.7763479,0.0057239314,0.0061299475,-0.63024884,1,2203,224c2092-44e1-4b73-879c-d0ad0c4b4c87
68989063,0.025869846,0.074730486,0.05049704,0.698206,-0.011919611,0.0066892765,-0.7157665,0.7763479,0.0057239314,0.0061299475,-0.63024884,1,2203,224c2092-44e1-4b73-879c-d0ad0c4b4c87
69093026,-0.008544575,-0.03975266,0.038591124,0.6981955,-0.011136006,0.007879926,-0.71577716,0.7763479,0.0057239314,0.0061299475,-0.63024884,1,2203,224c2092-44e1-4b73-879c-d0ad0c4b4c87
69192890,-0.005225139,-0.0005405765,-0.016477605,0.69818604,-0.011074413,0.008889674,-0.7157756,0.7763479,0.0057239314,0.0061299475,-0.63024884,1,2203,224c2092-44e1-4b73-879c-d0ad0c4b4c87
69293036,0.03839058,0.0049312073,0.07599173,0.69840735,-0.011922686,0.009707597,-0.7155354,0.7763479,0.0057239314,0.0061299475,-0.63024884,1,2203,224c2092-44e1-4b73-879c-d0ad0c4b4c87
69396981,-0.010567334,-0.03753747,0.026534988,0.6986989,-0.0127668595,0.010014508,-0.71523196,0.7763479,0.0057239314,0.0061299475,-0.63024884,1,2203,224c2092-44e1-4b73-879c-d0ad0c4b4c87
69498478,-0.011813167,-0.014500733,-0.03738834,0.69887,-0.013242326,0.010196503,-0.71505344,0.7763479,0.0057239314,0.0061299475,-0.63024884,1,2203,224c2092-44e1-4b73-879c-d0ad0c4b4c87
69602480,0.038614575,-0.06200235,-0.05364242,0.69911474,-0.013170315,0.01033436,-0.71481353,0.7763479,0.0057239314,0.0061299475,-0.63024884,1,2203,224c2092-44e1-4b73-879c-d0ad0c4b4c87
69702570,-0.01183222,-0.09569082,0.053602364,0.69952804,-0.012894028,0.0104438495,-0.71441257,0.7763479,0.0057239314,0.0061299475,-0.63024884,1,2203,224c2092-44e1-4b73-879c-d0ad0c4b4c87
69806668,-0.030191828,-0.052979447,0.04082613,0.69994813,-0.01295543,0.010924057,-0.71399266,0.7763479,0.0057239314,0.0061299475,-0.63024884,1,2203,224c2092-44e1-4b73-879c-d0ad0c4b4c87
69906958,-0.034069568,-0.061621513,-0.07302399,0.70015705,-0.013091883,0.011149964,-0.71378183,0.7763479,0.0057239314,0.0061299475,-0.63024884,1,2203,224c2092-44e1-4b73-879c-d0ad0c4b4c87
70010639,0.020997342,-0.0014594932,-0.07111082,0.7003483,-0.013118251,0.011260173,-0.71359193,0.7763479,0.0057239314,0.0061299475,-0.63024884,1,2203,224c2092-44e1-4b73-879c-d0ad0c4b4c87
70114505,0.051665496,0.06906987,-0.11025002,0.7005679,-0.013179188,0.010485905,-0.7133871,0.7763479,0.0057239314,0.0061299475,-0.63024884,1,2203,224c2092-44e1-4b73-879c-d0ad0c4b4c87
70214565,0.011866404,-0.035845555,0.015464132,0.70107996,-0.013691514,0.009646897,-0.71288604,0.7763479,0.0057239314,0.0061299475,-0.63024884,1,2203,224c2092-44e1-4b73-879c-d0ad0c4b4c87
70318424,0.057701237,-0.0154331345,0.03237185,0.7013063,-0.014071809,0.0086484505,-0.7126687,0.7763479,0.0057239314,0.0061299475,-0.63024884,1,2203,224c2092-44e1-4b73-879c-d0ad0c4b4c87
70418453,0.022805061,-0.065181516,-0.074456275,0.7014345,-0.014306924,0.0073602633,-0.71255237,0.7763479,0.0057239314,0.0061299475,-0.63024884,1,2203,224c2092-44e1-4b73-879c-d0ad0c4b4c87
70520009,-0.04490636,-0.060625207,0.010576627,0.70162094,-0.014611514,0.006599496,-0.71237004,0.7763479,0.0057239314,0.0061299475,-0.63024884,1,2203,224c2092-44e1-4b73-879c-d0ad0c4b4c87
70620297,-0.010854132,-0.045169342,-0.07513435,0.70180047,-0.014599658,0.0051060743,-0.7122057,0.7763479,0.0057239314,0.0061299475,-0.63024884,1,2203,224c2092-44e1-4b73-879c-d0ad0c4b4c87
70724179,0.06101926,-0.017618274,-0.014429812,0.701898,-0.0144461775,0.003715693,-0.7121213,0.7763479,0.0057239314,0.0061299475,-0.63024884,1,2203,224c2092-44e1-4b73-879c-d0ad0c4b4c87
70828160,0.02977695,0.052887183,0.00018972148,0.7018056,-0.014018972,0.0026129293,-0.7122258,0.7763479,0.0057239314,0.0061299475,-0.63024884,1,2203,224c2092-44e1-4b73-879c-d0ad0c4b4c87
70928199,0.018145986,-0.00886194,-0.04092765,0.7015552,-0.013946821,0.0021232706,-0.71247554,0.7763479,0.0057239314,0.0061299475,-0.63024884,1,2203,224c2092-44e1-4b73-879c-d0ad0c4b4c87
71032197,-0.07858204,0.1325984,-0.051147185,0.7012656,-0.013292685,0.0022329506,-0.7127727,0.7763479,0.0057239314,0.0061299475,-0.63024884,1,2203,224c2092-44e1-4b73-879c-d0ad0c4b4c87
71132100,0.0033908244,0.12317249,-0.04424686,0.70103353,-0.013180095,0.0019751666,-0.7130038,0.7763479,0.0057239314,0.0061299475,-0.63024884,1,2203,224c2092-44e1-4b73-879c-d0ad0c4b4c87
71232035,0.040237546,0.039531976,-0.02722931,0.7009295,-0.013239671,0.002361393,-0.7131038,0.7763479,0.0057239314,0.0061299475,-0.63024884,1,2203,224c2092-44e1-4b73-879c-d0ad0c4b4c87
71336157,-0.07157534,0.06200169,-0.014790954,0.70084715,-0.013539144,0.0028814476,-0.71317726,0.7763479,0.0057239314,0.0061299475,-0.63024884,1,2203,224c2092-44e1-4b73-879c-d0ad0c4b4c87
71436180,-0.036019165,0.07797367,-0.027495077,0.70081437,-0.013958192,0.0027966101,-0.7132017,0.7763479,0.0057239314,0.0061299475,-0.63024884,1,2203,224c2092-44e1-4b73-879c-d0ad0c4b4c87
71538138,-0.00037802762,0.022677617,-0.033140685,0.70103586,-0.014160274,0.0028492094,-0.7129798,0.7763479,0.0057239314,0.0061299475,-0.63024884,1,2203,224c2092-44e1-4b73-879c-d0ad0c4b4c87
71641646,-0.09018086,0.007018745,-0.09202401,0.7013615,-0.014657607,0.003997562,-0.71264386,0.7763479,0.0057239314,0.0061299475,-0.63024884,1,2203,224c2092-44e1-4b73-879c-d0ad0c4b4c87
71741835,0.022818454,-0.024580298,0.06465821,0.70187956,-0.014730052,0.005116515,-0.712125,0.7763479,0.0057239314,0.0061299475,-0.63024884,1,2203,224c2092-44e1-4b73-879c-d0ad0c4b4c87
71841734,-0.008423727,0.013554255,-0.061676733,0.7021546,-0.015166214,0.0056624305,-0.71184057,0.7763479,0.0057239314,0.0061299475,-0.63024884,1,2203,224c2092-44e1-4b73-879c-d0ad0c4b4c87
71945706,-0.060422417,-0.019297393,-0.012012325,0.7026726,-0.016029645,0.0064961924,-0.7113031,0.7763479,0.0057239314,0.0061299475,-0.63024884,1,2203,224c2092-44e1-4b73-879c-d0ad0c4b4c87
72045744,-0.03579394,-0.076452985,-0.01280287,0.7031035,-0.015994873,0.007912665,-0.7108637,0.7763479,0.0057239314,0.0061299475,-0.63024884,1,2203,224c2092-44e1-4b73-879c-d0ad0c4b4c87
72145646,0.03659698,-0.05010019,0.039542917,0.7034966,-0.0154272085,0.008924243,-0.71047527,0.7763479,0.0057239314,0.0061299475,-0.63024884,1,2203,224c2092-44e1-4b73-879c-d0ad0c4b4c87
72249881,0.06742931,0.006802528,0.048812833,0.7036148,-0.014759246,0.0097199995,-0.71036196,0.7763479,0.0057239314,0.0061299475,-0.63024884,1,2203,224c2092-44e1-4b73-879c-d0ad0c4b4c87
72349679,0.026095694,0.01423605,-0.03993627,0.70350987,-0.014238654,0.009871331,-0.7104744,0.7763479,0.0057239314,0.0061299475,-0.63024884,1,2203,224c2092-44e1-4b73-879c-d0ad0c4b4c87
72453769,-0.014062459,0.077402115,0.019131891,0.70344305,-0.014280578,0.010241705,-0.71053433,0.7763479,0.0057239314,0.0061299475,-0.63024884,1,2203,224c2092-44e1-4b73-879c-d0ad0c4b4c87
72555372,0.052680247,0.027652595,-0.02029842,0.70328814,-0.014521641,0.010514855,-0.7106789,0.7763479,0.0057239314,0.0061299475,-0.63024884,1,2203,224c2092-44e1-4b73-879c-d0ad0c4b4c87
72659261,0.059138387,-0.028746525,0.0073165097,0.70322686,-0.014742298,0.010517299,-0.7107349,0.7763479,0.0057239314,0.0061299475,-0.63024884,1,2203,224c2092-44e1-4b73-879c-d0ad0c4b4c87
72759296,-0.014688272,-0.039747793,-0.05748433,0.7029649,-0.01544452,0.010457624,-0.71098,0.7763479,0.0057239314,0.0061299475,-0.63024884,1,2203,224c2092-44e1-4b73-879c-d0ad0c4b4c87
72863340,-0.122795574,-0.053570732,-0.05238367,0.70290333,-0.016039558,0.009930026,-0.7110352,0.7763479,0.0057239314,0.0061299475,-0.63024884,1,2203,224c2092-44e1-4b73-879c-d0ad0c4b4c87
72967333,-0.0170886,0.10540244,-0.076922394,0.70290893,-0.01511447,0.009834857,-0.71105134,0.7763479,0.0057239314,0.0061299475,-0.63024884,1,2203,224c2092-44e1-4b73-879c-d0ad0c4b4c87
73067266,0.007802338,0.09614036,0.03881727,0.7030334,-0.014193,0.009484313,-0.71095204,0.7763479,0.0057239314,0.0061299475,-0.63024884,1,2203,224c2092-44e1-4b73-879c-d0ad0c4b4c87
73171408,0.06055993,-0.0339911,0.096517205,0.7031386,-0.013715091,0.009292349,-0.71085984,0.7763479,0.0057239314,0.0061299475,-0.63024884,1,2203,224c2092-44e1-4b73-879c-d0ad0c4b4c87
73271731,0.076126635,-0.0018333087,-0.034088887,0.7031059,-0.013199404,0.008662518,-0.7109099,0.7763479,0.0057239314,0.0061299475,-0.63024884,1,2203,224c2092-44e1-4b73-879c-d0ad0c4b4c87
73371414,0.018065752,-0.00409365,0.06997335,0.703265,-0.012639337,0.008625891,-0.7107631,0.7763479,0.0057239314,0.0061299475,-0.63024884,1,2203,224c2092-44e1-4b73-879c-d0ad0c4b4c87
73472194,0.002819309,0.026391663,-0.0058662724,0.70350677,-0.012185298,0.008203588,-0.71053684,0.7763479,0.0057239314,0.0061299475,-0.63024884,1,2203,224c2092-44e1-4b73-879c-d0ad0c4b4c87
73576223,0.025838796,-0.010089899,-0.0001431941,0.70388895,-0.012418742,0.008356894,-0.7101523,0.7763479,0.0057239314,0.0061299475,-0.63024884,1,2203,224c2092-44e1-4b73-879c-d0ad0c4b4c87
73680297,0.0041847075,0.0057326965,-0.010039559,0.7041408,-0.011337684,0.008859606,-0.7099146,0.7763479,0.0057239314,0.0061299475,-0.63024884,1,2203,224c2092-44e1-4b73-879c-d0ad0c4b4c87
73780133,0.006873291,-0.03988472,-0.0022084173,0.7042809,-0.0101137115,0.008378268,-0.70979995,0.7763479,0.0057239314,0.0061299475,-0.63024884,1,2203,224c2092-44e1-4b73-879c-d0ad0c4b4c87
73884068,-0.045207668,0.0962689,-0.017457664,0.7045505,-0.008626596,0.00850275,-0.7095505,0.7763479,0.0057239314,0.0061299475,-0.63024884,1,2203,224c2092-44e1-4b73-879c-d0ad0c4b4c87
73984101,-0.0071530174,0.074750416,-0.011026044,0.7048516,-0.008100175,0.008278828,-0.7092602,0.7763479,0.0057239314,0.0061299475,-0.63024884,1,2203,224c2092-44e1-4b73-879c-d0ad0c4b4c87
74088067,0.062081654,-0.013297356,0.07458077,0.70511097,-0.008999824,0.008242949,-0.70899206,0.7763479,0.0057239314,0.0061299475,-0.63024884,1,2203,224c2092-44e1-4b73-879c-d0ad0c4b4c87
74192060,0.0035278376,-0.01704963,0.03307201,0.70515525,-0.010078029,0.009393504,-0.70891917,0.7763479,0.0057239314,0.0061299475,-0.63024884,1,2203,224c2092-44e1-4b73-879c-d0ad0c4b4c87
74292078,-0.0676071,-0.037350703,-0.09802789,0.7050303,-0.010182908,0.009986555,-0.7090338,0.7763479,0.0057239314,0.0061299475,-0.63024884,1,2203,224c2092-44e1-4b73-879c-d0ad0c4b4c87
74396178,-0.111761585,-0.0071726083,-0.09325461,0.704852,-0.010165638,0.010437567,-0.70920485,0.7763479,0.0057239314,0.0061299475,-0.63024884,1,2203,224c2092-44e1-4b73-879c-d0ad0c4b4c87
74496103,0.006811709,-0.00658179,0.035664923,0.70480263,-0.010809903,0.012028148,-0.7092191,0.7763479,0.0057239314,0.0061299475,-0.63024884,1,2203,224c2092-44e1-4b73-879c-d0ad0c4b4c87
74596160,-0.071337126,-0.043350037,-0.0057245563,0.70481426,-0.011702898,0.012740716,-0.709181,0.7763479,0.0057239314,0.0061299475,-0.63024884,1,2203,224c2092-44e1-4b73-879c-d0ad0c4b4c87
74700243,-0.028214702,0.07280524,-0.0064855795,0.704861,-0.011168989,0.012364376,-0.70914984,0.7763479,0.0057239314,0.0061299475,-0.63024884,1,2203,224c2092-44e1-4b73-879c-d0ad0c4b4c87
74800998,0.03115378,0.11098111,-0.028571196,0.70491916,-0.010057828,0.011825048,-0.7091178,0.7763479,0.0057239314,0.0061299475,-0.63024884,1,2203,224c2092-44e1-4b73-879c-d0ad0c4b4c87
74901756,0.13275059,0.0793827,-0.013565142,0.7051578,-0.0085354755,0.012591633,-0.7088872,0.7763479,0.0057239314,0.0061299475,-0.63024884,1,2203,224c2092-44e1-4b73-879c-d0ad0c4b4c87
75001645,-0.15002535,-0.05128811,-0.04078876,0.705462,-0.007366087,0.014077767,-0.70856977,0.7763479,0.0057239314,0.0061299475,-0.63024884,1,2203,224c2092-44e1-4b73-879c-d0ad0c4b4c87
75105787,0.1593919,0.07994716,0.055521473,0.7059685,-0.0063021705,0.014870157,-0.7080591,0.7763479,0.0057239314,0.0061299475,-0.63024884,1,2203,224c2092-44e1-4b73-879c-d0ad0c4b4c87
75205909,-0.04879742,0.08560936,0.017250694,0.7064031,-0.0063873264,0.014371422,-0.7076351,0.7763479,0.0057239314,0.0061299475,-0.63024884,1,2203,224c2092-44e1-4b73-879c-d0ad0c4b4c87
75309740,-0.017926589,-0.119668655,-0.078246966,0.70652175,-0.0066539575,0.013527878,-0.7075308,0.7763479,0.0057239314,0.0061299475,-0.63024884,1,2203,224c2092-44e1-4b73-879c-d0ad0c4b4c87
75409730,0.19835418,-0.071151994,0.041141726,0.7064666,-0.005200545,0.012183653,-0.7076224,0.7763479,0.0057239314,0.0061299475,-0.63024884,1,2203,224c2092-44e1-4b73-879c-d0ad0c4b4c87
75509891,0.20009549,-0.07849679,-0.044330597,0.7060732,-0.0040577203,0.010506018,-0.7080493,0.7763479,0.0057239314,0.0061299475,-0.63024884,1,2203,224c2092-44e1-4b73-879c-d0ad0c4b4c87
75613732,-0.08007094,-0.0028259747,-0.0054715676,0.70568347,-0.0038142847,0.009811017,-0.7084491,0.7763479,0.0057239314,0.0061299475,-0.63024884,1,2203,224c2092-44e1-4b73-879c-d0ad0c4b4c87
75713785,0.14296038,-0.06261079,0.07873108,0.70530766,-0.0043944702,0.008281861,-0.7088394,0.7763479,0.0057239314,0.0061299475,-0.63024884,1,2203,224c2092-44e1-4b73-879c-d0ad0c4b4c87
75815756,-0.086898975,-0.06361651,-0.08288155,0.7049447,-0.005557351,0.00732449,-0.70920277,0.7763479,0.0057239314,0.0061299475,-0.63024884,1,2203,224c2092-44e1-4b73-879c-d0ad0c4b4c87
75915407,0.068365365,-0.007829274,0.052969515,0.70511293,-0.006543295,0.0070660706,-0.7090297,0.7763479,0.0057239314,0.0061299475,-0.63024884,1,2203,224c2092-44e1-4b73-879c-d0ad0c4b4c87
76019412,0.04471012,0.013662897,0.075622566,0.70554715,-0.007014106,0.0076412805,-0.7085871,0.7763479,0.0057239314,0.0061299475,-0.63024884,1,2203,224c2092-44e1-4b73-879c-d0ad0c4b4c87
76119294,0.0041199094,-0.052604802,-0.06256433,0.7061112,-0.006603418,0.008193142,-0.70802283,0.7763479,0.0057239314,0.0061299475,-0.63024884,1,2203,224c2092-44e1-4b73-879c-d0ad0c4b4c87
76223326,0.073888935,0.01642203,0.09740953,0.7070233,-0.0063717957,0.0077446355,-0.70711917,0.7763479,0.0057239314,0.0061299475,-0.63024884,1,2203,224c2092-44e1-4b73-879c-d0ad0c4b4c87
76323270,0.67211443,0.31666642,-0.09738735,0.70717,0.0039743437,0.004714078,-0.7070167,0.7763479,0.0057239314,0.0061299475,-0.63024884,1,2203,224c2092-44e1-4b73-879c-d0ad0c4b4c87
76423332,0.59982,0.40129957,-0.005877165,0.7064132,0.046519235,-0.007703231,-0.7062273,0.7763479,0.0057239314,0.0061299475,-0.63024884,1,2203,224c2092-44e1-4b73-879c-d0ad0c4b4c87
76527493,0.06580611,-0.028013458,-0.023846822,0.7054855,0.06420115,-0.0131339785,-0.7056883,0.7763479,0.0057239314,0.0061299475,-0.63024884,1,2203,224c2092-44e1-4b73-879c-d0ad0c4b4c87
76627373,-0.27200475,-0.038386445,-0.02695324,0.7054695,0.05593511,-0.009511601,-0.70646554,0.7763479,0.0057239314,0.0061299475,-0.63024884,1,2203,224c2092-44e1-4b73-879c-d0ad0c4b4c87
76727352,-0.3309659,-0.077976406,0.0027471087,0.7056812,0.042285807,-0.0024090915,-0.70726246,0.7763479,0.0057239314,0.0061299475,-0.63024884,1,2203,224c2092-44e1-4b73-879c-d0ad0c4b4c87
76828896,-0.21562636,-0.19525334,0.0056106322,0.7057569,0.027660407,0.0035903256,-0.7079048,0.7763479,0.0057239314,0.0061299475,-0.63024884,1,2203,224c2092-44e1-4b73-879c-d0ad0c4b4c87
76932952,-0.20894164,-0.19207507,0.022469766,0.7056036,0.01201623,0.007413803,-0.7084662,0.7763479,0.0057239314,0.0061299475,-0.63024884,1,2203,224c2092-44e1-4b73-879c-d0ad0c4b4c87
77032926,-0.19969305,-0.24679025,-0.005413843,0.70529366,-0.0028079192,0.008433554,-0.7088596,0.7763479,0.0057239314,0.0061299475,-0.63024884,1,2203,224c2092-44e1-4b73-879c-d0ad0c4b4c87
77136950,-0.19672157,-0.0813443,0.031317607,0.70477855,-0.017945109,0.009816401,-0.70913255,0.7763479,0.0057239314,0.0061299475,-0.63024884,1,2203,224c2092-44e1-4b73-879c-d0ad0c4b4c87
77236941,-0.2112517,-0.06555326,-0.021555979,0.70384157,-0.030433355,0.0111041125,-0.7096179,0.7763479,0.0057239314,0.0061299475,-0.63024884,1,2203,224c2092-44e1-4b73-879c-d0ad0c4b4c87
77336942,-0.16012613,-0.124555945,-0.038178816,0.7025929,-0.040748924,0.011994175,-0.7103232,0.7763479,0.0057239314,0.0061299475,-0.63024884,1,2203,224c2092-44e1-4b73-879c-d0ad0c4b4c87
77441033,-0.15699713,-0.13731426,0.024644393,0.70139724,-0.049080357,0.011704156,-0.71098244,0.7763479,0.0057239314,0.0061299475,-0.63024884,1,2203,224c2092-44e1-4b73-879c-d0ad0c4b4c87
77540891,-0.09389746,-0.10443046,0.02571754,0.7005067,-0.05452478,0.010898846,-0.7114764,0.7763479,0.0057239314,0.0061299475,-0.63024884,1,2203,224c2092-44e1-4b73-879c-d0ad0c4b4c87
77641028,-0.03869253,-0.04325217,0.018681962,0.6999348,-0.05668988,0.010662149,-0.71187353,0.7763479,0.0057239314,0.0061299475,-0.63024884,1,2203,224c2092-44e1-4b73-879c-d0ad0c4b4c87
77745103,0.07603392,0.08429834,0.013231807,0.6996168,-0.0564921,0.011180235,-0.71219385,0.7763479,0.0057239314,0.0061299475,-0.63024884,1,2203,224c2092-44e1-4b73-879c-d0ad0c4b4c87
77845803,0.1311596,0.0789832,0.07043156,0.699709,-0.054965198,0.012685855,-0.7121975,0.7763479,0.0057239314,0.0061299475,-0.63024884,1,2203,224c2092-44e1-4b73-879c-d0ad0c4b4c87
77945901,0.18419476,0.06671859,0.08744478,0.6998242,-0.052926864,0.014008683,-0.71221393,0.7763479,0.0057239314,0.0061299475,-0.63024884,1,2203,224c2092-44e1-4b73-879c-d0ad0c4b4c87
78049679,0.027943885,0.008661309,-0.040076125,0.6999274,-0.048130713,0.0143758375,-0.7124454,0.7763479,0.0057239314,0.0061299475,-0.63024884,1,2203,224c2092-44e1-4b73-879c-d0ad0c4b4c87
78150120,0.04872263,0.029685915,-0.061023816,0.7001664,-0.041936114,0.0140250465,-0.7126091,0.7763479,0.0057239314,0.0061299475,-0.63024884,1,2203,224c2092-44e1-4b73-879c-d0ad0c4b4c87
78249716,0.13512081,0.014137533,-0.01377058,0.70074594,-0.03574577,0.013547702,-0.7123861,0.7763479,0.0057239314,0.0061299475,-0.63024884,1,2203,224c2092-44e1-4b73-879c-d0ad0c4b4c87
78353720,-0.078843065,0.1400322,-0.077446334,0.70131576,-0.029604716,0.01403454,-0.7120975,0.7763479,0.0057239314,0.0061299475,-0.63024884,1,2203,224c2092-44e1-4b73-879c-d0ad0c4b4c87
78453645,0.05657051,0.11642293,-0.09265234,0.7021337,-0.023796694,0.013685471,-0.7115158,0.7763479,0.0057239314,0.0061299475,-0.63024884,1,2203,224c2092-44e1-4b73-879c-d0ad0c4b4c87
78557727,0.095712885,0.08170159,-0.028695883,0.7031589,-0.017732145,0.012843539,-0.7106956,0.7763479,0.0057239314,0.0061299475,-0.63024884,1,2203,224c2092-44e1-4b73-879c-d0ad0c4b4c87
78661692,-0.0045247283,0.030089293,0.0022353912,0.7040867,-0.01169631,0.012238845,-0.7099122,0.7763479,0.0057239314,0.0061299475,-0.63024884,1,2203,224c2092-44e1-4b73-879c-d0ad0c4b4c87
78761662,0.10797455,0.06320832,-0.03071073,0.7048421,-0.0059548253,0.011686849,-0.70924306,0.7763479,0.0057239314,0.0061299475,-0.63024884,1,2203,224c2092-44e1-4b73-879c-d0ad0c4b4c87
78866124,0.07101821,0.008808225,-0.04888032,0.7053943,-0.0010864744,0.010546846,-0.7087359,0.7763479,0.0057239314,0.0061299475,-0.63024884,1,2203,224c2092-44e1-4b73-879c-d0ad0c4b4c87
78965813,0.0107097905,-0.03352985,0.05169473,0.70580876,0.0016444981,0.01039473,-0.70832425,0.7763479,0.0057239314,0.0061299475,-0.63024884,1,2203,224c2092-44e1-4b73-879c-d0ad0c4b4c87
79065649,-0.061559252,0.0054292,-0.077037975,0.70611805,0.002606125,0.010073791,-0.70801777,0.7763479,0.0057239314,0.0061299475,-0.63024884,1,2203,224c2092-44e1-4b73-879c-d0ad0c4b4c87
79167268,-0.041830003,-0.041451927,0.021390619,0.7064728,0.0025656824,0.010112058,-0.7076633,0.7763479,0.0057239314,0.0061299475,-0.63024884,1,2203,224c2092-44e1-4b73-879c-d0ad0c4b4c87
79271363,0.030623365,-0.004175232,0.05392288,0.70684797,0.0027577293,0.0106019825,-0.7072807,0.7763479,0.0057239314,0.0061299475,-0.63024884,1,2203,224c2092-44e1-4b73-879c-d0ad0c4b4c87
79375411,0.07047153,0.11442835,0.10571877,0.7072532,0.003692745,0.0111965975,-0.70686203,0.7763479,0.0057239314,0.0061299475,-0.63024884,1,2203,224c2092-44e1-4b73-879c-d0ad0c4b4c87
79475312,-0.088552,0.053827967,-0.022273056,0.7075089,0.003521043,0.011787518,-0.7065974,0.7763479,0.0057239314,0.0061299475,-0.63024884,1,2203,224c2092-44e1-4b73-879c-d0ad0c4b4c87
79579342,0.014112752,0.042467974,0.12155755,0.7080649,0.0032568483,0.012655099,-0.7060265,0.7763479,0.0057239314,0.0061299475,-0.63024884,1,2203,224c2092-44e1-4b73-879c-d0ad0c4b4c87
79679255,-0.11968835,0.034715887,-0.08019133,0.70811546,0.0033119863,0.01299214,-0.7059694,0.7763479,0.0057239314,0.0061299475,-0.63024884,1,2203,224c2092-44e1-4b73-879c-d0ad0c4b4c87
79779387,0.09543623,-0.01927941,-0.08497914,0.7079316,0.003784251,0.011554972,-0.7061764,0.7763479,0.0057239314,0.0061299475,-0.63024884,1,2203,224c2092-44e1-4b73-879c-d0ad0c4b4c87
79883412,-0.04374172,0.022175906,-0.09248075,0.7074842,0.0041468157,0.009069469,-0.7066589,0.7763479,0.0057239314,0.0061299475,-0.63024884,1,2203,224c2092-44e1-4b73-879c-d0ad0c4b4c87
79983405,0.008910336,0.020164937,-0.08285217,0.70667046,0.00467293,0.006875723,-0.7074941,0.7763479,0.0057239314,0.0061299475,-0.63024884,1,2203,224c2092-44e1-4b73-879c-d0ad0c4b4c87
80087333,-0.04005259,-0.045912374,-0.10202447,0.70567316,0.003449485,0.0050688162,-0.708511,0.7763479,0.0057239314,0.0061299475,-0.63024884,1,2203,224c2092-44e1-4b73-879c-d0ad0c4b4c87
80188987,0.07611415,-0.0067659523,-0.031666014,0.70471215,0.0018841309,0.0042333123,-0.7094782,0.7763479,0.0057239314,0.0061299475,-0.63024884,1,2203,224c2092-44e1-4b73-879c-d0ad0c4b4c87
80292884,-0.10312579,-0.08165044,-0.08811952,0.7038416,0.0009278369,0.004709117,-0.7103408,0.7763479,0.0057239314,0.0061299475,-0.63024884,1,2203,224c2092-44e1-4b73-879c-d0ad0c4b4c87
80392932,-0.09477285,-0.049500693,-0.077255785,0.70314544,-0.00020856365,0.0053494014,-0.71102595,0.7763479,0.0057239314,0.0061299475,-0.63024884,1,2203,224c2092-44e1-4b73-879c-d0ad0c4b4c87
80492978,-0.0345373,-0.1105289,-0.05486154,0.70261043,-0.0010178126,0.0049262727,-0.7115569,0.7763479,0.0057239314,0.0061299475,-0.63024884,1,2203,224c2092-44e1-4b73-879c-d0ad0c4b4c87
80596916,0.04589924,0.06976865,0.0597841,0.702372,-0.0008978977,0.004610667,-0.7117946,0.7763479,0.0057239314,0.0061299475,-0.63024884,1,2203,224c2092-44e1-4b73-879c-d0ad0c4b4c87
80697003,0.05765042,0.045984287,0.04248796,0.7022293,-0.0009164794,0.005255131,-0.71193093,0.7763479,0.0057239314,0.0061299475,-0.63024884,1,2203,224c2092-44e1-4b73-879c-d0ad0c4b4c87
80800894,-0.09870429,-0.0652655,-0.027403299,0.7020357,-0.0010203661,0.0058635236,-0.7121169,0.7763479,0.0057239314,0.0061299475,-0.63024884,1,2203,224c2092-44e1-4b73-879c-d0ad0c4b4c87
80905033,0.078834035,-0.012463393,0.056128345,0.7020823,-0.0011068814,0.0058304877,-0.7120712,0.7763479,0.0057239314,0.0061299475,-0.63024884,1,2203,224c2092-44e1-4b73-879c-d0ad0c4b4c87
81005024,0.092124835,-0.0064468235,0.0316169,0.70221823,-0.0015329999,0.0059875427,-0.711935,0.7763479,0.0057239314,0.0061299475,-0.63024884,1,2203,224c2092-44e1-4b73-879c-d0ad0c4b4c87
81108906,-0.092695065,0.041701555,-0.0048212763,0.70251954,-0.0020631882,0.0068812235,-0.7116282,0.7763479,0.0057239314,0.0061299475,-0.63024884,1,2203,224c2092-44e1-4b73-879c-d0ad0c4b4c87
81210672,0.031705137,0.011134178,0.016880006,0.7032453,-0.0022860128,0.007002959,-0.71090925,0.7763479,0.0057239314,0.0061299475,-0.63024884,1,2203,224c2092-44e1-4b73-879c-d0ad0c4b4c87
81314644,-0.050335545,-0.017058847,0.0205667,0.7040391,-0.0011958748,0.0069002244,-0.71012676,0.7763479,0.0057239314,0.0061299475,-0.63024884,1,2203,224c2092-44e1-4b73-879c-d0ad0c4b4c87
81414490,-0.12937461,0.02332191,-0.008614706,0.7047065,-0.0005010215,0.006368539,-0.7094703,0.7763479,0.0057239314,0.0061299475,-0.63024884,1,2203,224c2092-44e1-4b73-879c-d0ad0c4b4c87
81518496,0.12376228,-0.024138173,0.07292307,0.70529616,0.0006774721,0.0054539116,-0.7088915,0.7763479,0.0057239314,0.0061299475,-0.63024884,1,2203,224c2092-44e1-4b73-879c-d0ad0c4b4c87
81618459,0.08779567,-0.06491366,0.074047856,0.70544904,0.0016290362,0.0043100654,-0.7087457,0.7763479,0.0057239314,0.0061299475,-0.63024884,1,2203,224c2092-44e1-4b73-879c-d0ad0c4b4c87
81718461,0.011781713,-0.10082876,0.044433616,0.7054632,0.0010687902,0.00296833,-0.70873964,0.7763479,0.0057239314,0.0061299475,-0.63024884,1,2203,224c2092-44e1-4b73-879c-d0ad0c4b4c87
81822482,0.030262675,0.046857722,-0.011871427,0.7053813,0.0016061942,0.0023827755,-0.7088223,0.7763479,0.0057239314,0.0061299475,-0.63024884,1,2203,224c2092-44e1-4b73-879c-d0ad0c4b4c87
81922818,0.025062725,0.031682156,0.057342257,0.7053853,0.0016442996,0.0015102904,-0.7088206,0.7763479,0.0057239314,0.0061299475,-0.63024884,1,2203,224c2092-44e1-4b73-879c-d0ad0c4b4c87
82022551,-0.017625175,-0.03142895,0.101713,0.7053831,0.00072278414,-0.0014934975,-0.70882434,0.7763479,0.0057239314,0.0061299475,-0.63024884,1,2203,224c2092-44e1-4b73-879c-d0ad0c4b4c87
82127378,0.12745716,0.020310456,0.013399528,0.7051166,0.0009139407,-0.0026339279,-0.70908594,0.7763479,0.0057239314,0.0061299475,-0.63024884,1,2203,224c2092-44e1-4b73-879c-d0ad0c4b4c87
82227358,0.06566779,0.045620635,0.023053957,0.70474756,0.0013850332,-0.0007362572,-0.70945656,0.7763479,0.0057239314,0.0061299475,-0.63024884,1,2203,224c2092-44e1-4b73-879c-d0ad0c4b4c87
82327453,0.0043681543,0.050077893,0.023384616,0.7043344,0.0009819476,0.0020581887,-0.70986474,0.7763479,0.0057239314,0.0061299475,-0.63024884,1,2203,224c2092-44e1-4b73-879c-d0ad0c4b4c87
82431455,-0.037604067,0.037297573,-0.084187366,0.7037955,0.0006641037,0.0034158928,-0.7103942,0.7763479,0.0057239314,0.0061299475,-0.63024884,1,2203,224c2092-44e1-4b73-879c-d0ad0c4b4c87
82531286,-0.11850017,0.027862342,-0.09894023,0.7032235,0.00076684845,0.005462571,-0.7109475,0.7763479,0.0057239314,0.0061299475,-0.63024884,1,2203,224c2092-44e1-4b73-879c-d0ad0c4b4c87
82635397,-0.023550663,0.053719573,0.0337398,0.70291305,0.0011241246,0.0057263565,-0.7112519,0.7763479,0.0057239314,0.0061299475,-0.63024884,1,2203,224c2092-44e1-4b73-879c-d0ad0c4b4c87
82739349,-0.11575861,0.036228515,-0.09421301,0.70255035,0.0015856791,0.008735019,-0.71157867,0.7763479,0.0057239314,0.0061299475,-0.63024884,1,2203,224c2092-44e1-4b73-879c-d0ad0c4b4c87
82843355,0.15891305,0.0065173516,0.06237576,0.7023653,0.003450831,0.011360812,-0.71171767,0.7763479,0.0057239314,0.0061299475,-0.63024884,1,2203,224c2092-44e1-4b73-879c-d0ad0c4b4c87
82943459,0.0505891,0.10691253,0.06666703,0.702503,0.004238406,0.013251458,-0.71154475,0.7763479,0.0057239314,0.0061299475,-0.63024884,1,2203,224c2092-44e1-4b73-879c-d0ad0c4b4c87
83047335,-0.04714291,0.0025609704,-0.094238676,0.70253754,0.004223099,0.014704027,-0.7114822,0.7763479,0.0057239314,0.0061299475,-0.63024884,1,2203,224c2092-44e1-4b73-879c-d0ad0c4b4c87
83147319,-0.09723478,-0.01582195,-0.065151915,0.70265317,0.0037078178,0.01586332,-0.7113461,0.7763479,0.0057239314,0.0061299475,-0.63024884,1,2203,224c2092-44e1-4b73-879c-d0ad0c4b4c87
83251340,-0.062735535,0.027030174,0.03247341,0.70267266,0.0031210952,0.01636436,-0.71131825,0.7763479,0.0057239314,0.0061299475,-0.63024884,1,2203,224c2092-44e1-4b73-879c-d0ad0c4b4c87
83355422,0.028483342,-0.053085946,-0.045671616,0.7028488,0.0018013343,0.016107604,-0.71115464,0.7763479,0.0057239314,0.0061299475,-0.63024884,1,2203,224c2092-44e1-4b73-879c-d0ad0c4b4c87
83456928,0.11671392,-0.018030066,0.06250373,0.7034386,0.00067715795,0.015181532,-0.71059364,0.7763479,0.0057239314,0.0061299475,-0.63024884,1,2203,224c2092-44e1-4b73-879c-d0ad0c4b4c87
83556879,0.060563143,0.02517218,0.030517561,0.704217,-1.7946319e-05,0.015779315,-0.7098095,0.7763479,0.0057239314,0.0061299475,-0.63024884,1,2203,224c2092-44e1-4b73-879c-d0ad0c4b4c87
83656995,0.067737035,0.072587155,0.04986214,0.70511484,0.00061453955,0.01584124,-0.70891595,0.7763479,0.0057239314,0.0061299475,-0.63024884,1,2203,224c2092-44e1-4b73-879c-d0ad0c4b4c87
83760924,0.05507445,0.014202222,-0.054225497,0.7058487,0.002476286,0.015402289,-0.70819086,0.7763479,0.0057239314,0.0061299475,-0.63024884,1,2203,224c2092-44e1-4b73-879c-d0ad0c4b4c87
83860893,0.07196476,0.0053034932,-0.024187589,0.7062597,0.003097765,0.015327984,-0.7077801,0.7763479,0.0057239314,0.0061299475,-0.63024884,1,2203,224c2092-44e1-4b73-879c-d0ad0c4b4c87
83965069,-0.07760869,-0.049935855,-0.05117926,0.7061915,0.0020668164,0.01458011,-0.70786774,0.7763479,0.0057239314,0.0061299475,-0.63024884,1,2203,224c2092-44e1-4b73-879c-d0ad0c4b4c87
84064941,-0.095553845,-0.0240397,-0.0937882,0.7058187,0.0016796227,0.014236413,-0.7082474,0.7763479,0.0057239314,0.0061299475,-0.63024884,1,2203,224c2092-44e1-4b73-879c-d0ad0c4b4c87
84164935,-0.105438754,-0.02521536,-0.08329265,0.7054204,0.0014994786,0.013446598,-0.70866007,0.7763479,0.0057239314,0.0061299475,-0.63024884,1,2203,224c2092-44e1-4b73-879c-d0ad0c4b4c87
84269311,0.06571077,-0.013475116,0.032868296,0.7050146,0.0008834411,0.01258617,-0.7090806,0.7763479,0.0057239314,0.0061299475,-0.63024884,1,2203,224c2092-44e1-4b73-879c-d0ad0c4b4c87
84369000,0.07357862,-0.0711634,0.04785429,0.70448136,0.0007188705,0.0125369895,-0.7096115,0.7763479,0.0057239314,0.0061299475,-0.63024884,1,2203,224c2092-44e1-4b73-879c-d0ad0c4b4c87
84470416,-0.028045086,-0.022733556,-0.058132216,0.7039069,0.0007708667,0.011886725,-0.71019244,0.7763479,0.0057239314,0.0061299475,-0.63024884,1,2203,224c2092-44e1-4b73-879c-d0ad0c4b4c87
84570704,-0.025807597,-0.029528102,-0.027732331,0.7034928,0.0011887506,0.009864949,-0.710633,0.7763479,0.0057239314,0.0061299475,-0.63024884,1,2203,224c2092-44e1-4b73-879c-d0ad0c4b4c87
84674638,0.051314667,-0.05451348,-0.017409531,0.70314455,0.001483268,0.008150681,-0.7109988,0.7763479,0.0057239314,0.0061299475,-0.63024884,1,2203,224c2092-44e1-4b73-879c-d0ad0c4b4c87
84774660,0.100473,-0.06999582,-0.049412336,0.702955,0.0013315816,0.007149402,-0.71119714,0.7763479,0.0057239314,0.0061299475,-0.63024884,1,2203,224c2092-44e1-4b73-879c-d0ad0c4b4c87
84878490,-0.017488487,0.046201877,0.04209659,0.702957,0.002227571,0.00616171,-0.71120226,0.7763479,0.0057239314,0.0061299475,-0.63024884,1,2203,224c2092-44e1-4b73-879c-d0ad0c4b4c87
84982625,0.052173216,-0.028123336,-0.004520418,0.70326346,0.0031150337,0.0057806335,-0.7108991,0.7763479,0.0057239314,0.0061299475,-0.63024884,1,2203,224c2092-44e1-4b73-879c-d0ad0c4b4c87
85082424,0.06485269,0.018278183,-0.017658291,0.7037292,0.0035052863,0.0070964396,-0.71042424,0.7763479,0.0057239314,0.0061299475,-0.63024884,1,2203,224c2092-44e1-4b73-879c-d0ad0c4b4c87
85186719,-0.03217873,0.016495137,0.034811538,0.70445484,0.003969475,0.00802145,-0.7096925,0.7763479,0.0057239314,0.0061299475,-0.63024884,1,2203,224c2092-44e1-4b73-879c-d0ad0c4b4c87
85286544,-0.03860132,0.02639213,-0.011293344,0.7051982,0.0038087904,0.008551402,-0.7089484,0.7763479,0.0057239314,0.0061299475,-0.63024884,1,2203,224c2092-44e1-4b73-879c-d0ad0c4b4c87
85386627,-0.036361005,0.048899025,-0.031013843,0.70591414,0.0034066034,0.0095904125,-0.7082244,0.7763479,0.0057239314,0.0061299475,-0.63024884,1,2203,224c2092-44e1-4b73-879c-d0ad0c4b4c87
85488213,0.04559282,-0.0087503,0.01665736,0.7065748,0.0029994564,0.009688748,-0.7075657,0.7763479,0.0057239314,0.0061299475,-0.63024884,1,2203,224c2092-44e1-4b73-879c-d0ad0c4b4c87
85592216,-0.11228775,-0.0127070155,-0.0960093,0.7069471,0.002275019,0.009964088,-0.7071926,0.7763479,0.0057239314,0.0061299475,-0.63024884,1,2203,224c2092-44e1-4b73-879c-d0ad0c4b4c87
85696270,-0.0037160418,0.09113221,0.110256486,0.7074258,0.0022874507,0.011282211,-0.7066939,0.7763479,0.0057239314,0.0061299475,-0.63024884,1,2203,224c2092-44e1-4b73-879c-d0ad0c4b4c87
85796173,-0.03143307,0.074150406,0.06249104,0.707433,0.0025839168,0.0134597495,-0.70664763,0.7763479,0.0057239314,0.0061299475,-0.63024884,1,2203,224c2092-44e1-4b73-879c-d0ad0c4b4c87
85900133,0.08130147,0.030527007,-0.024046402,0.7070139,0.0033384152,0.01296267,-0.707073,0.7763479,0.0057239314,0.0061299475,-0.63024884,1,2203,224c2092-44e1-4b73-879c-d0ad0c4b4c87
86000098,0.09513073,-0.0530538,0.0055887075,0.7066489,0.0024174238,0.010914187,-0.7074762,0.7763479,0.0057239314,0.0061299475,-0.63024884,1,2203,224c2092-44e1-4b73-879c-d0ad0c4b4c87
86100165,0.07305035,-0.0477843,-0.033140607,0.70641434,0.0020095145,0.008469516,-0.70774513,0.7763479,0.0057239314,0.0061299475,-0.63024884,1,2203,224c2092-44e1-4b73-879c-d0ad0c4b4c87
86204542,0.01717735,-0.0578354,0.0750628,0.706502,0.0021479537,0.005485025,-0.7076866,0.7763479,0.0057239314,0.0061299475,-0.63024884,1,2203,224c2092-44e1-4b73-879c-d0ad0c4b4c87
86304199,0.027466219,-0.055706616,0.07202512,0.7065673,0.0024675205,0.0033389977,-0.7076338,0.7763479,0.0057239314,0.0061299475,-0.63024884,1,2203,224c2092-44e1-4b73-879c-d0ad0c4b4c87
86404261,0.081460595,-0.04101716,0.059084922,0.7067655,0.0037228768,0.0017648169,-0.707436,0.7763479,0.0057239314,0.0061299475,-0.63024884,1,2203,224c2092-44e1-4b73-879c-d0ad0c4b4c87
86509613,-0.018819578,0.056841377,-0.109796256,0.70672125,0.0047547277,0.0009644415,-0.70747554,0.7763479,0.0057239314,0.0061299475,-0.63024884,1,2203,224c2092-44e1-4b73-879c-d0ad0c4b4c87
86609777,-0.03809505,0.01103724,-0.115730196,0.70674723,0.005896157,0.0001522428,-0.70744157,0.7763479,0.0057239314,0.0061299475,-0.63024884,1,2203,224c2092-44e1-4b73-879c-d0ad0c4b4c87
86710148,-0.06495618,-0.02040368,-0.103122085,0.70676637,0.006933385,-0.0007604955,-0.7074127,0.7763479,0.0057239314,0.0061299475,-0.63024884,1,2203,224c2092-44e1-4b73-879c-d0ad0c4b4c87
86814111,0.13270427,0.06272107,0.053890318,0.70689,0.00807969,-0.0010231462,-0.7072767,0.7763479,0.0057239314,0.0061299475,-0.63024884,1,2203,224c2092-44e1-4b73-879c-d0ad0c4b4c87
86913663,0.08338956,0.07498745,-0.023654226,0.7068694,0.009259537,-0.00070230215,-0.70728314,0.7763479,0.0057239314,0.0061299475,-0.63024884,1,2203,224c2092-44e1-4b73-879c-d0ad0c4b4c87
87013668,-0.019354006,0.1164447,-0.061487842,0.706822,0.010235293,3.6261346e-05,-0.70731753,0.7763479,0.0057239314,0.0061299475,-0.63024884,1,2203,224c2092-44e1-4b73-879c-d0ad0c4b4c87
87117671,0.090417825,-0.0030167159,0.08206237,0.70694906,0.010709672,0.00067761727,-0.7071831,0.7763479,0.0057239314,0.0061299475,-0.63024884,1,2203,224c2092-44e1-4b73-879c-d0ad0c4b4c87
87217802,0.12796476,0.016546426,0.08064401,0.706894,0.0110680545,0.0009512595,-0.7072323,0.7763479,0.0057239314,0.0061299475,-0.63024884,1,2203,224c2092-44e1-4b73-879c-d0ad0c4b4c87
87321720,-0.07585585,-0.05302114,-0.03134829,0.7067961,0.011188152,0.0014339834,-0.7073275,0.7763479,0.0057239314,0.0061299475,-0.63024884,1,2203,224c2092-44e1-4b73-879c-d0ad0c4b4c87
87423514,-0.079159416,-0.015280834,-0.05730226,0.70675457,0.01166548,0.0025519826,-0.70735806,0.7763479,0.0057239314,0.0061299475,-0.63024884,1,2203,224c2092-44e1-4b73-879c-d0ad0c4b4c87
87523540,-0.13601121,-0.016067136,-0.041420273,0.7066556,0.011746419,0.0033360356,-0.70745236,0.7763479,0.0057239314,0.0061299475,-0.63024884,1,2203,224c2092-44e1-4b73-879c-d0ad0c4b4c87
87623332,-0.049191047,-0.05321629,0.04283421,0.70661926,0.012074804,0.0038512489,-0.7074805,0.7763479,0.0057239314,0.0061299475,-0.63024884,1,2203,224c2092-44e1-4b73-879c-d0ad0c4b4c87
87727240,-0.020438746,-0.05067638,-0.11681506,0.70643324,0.012051354,0.0038724532,-0.7076665,0.7763479,0.0057239314,0.0061299475,-0.63024884,1,2203,224c2092-44e1-4b73-879c-d0ad0c4b4c87
87827246,-0.05808876,-0.09310151,-0.041596808,0.70643497,0.011887378,0.0042642835,-0.7076654,0.7763479,0.0057239314,0.0061299475,-0.63024884,1,2203,224c2092-44e1-4b73-879c-d0ad0c4b4c87
87927296,0.023784896,-0.06542342,0.08205368,0.7066138,0.011682003,0.004789064,-0.70748687,0.7763479,0.0057239314,0.0061299475,-0.63024884,1,2203,224c2092-44e1-4b73-879c-d0ad0c4b4c87
88031419,-0.07370762,0.0006226443,-0.10332859,0.70664465,0.011340948,0.005004405,-0.70746005,0.7763479,0.0057239314,0.0061299475,-0.63024884,1,2203,224c2092-44e1-4b73-879c-d0ad0c4b4c87
88131348,-0.039133843,-0.07877114,-0.046476264,0.70687336,0.0110833915,0.004863569,-0.7072366,0.7763479,0.0057239314,0.0061299475,-0.63024884,1,2203,224c2092-44e1-4b73-879c-d0ad0c4b4c87
88231418,0.0057676784,-0.059397027,0.03132886,0.7071129,0.0107529415,0.004930025,-0.70700175,0.7763479,0.0057239314,0.0061299475,-0.63024884,1,2203,224c2092-44e1-4b73-879c-d0ad0c4b4c87
88335333,-0.038708206,0.009312835,-0.036045104,0.70727956,0.010329348,0.005029318,-0.70684063,0.7763479,0.0057239314,0.0061299475,-0.63024884,1,2203,224c2092-44e1-4b73-879c-d0ad0c4b4c87
88436931,-0.025908845,0.09914495,0.002207454,0.7073788,0.010359124,0.004888575,-0.7067419,0.7763479,0.0057239314,0.0061299475,-0.63024884,1,2203,224c2092-44e1-4b73-879c-d0ad0c4b4c87
88536890,-0.10404937,0.039169412,-0.06437546,0.7073144,0.01028539,0.0047779246,-0.7068082,0.7763479,0.0057239314,0.0061299475,-0.63024884,1,2203,224c2092-44e1-4b73-879c-d0ad0c4b4c87
88640852,0.09623146,0.038111217,0.059537206,0.7073589,0.0101225125,0.0045535006,-0.7067675,0.7763479,0.0057239314,0.0061299475,-0.63024884,1,2203,224c2092-44e1-4b73-879c-d0ad0c4b4c87
88744990,-0.065987825,-0.10752281,0.015280401,0.70729834,0.009666229,0.0041145254,-0.7068371,0.7763479,0.0057239314,0.0061299475,-0.63024884,1,2203,224c2092-44e1-4b73-879c-d0ad0c4b4c87
88845034,0.020665454,-0.030338628,0.036801435,0.7072224,0.010092777,0.0039679473,-0.70690805,0.7763479,0.0057239314,0.0061299475,-0.63024884,1,2203,224c2092-44e1-4b73-879c-d0ad0c4b4c87
88949423,-0.07570703,-0.076479375,-0.085178025,0.7069837,0.01017383,0.0039133755,-0.70714587,0.7763479,0.0057239314,0.0061299475,-0.63024884,1,2203,224c2092-44e1-4b73-879c-d0ad0c4b4c87
89052830,0.08540201,0.052825637,-0.015561104,0.70680135,0.010255723,0.004073924,-0.70732605,0.7763479,0.0057239314,0.0061299475,-0.63024884,1,2203,224c2092-44e1-4b73-879c-d0ad0c4b4c87
89152898,-0.0039077885,0.016711408,-0.09731136,0.7065749,0.010248226,0.0042688446,-0.7075512,0.7763479,0.0057239314,0.0061299475,-0.63024884,1,2203,224c2092-44e1-4b73-879c-d0ad0c4b4c87
89256954,0.07356113,0.10048039,0.08126834,0.70653224,0.0106601855,0.0044652475,-0.70758647,0.7763479,0.0057239314,0.0061299475,-0.63024884,1,2203,224c2092-44e1-4b73-879c-d0ad0c4b4c87
89361021,-0.07602371,-0.027466433,-0.034942497,0.7064715,0.010492815,0.004240199,-0.7076511,0.7763479,0.0057239314,0.0061299475,-0.63024884,1,2203,224c2092-44e1-4b73-879c-d0ad0c4b4c87
89462627,-0.06427007,-0.085678324,-0.053095914,0.706531,0.010631476,0.003920339,-0.7075914,0.7763479,0.0057239314,0.0061299475,-0.63024884,1,2203,224c2092-44e1-4b73-879c-d0ad0c4b4c87
89562652,-0.027757302,-0.030646425,-0.0004835273,0.70657605,0.010617934,0.0037090986,-0.7075478,0.7763479,0.0057239314,0.0061299475,-0.63024884,1,2203,224c2092-44e1-4b73-879c-d0ad0c4b4c87
89666722,-0.06935403,-0.059325915,-0.09732803,0.7064735,0.010424523,0.0036081488,-0.7076535,0.7763479,0.0057239314,0.0061299475,-0.63024884,1,2203,224c2092-44e1-4b73-879c-d0ad0c4b4c87
89770898,0.05038529,0.103398,0.046070755,0.706456,0.010626237,0.003768963,-0.70766723,0.7763479,0.0057239314,0.0061299475,-0.63024884,1,2203,224c2092-44e1-4b73-879c-d0ad0c4b4c87
89870438,-0.03446399,0.067931004,-0.06327906,0.7064205,0.010502294,0.004333838,-0.7077013,0.7763479,0.0057239314,0.0061299475,-0.63024884,1,2203,224c2092-44e1-4b73-879c-d0ad0c4b4c87
89974440,0.12676744,0.039883927,0.11363878,0.70653963,0.010732264,0.004480594,-0.707578,0.7763479,0.0057239314,0.0061299475,-0.63024884,1,2203,224c2092-44e1-4b73-879c-d0ad0c4b4c87
90074691,0.07543725,0.08058968,0.034255825,0.70635545,0.011262696,0.004636385,-0.70775265,0.7763479,0.0057239314,0.0061299475,-0.63024884,1,2203,224c2092-44e1-4b73-879c-d0ad0c4b4c87
90174698,-0.045744725,0.070580326,-0.036557462,0.70618904,0.0116800135,0.0044531412,-0.707913,0.7763479,0.0057239314,0.0061299475,-0.63024884,1,2203,224c2092-44e1-4b73-879c-d0ad0c4b4c87
90278559,0.03381423,-0.030344011,0.08361307,0.70625097,0.011709258,0.0048171817,-0.7078484,0.7763479,0.0057239314,0.0061299475,-0.63024884,1,2203,224c2092-44e1-4b73-879c-d0ad0c4b4c87
90379512,0.05980998,-0.012581756,0.050585642,0.7061982,0.011822238,0.0049790754,-0.707898,0.7763479,0.0057239314,0.0061299475,-0.63024884,1,2203,224c2092-44e1-4b73-879c-d0ad0c4b4c87
90480513,0.024053093,-0.022642355,-0.019346884,0.7063393,0.012019555,0.0049114265,-0.7077544,0.7763479,0.0057239314,0.0061299475,-0.63024884,1,2203,224c2092-44e1-4b73-879c-d0ad0c4b4c87
90580255,-0.019169835,-0.03254764,-0.09007218,0.70633394,0.011949101,0.0054208925,-0.70775723,0.7763479,0.0057239314,0.0061299475,-0.63024884,1,2203,224c2092-44e1-4b73-879c-d0ad0c4b4c87
90684172,0.03311799,-0.011608728,0.0643586,0.70646703,0.011860827,0.005381187,-0.70762616,0.7763479,0.0057239314,0.0061299475,-0.63024884,1,2203,224c2092-44e1-4b73-879c-d0ad0c4b4c87
90784127,0.05004098,-0.009863442,0.010993332,0.7063998,0.012303715,0.005173547,-0.7076873,0.7763479,0.0057239314,0.0061299475,-0.63024884,1,2203,224c2092-44e1-4b73-879c-d0ad0c4b4c87
90888091,-0.039264675,0.016511312,0.0031519495,0.70630866,0.012110906,0.0053580836,-0.7077801,0.7763479,0.0057239314,0.0061299475,-0.63024884,1,2203,224c2092-44e1-4b73-879c-d0ad0c4b4c87
90992198,-0.049621277,0.040411294,0.006057712,0.7062819,0.012106231,0.005715336,-0.7078042,0.7763479,0.0057239314,0.0061299475,-0.63024884,1,2203,224c2092-44e1-4b73-879c-d0ad0c4b4c87
91092288,-0.10764192,0.022352966,0.021355521,0.7063006,0.011775283,0.0058790715,-0.7077897,0.7763479,0.0057239314,0.0061299475,-0.63024884,1,2203,224c2092-44e1-4b73-879c-d0ad0c4b4c87
91196145,0.058709398,-0.020133937,-0.04123877,0.7061978,0.012022595,0.0055542374,-0.70789075,0.7763479,0.0057239314,0.0061299475,-0.63024884,1,2203,224c2092-44e1-4b73-879c-d0ad0c4b4c87
91296101,-0.046044275,-0.009448319,-0.0709704,0.7059667,0.011741744,0.0054972647,-0.70812637,0.7763479,0.0057239314,0.0061299475,-0.63024884,1,2203,224c2092-44e1-4b73-879c-d0ad0c4b4c87
91397739,-0.082525745,-0.05149956,-0.10982125,0.7057795,0.011661874,0.0056628124,-0.70831305,0.7763479,0.0057239314,0.0061299475,-0.63024884,1,2203,224c2092-44e1-4b73-879c-d0ad0c4b4c87
91497749,-0.086765565,-0.076970436,-0.050486658,0.70570606,0.011653992,0.005566321,-0.708387,0.7763479,0.0057239314,0.0061299475,-0.63024884,1,2203,224c2092-44e1-4b73-879c-d0ad0c4b4c87
91601752,0.069856785,0.0032271128,-0.061729137,0.70564365,0.012040988,0.005290137,-0.7084449,0.7763479,0.0057239314,0.0061299475,-0.63024884,1,2203,224c2092-44e1-4b73-879c-d0ad0c4b4c87
91705665,0.066622674,0.0918769,0.11467403,0.70587915,0.01206355,0.005376108,-0.70820916,0.7763479,0.0057239314,0.0061299475,-0.63024884,1,2203,224c2092-44e1-4b73-879c-d0ad0c4b4c87
91805702,0.07738615,0.12785475,0.030823795,0.70593184,0.01231535,0.005356085,-0.7081525,0.7763479,0.0057239314,0.0061299475,-0.63024884,1,2203,224c2092-44e1-4b73-879c-d0ad0c4b4c87
91909662,0.052850205,-0.018545365,0.062566034,0.7062601,0.012395901,0.005214696,-0.70782477,0.7763479,0.0057239314,0.0061299475,-0.63024884,1,2203,224c2092-44e1-4b73-879c-d0ad0c4b4c87
92009722,0.20726351,0.04185184,0.1006507,0.7064792,0.012761844,0.005246996,-0.7075993,0.7763479,0.0057239314,0.0061299475,-0.63024884,1,2203,224c2092-44e1-4b73-879c-d0ad0c4b4c87
92109882,0.120653495,0.08743229,0.027654994,0.70655805,0.012915939,0.005699493,-0.7075143,0.7763479,0.0057239314,0.0061299475,-0.63024884,1,2203,224c2092-44e1-4b73-879c-d0ad0c4b4c87
92213725,-0.019285195,-0.07970245,0.019146165,0.7066049,0.012982237,0.0057301726,-0.70746607,0.7763479,0.0057239314,0.0061299475,-0.63024884,1,2203,224c2092-44e1-4b73-879c-d0ad0c4b4c87
92313718,0.056628603,-0.035370138,0.035242766,0.7065404,0.013029812,0.0060642897,-0.7075268,0.7763479,0.0057239314,0.0061299475,-0.63024884,1,2203,224c2092-44e1-4b73-879c-d0ad0c4b4c87
92415293,0.01860897,-0.04630025,0.09907907,0.7065443,0.012987336,0.0063806255,-0.70752096,0.7763479,0.0057239314,0.0061299475,-0.63024884,1,2203,224c2092-44e1-4b73-879c-d0ad0c4b4c87
