timestamp,timestamp_sample,control0,control1,control2,control3,control4,control5,control6,control7,basestation,flight_number
59527041,59526784,0.0,0.0,0.0,0.12,0.0,0.0,0.0,0.0,2203,224c2092-44e1-4b73-879c-d0ad0c4b4c87
59627034,59626790,0.0,0.0,0.0,0.12,0.0,0.0,0.0,0.0,2203,224c2092-44e1-4b73-879c-d0ad0c4b4c87
59731119,59730837,0.0,0.0,0.0,0.12,0.0,0.0,0.0,0.0,2203,224c2092-44e1-4b73-879c-d0ad0c4b4c87
59834950,59834784,0.0,0.0,0.0,0.12,0.0,0.0,0.0,0.0,2203,224c2092-44e1-4b73-879c-d0ad0c4b4c87
59934984,59934784,0.0,0.0,0.0,0.12,0.0,0.0,0.0,0.0,2203,224c2092-44e1-4b73-879c-d0ad0c4b4c87
60039013,60038794,0.0,0.0,0.0,0.12,0.0,0.0,0.0,0.0,2203,224c2092-44e1-4b73-879c-d0ad0c4b4c87
60140588,60140390,0.0,0.0,0.0,0.12,0.0,0.0,0.0,0.0,2203,224c2092-44e1-4b73-879c-d0ad0c4b4c87
60244648,60244384,0.0,0.0,0.0,0.12,0.0,0.0,0.0,0.0,2203,224c2092-44e1-4b73-879c-d0ad0c4b4c87
60344649,60344389,0.0,0.0,0.0,0.12,0.0,0.0,0.0,0.0,2203,224c2092-44e1-4b73-879c-d0ad0c4b4c87
60444863,60444431,0.0,0.0,0.0,0.12,0.0,0.0,0.0,0.0,2203,224c2092-44e1-4b73-879c-d0ad0c4b4c87
60548634,60548392,0.0,0.0,0.0,0.12,0.0,0.0,0.0,0.0,2203,224c2092-44e1-4b73-879c-d0ad0c4b4c87
60648580,60648386,0.0,0.0,0.0,0.12,0.0,0.0,0.0,0.0,2203,224c2092-44e1-4b73-879c-d0ad0c4b4c87
60752580,60752383,0.0,0.0,0.0,0.12,0.0,0.0,0.0,0.0,2203,224c2092-44e1-4b73-879c-d0ad0c4b4c87
60852623,60852387,0.0,0.0,0.0,0.12,0.0,0.0,0.0,0.0,2203,224c2092-44e1-4b73-879c-d0ad0c4b4c87
60952586,60952384,0.0,0.0,0.0,0.12,0.0,0.0,0.0,0.0,2203,224c2092-44e1-4b73-879c-d0ad0c4b4c87
61056601,61056407,0.0,0.0,0.0,0.12,0.0,0.0,0.0,0.0,2203,224c2092-44e1-4b73-879c-d0ad0c4b4c87
61158192,61157988,0.0,0.0,0.0,0.12,0.0,0.0,0.0,0.0,2203,224c2092-44e1-4b73-879c-d0ad0c4b4c87
61258217,61257990,0.0,0.0,0.0,0.12,0.0,0.0,0.0,0.0,2203,224c2092-44e1-4b73-879c-d0ad0c4b4c87
61358243,61357984,0.0,0.0,0.0,0.12,0.0,0.0,0.0,0.0,2203,224c2092-44e1-4b73-879c-d0ad0c4b4c87
61462212,61461993,0.0,0.0,0.0,0.12,0.0,0.0,0.0,0.0,2203,224c2092-44e1-4b73-879c-d0ad0c4b4c87
61562181,61561984,0.0,0.0,0.0,0.12,0.0,0.0,0.0,0.0,2203,224c2092-44e1-4b73-879c-d0ad0c4b4c87
61666154,61665984,0.0,0.0,0.0,0.12,0.0,0.0,0.0,0.0,2203,224c2092-44e1-4b73-879c-d0ad0c4b4c87
61766177,61765984,0.0,0.0,0.0,0.12,0.0,0.0,0.0,0.0,2203,224c2092-44e1-4b73-879c-d0ad0c4b4c87
61866208,61865984,0.0,0.0,0.0,0.12,0.0,0.0,0.0,0.0,2203,224c2092-44e1-4b73-879c-d0ad0c4b4c87
61970253,61969984,0.0,0.0,0.0,0.12,0.0,0.0,0.0,0.0,2203,224c2092-44e1-4b73-879c-d0ad0c4b4c87
62070269,62069983,0.0,0.0,0.0,0.12,0.0,0.0,0.0,0.0,2203,224c2092-44e1-4b73-879c-d0ad0c4b4c87
62171805,62171584,0.0,0.0,0.0,0.12,0.0,0.0,0.0,0.0,2203,224c2092-44e1-4b73-879c-d0ad0c4b4c87
62271824,62271584,0.0,0.0,0.0,0.12,0.0,0.0,0.0,0.0,2203,224c2092-44e1-4b73-879c-d0ad0c4b4c87
62375825,62375629,0.0,0.0,0.0,0.12,0.0,0.0,0.0,0.0,2203,224c2092-44e1-4b73-879c-d0ad0c4b4c87
62475798,62475583,0.0,0.0,0.0,0.12,0.0,0.0,0.0,0.0,2203,224c2092-44e1-4b73-879c-d0ad0c4b4c87
62579762,62579584,0.0,0.0,0.0,0.12,0.0,0.0,0.0,0.0,2203,224c2092-44e1-4b73-879c-d0ad0c4b4c87
62679787,62679584,0.0,0.0,0.0,0.12,0.0,0.0,0.0,0.0,2203,224c2092-44e1-4b73-879c-d0ad0c4b4c87
62779853,62779621,0.0,0.0,0.0,0.12,0.0,0.0,0.0,0.0,2203,224c2092-44e1-4b73-879c-d0ad0c4b4c87
62883804,62883584,0.0,0.0,0.0,0.12,0.0,0.0,0.0,0.0,2203,224c2092-44e1-4b73-879c-d0ad0c4b4c87
62983785,62983588,0.0,0.0,0.0,0.12,0.0,0.0,0.0,0.0,2203,224c2092-44e1-4b73-879c-d0ad0c4b4c87
63083782,63083584,0.0,0.0,0.0,0.12,0.0,0.0,0.0,0.0,2203,224c2092-44e1-4b73-879c-d0ad0c4b4c87
63188619,63188383,0.0,0.0,0.0,0.12,0.0,0.0,0.0,0.0,2203,224c2092-44e1-4b73-879c-d0ad0c4b4c87
63288625,63288390,0.0,0.0,0.0,0.12,0.0,0.0,0.0,0.0,2203,224c2092-44e1-4b73-879c-d0ad0c4b4c87
63388580,63388383,0.0,0.0,0.0,0.12,0.0,0.0,0.0,0.0,2203,224c2092-44e1-4b73-879c-d0ad0c4b4c87
63492602,63492383,0.0,0.0,0.0,0.12,0.0,0.0,0.0,0.0,2203,224c2092-44e1-4b73-879c-d0ad0c4b4c87
63592622,63592384,0.0,0.0,0.0,0.12,0.0,0.0,0.0,0.0,2203,224c2092-44e1-4b73-879c-d0ad0c4b4c87
63696594,63696385,0.0,0.0,0.0,0.12,0.0,0.0,0.0,0.0,2203,224c2092-44e1-4b73-879c-d0ad0c4b4c87
63800674,63800384,0.0,0.0,0.0,0.12,0.0,0.0,0.0,0.0,2203,224c2092-44e1-4b73-879c-d0ad0c4b4c87
63900585,63900391,0.0,0.0,0.0,0.12,0.0,0.0,0.0,0.0,2203,224c2092-44e1-4b73-879c-d0ad0c4b4c87
64000580,64000384,0.0,0.0,0.0,0.12,0.0,0.0,0.0,0.0,2203,224c2092-44e1-4b73-879c-d0ad0c4b4c87
64104677,64104388,0.0,0.0,0.0,0.12,0.0,0.0,0.0,0.0,2203,224c2092-44e1-4b73-879c-d0ad0c4b4c87
64204747,64204384,0.0,0.0,0.0,0.12,0.0,0.0,0.0,0.0,2203,224c2092-44e1-4b73-879c-d0ad0c4b4c87
64308634,64308384,0.0,0.0,0.0,0.12,0.0,0.0,0.0,0.0,2203,224c2092-44e1-4b73-879c-d0ad0c4b4c87
64408605,64408402,0.0,0.0,0.0,0.12,0.0,0.0,0.0,0.0,2203,224c2092-44e1-4b73-879c-d0ad0c4b4c87
64510161,64509984,0.0,0.0,0.0,0.12,0.0,0.0,0.0,0.0,2203,224c2092-44e1-4b73-879c-d0ad0c4b4c87
64610171,64609998,0.0,0.0,0.0,0.12,0.0,0.0,0.0,0.0,2203,224c2092-44e1-4b73-879c-d0ad0c4b4c87
64714194,64713996,0.0,0.0,0.0,0.12,0.0,0.0,0.0,0.0,2203,224c2092-44e1-4b73-879c-d0ad0c4b4c87
64814175,64813983,0.0,0.0,0.0,0.12,0.0,0.0,0.0,0.0,2203,224c2092-44e1-4b73-879c-d0ad0c4b4c87
64918230,64917984,0.0,0.0,0.0,0.12,0.0,0.0,0.0,0.0,2203,224c2092-44e1-4b73-879c-d0ad0c4b4c87
65018219,65017983,0.0,0.0,0.0,0.12,0.0,0.0,0.0,0.0,2203,224c2092-44e1-4b73-879c-d0ad0c4b4c87
65118205,65117983,0.0,0.0,0.0,0.12,0.0,0.0,0.0,0.0,2203,224c2092-44e1-4b73-879c-d0ad0c4b4c87
65222243,65221997,0.0,0.0,0.0,0.12,0.0,0.0,0.0,0.0,2203,224c2092-44e1-4b73-879c-d0ad0c4b4c87
65322201,65321984,0.0,0.0,0.0,0.12,0.0,0.0,0.0,0.0,2203,224c2092-44e1-4b73-879c-d0ad0c4b4c87
65422207,65421984,0.0,0.0,0.0,0.12,0.0,0.0,0.0,0.0,2203,224c2092-44e1-4b73-879c-d0ad0c4b4c87
65523782,65523591,0.0,0.0,0.0,0.12,0.0,0.0,0.0,0.0,2203,224c2092-44e1-4b73-879c-d0ad0c4b4c87
65627794,65627590,0.0,0.0,0.0,0.12,0.0,0.0,0.0,0.0,2203,224c2092-44e1-4b73-879c-d0ad0c4b4c87
65727781,65727583,0.00886464,-0.013125204,-0.0018041548,0.50685704,0.0,0.0,0.0,-1.0,2203,224c2092-44e1-4b73-879c-d0ad0c4b4c87
65827809,65827602,0.020999612,-0.008904388,0.0024180496,0.57309955,0.0,0.0,0.0,-1.0,2203,224c2092-44e1-4b73-879c-d0ad0c4b4c87
65931783,65931584,0.030656252,0.01619858,-0.0032188746,0.6510105,0.0,0.0,0.0,-1.0,2203,224c2092-44e1-4b73-879c-d0ad0c4b4c87
66031792,66031596,0.009257796,0.008083375,0.012585246,0.69699514,0.0,0.0,0.0,-1.0,2203,224c2092-44e1-4b73-879c-d0ad0c4b4c87
66135879,66135584,0.0012615528,0.009598758,0.014672529,0.721814,0.0,0.0,0.0,-1.0,2203,224c2092-44e1-4b73-879c-d0ad0c4b4c87
66235790,66235584,0.020353973,0.0055415137,0.015488083,0.7448321,0.0,0.0,0.0,-1.0,2203,224c2092-44e1-4b73-879c-d0ad0c4b4c87
66335803,66335583,0.006345289,0.013239692,0.024315288,0.7084612,0.0,0.0,0.0,-1.0,2203,224c2092-44e1-4b73-879c-d0ad0c4b4c87
66439808,66439584,0.0025604456,-0.0035606357,0.02280135,0.6808596,0.0,0.0,0.0,-1.0,2203,224c2092-44e1-4b73-879c-d0ad0c4b4c87
66541405,66541208,0.011096887,0.015053432,0.028719688,0.6651293,0.0,0.0,0.0,-1.0,2203,224c2092-44e1-4b73-879c-d0ad0c4b4c87
66645395,66645198,0.019741809,0.005179179,0.026538873,0.6596889,0.0,0.0,0.0,-1.0,2203,224c2092-44e1-4b73-879c-d0ad0c4b4c87
66745396,66745189,-0.02932312,-0.0091389585,0.020196628,0.64906025,0.0,0.0,0.0,-1.0,2203,224c2092-44e1-4b73-879c-d0ad0c4b4c87
66849437,66849188,0.0023908468,-0.00907418,0.022665774,0.64297765,0.0,0.0,0.0,-1.0,2203,224c2092-44e1-4b73-879c-d0ad0c4b4c87
66949447,66949187,0.019316798,-0.012929135,0.019561151,0.64335227,0.0,0.0,0.0,-1.0,2203,224c2092-44e1-4b73-879c-d0ad0c4b4c87
67049566,67049191,-0.014142017,0.01723878,0.029904965,0.6413824,0.0,0.0,0.0,-1.0,2203,224c2092-44e1-4b73-879c-d0ad0c4b4c87
67153438,67153206,-0.014957759,0.007213776,0.015696235,0.6374422,0.0,0.0,0.0,-1.0,2203,224c2092-44e1-4b73-879c-d0ad0c4b4c87
67253423,67253188,-0.0062628766,0.009004412,0.017095663,0.63351387,0.0,0.0,0.0,-1.0,2203,224c2092-44e1-4b73-879c-d0ad0c4b4c87
67357397,67357183,0.0012352875,0.0068926737,0.025931122,0.63131595,0.0,0.0,0.0,-1.0,2203,224c2092-44e1-4b73-879c-d0ad0c4b4c87
67462238,67461983,0.010698281,0.008461556,0.03167903,0.6316917,0.0,0.0,0.0,-1.0,2203,224c2092-44e1-4b73-879c-d0ad0c4b4c87
67563025,67562784,0.011164287,0.008032096,0.027111758,0.6308947,0.0,0.0,0.0,-1.0,2203,224c2092-44e1-4b73-879c-d0ad0c4b4c87
67663213,67662784,0.009189125,0.0024809702,0.029453686,0.63131654,0.0,0.0,0.0,-1.0,2203,224c2092-44e1-4b73-879c-d0ad0c4b4c87
67766999,67766799,-0.0013684855,0.0077296025,0.024989482,0.6305171,0.0,0.0,0.0,-1.0,2203,224c2092-44e1-4b73-879c-d0ad0c4b4c87
67870997,67870783,0.015984857,0.0020062674,0.025468096,0.630685,0.0,0.0,0.0,-1.0,2203,224c2092-44e1-4b73-879c-d0ad0c4b4c87
67971065,67970784,0.009358393,0.01247641,0.03489118,0.631454,0.0,0.0,0.0,-1.0,2203,224c2092-44e1-4b73-879c-d0ad0c4b4c87
68075073,68074800,0.012793091,-0.0052762157,0.030656174,0.6307289,0.0,0.0,0.0,-1.0,2203,224c2092-44e1-4b73-879c-d0ad0c4b4c87
68175061,68174816,0.013577396,0.00535792,0.027585894,0.6312795,0.0,0.0,0.0,-1.0,2203,224c2092-44e1-4b73-879c-d0ad0c4b4c87
68275034,68274783,0.0045730295,0.0089034075,0.027932346,0.63109815,0.0,0.0,0.0,-1.0,2203,224c2092-44e1-4b73-879c-d0ad0c4b4c87
68378988,68378784,0.0019477275,0.0055240155,0.02910195,0.63062644,0.0,0.0,0.0,-1.0,2203,224c2092-44e1-4b73-879c-d0ad0c4b4c87
68480592,68480384,0.008093645,0.0070565646,0.036794744,0.6315814,0.0,0.0,0.0,-1.0,2203,224c2092-44e1-4b73-879c-d0ad0c4b4c87
68584675,68584383,0.014826333,-0.004410336,0.03927488,0.6314624,0.0,0.0,0.0,-1.0,2203,224c2092-44e1-4b73-879c-d0ad0c4b4c87
68684651,68684390,0.010410057,0.0050997185,0.029458873,0.6318637,0.0,0.0,0.0,-1.0,2203,224c2092-44e1-4b73-879c-d0ad0c4b4c87
68788626,68788384,0.010238066,0.00393203,0.024129445,0.63156664,0.0,0.0,0.0,-1.0,2203,224c2092-44e1-4b73-879c-d0ad0c4b4c87
68888601,68888383,0.015966343,-0.003474678,0.0322862,0.6322547,0.0,0.0,0.0,-1.0,2203,224c2092-44e1-4b73-879c-d0ad0c4b4c87
68988818,68988384,0.017754782,-0.0066030836,0.023503885,0.63149095,0.0,0.0,0.0,-1.0,2203,224c2092-44e1-4b73-879c-d0ad0c4b4c87
69092646,69092398,0.010622745,0.0057584057,0.023452137,0.63079184,0.0,0.0,0.0,-1.0,2203,224c2092-44e1-4b73-879c-d0ad0c4b4c87
69192616,69192404,0.008230668,0.002126818,0.03100371,0.6307064,0.0,0.0,0.0,-1.0,2203,224c2092-44e1-4b73-879c-d0ad0c4b4c87
69296608,69296384,0.0027536277,0.009703622,0.035207942,0.631909,0.0,0.0,0.0,-1.0,2203,224c2092-44e1-4b73-879c-d0ad0c4b4c87
69400600,69400383,0.018425817,0.011307174,0.036325306,0.6337512,0.0,0.0,0.0,-1.0,2203,224c2092-44e1-4b73-879c-d0ad0c4b4c87
69502239,69502027,0.017393753,0.017949907,0.027984284,0.63396746,0.0,0.0,0.0,-1.0,2203,224c2092-44e1-4b73-879c-d0ad0c4b4c87
69602231,69601984,0.004050471,0.010462416,0.03645824,0.6336869,0.0,0.0,0.0,-1.0,2203,224c2092-44e1-4b73-879c-d0ad0c4b4c87
69702201,69701984,0.005790376,0.008730445,0.025516983,0.6332336,0.0,0.0,0.0,-1.0,2203,224c2092-44e1-4b73-879c-d0ad0c4b4c87
69806201,69805990,0.025904723,0.016428031,0.024568435,0.6350736,0.0,0.0,0.0,-1.0,2203,224c2092-44e1-4b73-879c-d0ad0c4b4c87
69906469,69906030,0.022978043,0.008126899,0.034312017,0.63421196,0.0,0.0,0.0,-1.0,2203,224c2092-44e1-4b73-879c-d0ad0c4b4c87
70010234,70009983,0.01998423,0.0101706,0.035535775,0.6333855,0.0,0.0,0.0,-1.0,2203,224c2092-44e1-4b73-879c-d0ad0c4b4c87
70114261,70113984,0.014799168,-0.0018649669,0.038670342,0.6331546,0.0,0.0,0.0,-1.0,2203,224c2092-44e1-4b73-879c-d0ad0c4b4c87
70214218,70213983,0.017440766,0.011403559,0.02679623,0.63458174,0.0,0.0,0.0,-1.0,2203,224c2092-44e1-4b73-879c-d0ad0c4b4c87
70318167,70317983,0.020382166,0.0074015334,0.024946386,0.6370912,0.0,0.0,0.0,-1.0,2203,224c2092-44e1-4b73-879c-d0ad0c4b4c87
70418181,70417984,0.017455718,0.013296022,0.035737656,0.638263,0.0,0.0,0.0,-1.0,2203,224c2092-44e1-4b73-879c-d0ad0c4b4c87
70519780,70519583,0.020408183,0.017450694,0.022278234,0.63894457,0.0,0.0,0.0,-1.0,2203,224c2092-44e1-4b73-879c-d0ad0c4b4c87
70619792,70619596,0.024794936,0.007067703,0.036136314,0.638327,0.0,0.0,0.0,-1.0,2203,224c2092-44e1-4b73-879c-d0ad0c4b4c87
70723758,70723584,0.01173421,0.008057741,0.032331936,0.6384814,0.0,0.0,0.0,-1.0,2203,224c2092-44e1-4b73-879c-d0ad0c4b4c87
70827801,70827603,0.017255535,0.006336025,0.030998185,0.63818574,0.0,0.0,0.0,-1.0,2203,224c2092-44e1-4b73-879c-d0ad0c4b4c87
70927855,70927584,0.016597033,0.0086135585,0.031678587,0.63852286,0.0,0.0,0.0,-1.0,2203,224c2092-44e1-4b73-879c-d0ad0c4b4c87
71031820,71031584,0.021186665,-0.0020672884,0.033927497,0.6377472,0.0,0.0,0.0,-1.0,2203,224c2092-44e1-4b73-879c-d0ad0c4b4c87
71131799,71131593,0.021062108,-0.0020389734,0.039321788,0.63915676,0.0,0.0,0.0,-1.0,2203,224c2092-44e1-4b73-879c-d0ad0c4b4c87
71231778,71231594,0.012286936,0.0027528272,0.034713004,0.6387661,0.0,0.0,0.0,-1.0,2203,224c2092-44e1-4b73-879c-d0ad0c4b4c87
71335781,71335583,0.023505932,-0.0022574957,0.03393882,0.63901734,0.0,0.0,0.0,-1.0,2203,224c2092-44e1-4b73-879c-d0ad0c4b4c87
71435789,71435584,0.020941358,-0.0011263788,0.036567256,0.6405966,0.0,0.0,0.0,-1.0,2203,224c2092-44e1-4b73-879c-d0ad0c4b4c87
71537386,71537192,0.015679922,0.0029334398,0.033479188,0.640586,0.0,0.0,0.0,-1.0,2203,224c2092-44e1-4b73-879c-d0ad0c4b4c87
71641393,71641191,0.015763167,-0.0023990048,0.036187947,0.6416136,0.0,0.0,0.0,-1.0,2203,224c2092-44e1-4b73-879c-d0ad0c4b4c87
71741423,71741193,0.011940192,0.0011554421,0.022814065,0.6421934,0.0,0.0,0.0,-1.0,2203,224c2092-44e1-4b73-879c-d0ad0c4b4c87
71841479,71841192,0.00854804,0.0009974285,0.03405728,0.64284337,0.0,0.0,0.0,-1.0,2203,224c2092-44e1-4b73-879c-d0ad0c4b4c87
71945452,71945212,0.020232573,0.011402498,0.031006586,0.64547557,0.0,0.0,0.0,-1.0,2203,224c2092-44e1-4b73-879c-d0ad0c4b4c87
72045516,72045186,0.01922686,0.012699849,0.026388166,0.6450084,0.0,0.0,0.0,-1.0,2203,224c2092-44e1-4b73-879c-d0ad0c4b4c87
72145403,72145190,0.008157396,0.009969607,0.023031812,0.6452798,0.0,0.0,0.0,-1.0,2203,224c2092-44e1-4b73-879c-d0ad0c4b4c87
72249356,72249184,0.012221335,0.0053717,0.025251864,0.6455078,0.0,0.0,0.0,-1.0,2203,224c2092-44e1-4b73-879c-d0ad0c4b4c87
72349384,72349188,0.008162277,0.009808054,0.03424121,0.6454261,0.0,0.0,0.0,-1.0,2203,224c2092-44e1-4b73-879c-d0ad0c4b4c87
72453398,72453192,0.018678792,-0.004716482,0.029922407,0.64497495,0.0,0.0,0.0,-1.0,2203,224c2092-44e1-4b73-879c-d0ad0c4b4c87
72555017,72554799,0.013265273,7.598434e-05,0.03638443,0.64344764,0.0,0.0,0.0,-1.0,2203,224c2092-44e1-4b73-879c-d0ad0c4b4c87
72655055,72654783,0.021514447,0.006528429,0.02980815,0.64336497,0.0,0.0,0.0,-1.0,2203,224c2092-44e1-4b73-879c-d0ad0c4b4c87
72755029,72754783,0.024016527,0.005177782,0.03716179,0.64449227,0.0,0.0,0.0,-1.0,2203,224c2092-44e1-4b73-879c-d0ad0c4b4c87
72859026,72858790,0.005502063,-0.0011948277,0.030598722,0.64343387,0.0,0.0,0.0,-1.0,2203,224c2092-44e1-4b73-879c-d0ad0c4b4c87
72959019,72958784,0.017381193,0.003083923,0.030769851,0.643896,0.0,0.0,0.0,-1.0,2203,224c2092-44e1-4b73-879c-d0ad0c4b4c87
73058968,73058791,0.02176297,-0.003163345,0.028284192,0.6457362,0.0,0.0,0.0,-1.0,2203,224c2092-44e1-4b73-879c-d0ad0c4b4c87
73163001,73162799,0.0076492755,0.018962169,0.027990773,0.64553815,0.0,0.0,0.0,-1.0,2203,224c2092-44e1-4b73-879c-d0ad0c4b4c87
73263061,73262783,0.018643023,0.013776533,0.03672311,0.6432406,0.0,0.0,0.0,-1.0,2203,224c2092-44e1-4b73-879c-d0ad0c4b4c87
73367040,73366794,0.012905007,0.0082498975,0.041518938,0.6419865,0.0,0.0,0.0,-1.0,2203,224c2092-44e1-4b73-879c-d0ad0c4b4c87
73471830,73471583,0.020325543,0.0063901884,0.03203812,0.63945615,0.0,0.0,0.0,-1.0,2203,224c2092-44e1-4b73-879c-d0ad0c4b4c87
73572018,73571583,0.017153868,0.0018572003,0.022152016,0.63795847,0.0,0.0,0.0,-1.0,2203,224c2092-44e1-4b73-879c-d0ad0c4b4c87
73671784,73671584,0.014636615,0.006542609,0.03387548,0.6391877,0.0,0.0,0.0,-1.0,2203,224c2092-44e1-4b73-879c-d0ad0c4b4c87
73775855,73775623,0.015033175,0.0009359275,0.03587138,0.6399327,0.0,0.0,0.0,-1.0,2203,224c2092-44e1-4b73-879c-d0ad0c4b4c87
73879794,73879583,0.006589603,0.01503507,0.03588429,0.64277583,0.0,0.0,0.0,-1.0,2203,224c2092-44e1-4b73-879c-d0ad0c4b4c87
73979796,73979584,0.0057032704,0.021437163,0.027831884,0.6418729,0.0,0.0,0.0,-1.0,2203,224c2092-44e1-4b73-879c-d0ad0c4b4c87
74083808,74083584,0.019200535,0.012089237,0.030098597,0.6426794,0.0,0.0,0.0,-1.0,2203,224c2092-44e1-4b73-879c-d0ad0c4b4c87
74183801,74183586,0.009778659,0.013004593,0.031619444,0.6434107,0.0,0.0,0.0,-1.0,2203,224c2092-44e1-4b73-879c-d0ad0c4b4c87
74283865,74283584,0.01654752,0.017856015,0.03395051,0.64326125,0.0,0.0,0.0,-1.0,2203,224c2092-44e1-4b73-879c-d0ad0c4b4c87
74387841,74387638,0.023129623,0.0043627834,0.03255497,0.64125717,0.0,0.0,0.0,-1.0,2203,224c2092-44e1-4b73-879c-d0ad0c4b4c87
74487823,74487583,0.006451372,0.00967874,0.028547648,0.64107746,0.0,0.0,0.0,-1.0,2203,224c2092-44e1-4b73-879c-d0ad0c4b4c87
74591794,74591584,0.018701263,0.007797953,0.034929805,0.6417554,0.0,0.0,0.0,-1.0,2203,224c2092-44e1-4b73-879c-d0ad0c4b4c87
74695809,74695593,0.013405742,0.02564558,0.034233008,0.64459026,0.0,0.0,0.0,-1.0,2203,224c2092-44e1-4b73-879c-d0ad0c4b4c87
74795819,74795584,0.013305468,0.021013737,0.022358656,0.6044149,0.0,0.0,0.0,-1.0,2203,224c2092-44e1-4b73-879c-d0ad0c4b4c87
74897411,74897183,0.03253063,0.018549599,0.024184711,0.57741815,0.0,0.0,0.0,-1.0,2203,224c2092-44e1-4b73-879c-d0ad0c4b4c87
75001389,75001187,0.026221044,0.0007546074,0.025877878,0.56082654,0.0,0.0,0.0,-1.0,2203,224c2092-44e1-4b73-879c-d0ad0c4b4c87
75105363,75105193,0.005504576,0.013729725,0.020131934,0.5546574,0.0,0.0,0.0,-1.0,2203,224c2092-44e1-4b73-879c-d0ad0c4b4c87
75205435,75205186,-0.0076611824,0.007768861,0.027157906,0.5519344,0.0,0.0,0.0,1.0,2203,224c2092-44e1-4b73-879c-d0ad0c4b4c87
75309486,75309196,0.058478497,0.013131864,0.03473993,0.5543877,0.0,0.0,0.0,1.0,2203,224c2092-44e1-4b73-879c-d0ad0c4b4c87
75409488,75409183,0.022905324,0.021220002,0.021611223,0.5576623,0.0,0.0,0.0,1.0,2203,224c2092-44e1-4b73-879c-d0ad0c4b4c87
75509431,75509183,-0.0012529008,0.020388309,0.033307973,0.56162083,0.0,0.0,0.0,1.0,2203,224c2092-44e1-4b73-879c-d0ad0c4b4c87
75613484,75613214,0.028860433,0.011142052,0.032006316,0.57035476,0.0,0.0,0.0,1.0,2203,224c2092-44e1-4b73-879c-d0ad0c4b4c87
75713432,75713222,0.0112397,0.0246374,0.022753462,0.5788047,0.0,0.0,0.0,1.0,2203,224c2092-44e1-4b73-879c-d0ad0c4b4c87
75815033,75814830,0.029401086,0.016217943,0.032566603,0.585199,0.0,0.0,0.0,1.0,2203,224c2092-44e1-4b73-879c-d0ad0c4b4c87
75915045,75914799,0.026715513,0.020588938,0.032759912,0.5912017,0.0,0.0,0.0,1.0,2203,224c2092-44e1-4b73-879c-d0ad0c4b4c87
76018971,76018790,0.011921374,0.018629942,0.02860722,0.5947862,0.0,0.0,0.0,1.0,2203,224c2092-44e1-4b73-879c-d0ad0c4b4c87
76119021,76118784,0.013099688,0.015669053,0.031687465,0.5983731,0.0,0.0,0.0,1.0,2203,224c2092-44e1-4b73-879c-d0ad0c4b4c87
76223054,76222791,0.006708812,0.010364006,0.019291788,0.6012572,0.0,0.0,0.0,1.0,2203,224c2092-44e1-4b73-879c-d0ad0c4b4c87
76322992,76322787,0.013699783,0.023160707,0.029300258,0.6857675,0.0,0.0,0.0,1.0,2203,224c2092-44e1-4b73-879c-d0ad0c4b4c87
76422987,76422784,-0.03768,-0.011398076,0.022960914,0.81478035,0.0,0.0,0.0,1.0,2203,224c2092-44e1-4b73-879c-d0ad0c4b4c87
76527001,76526789,0.010333475,0.016914517,0.02665891,0.86058027,0.0,0.0,0.0,1.0,2203,224c2092-44e1-4b73-879c-d0ad0c4b4c87
76627020,76626784,0.023683716,0.007447928,0.031342275,0.76455665,0.0,0.0,0.0,1.0,2203,224c2092-44e1-4b73-879c-d0ad0c4b4c87
76727063,76726792,0.026302889,0.0009558677,0.028920671,0.7160262,0.0,0.0,0.0,1.0,2203,224c2092-44e1-4b73-879c-d0ad0c4b4c87
76828619,76828384,0.023993216,0.012599568,0.02837675,0.6886133,0.0,0.0,0.0,1.0,2203,224c2092-44e1-4b73-879c-d0ad0c4b4c87
76932560,76932384,0.023526782,0.008646825,0.028105658,0.6690996,0.0,0.0,0.0,1.0,2203,224c2092-44e1-4b73-879c-d0ad0c4b4c87
77032672,77032430,0.026829064,0.016788173,0.0346389,0.6608891,0.0,0.0,0.0,1.0,2203,224c2092-44e1-4b73-879c-d0ad0c4b4c87
77136639,77136391,0.03276018,0.016343616,0.034292836,0.6540568,0.0,0.0,0.0,1.0,2203,224c2092-44e1-4b73-879c-d0ad0c4b4c87
77236589,77236384,0.03413266,0.012041802,0.035064764,0.6507231,0.0,0.0,0.0,1.0,2203,224c2092-44e1-4b73-879c-d0ad0c4b4c87
77336679,77336383,0.02724659,0.021654919,0.038772244,0.6479626,0.0,0.0,0.0,1.0,2203,224c2092-44e1-4b73-879c-d0ad0c4b4c87
77440654,77440384,0.029936772,0.03208984,0.03365828,0.64616346,0.0,0.0,0.0,1.0,2203,224c2092-44e1-4b73-879c-d0ad0c4b4c87
77540588,77540384,0.027898358,0.03248561,0.034196455,0.64589214,0.0,0.0,0.0,1.0,2203,224c2092-44e1-4b73-879c-d0ad0c4b4c87
77640643,77640384,0.024198664,0.030596415,0.037270285,0.6455817,0.0,0.0,0.0,1.0,2203,224c2092-44e1-4b73-879c-d0ad0c4b4c87
77744724,77744387,0.026552452,0.01660923,0.038929164,0.6452511,0.0,0.0,0.0,1.0,2203,224c2092-44e1-4b73-879c-d0ad0c4b4c87
77845549,77845193,0.031383477,0.0148205105,0.035409104,0.6440996,0.0,0.0,0.0,1.0,2203,224c2092-44e1-4b73-879c-d0ad0c4b4c87
77945419,77945213,0.026360765,0.0143362405,0.033677,0.64317846,0.0,0.0,0.0,1.0,2203,224c2092-44e1-4b73-879c-d0ad0c4b4c87
78049421,78049225,0.031835765,0.022976862,0.04329342,0.6452853,0.0,0.0,0.0,1.0,2203,224c2092-44e1-4b73-879c-d0ad0c4b4c87
78149483,78149227,0.030917725,0.023026433,0.04374008,0.6458926,0.0,0.0,0.0,1.0,2203,224c2092-44e1-4b73-879c-d0ad0c4b4c87
78249479,78249195,0.02446515,0.019472858,0.042869546,0.64629596,0.0,0.0,0.0,1.0,2203,224c2092-44e1-4b73-879c-d0ad0c4b4c87
78353441,78353183,0.03567897,0.017834347,0.04086663,0.6464736,0.0,0.0,0.0,1.0,2203,224c2092-44e1-4b73-879c-d0ad0c4b4c87
78453412,78453218,0.03497909,0.01787807,0.045887046,0.64702064,0.0,0.0,0.0,1.0,2203,224c2092-44e1-4b73-879c-d0ad0c4b4c87
78557457,78557227,0.026117394,0.007844019,0.034403823,0.6460652,0.0,0.0,0.0,1.0,2203,224c2092-44e1-4b73-879c-d0ad0c4b4c87
78661435,78661216,0.027018722,0.008521042,0.02860416,0.6461479,0.0,0.0,0.0,1.0,2203,224c2092-44e1-4b73-879c-d0ad0c4b4c87
78761420,78761183,0.023574322,0.000980394,0.035805542,0.64732236,0.0,0.0,0.0,1.0,2203,224c2092-44e1-4b73-879c-d0ad0c4b4c87
78865408,78865191,0.020263227,0.01795386,0.036722228,0.6491902,0.0,0.0,0.0,1.0,2203,224c2092-44e1-4b73-879c-d0ad0c4b4c87
78965388,78965183,0.023926243,0.017014477,0.024580631,0.6494207,0.0,0.0,0.0,1.0,2203,224c2092-44e1-4b73-879c-d0ad0c4b4c87
79065401,79065187,0.035347886,0.0148631185,0.038891163,0.6492337,0.0,0.0,0.0,1.0,2203,224c2092-44e1-4b73-879c-d0ad0c4b4c87
79166984,79166783,0.033225827,0.01599819,0.024234489,0.6485965,0.0,0.0,0.0,1.0,2203,224c2092-44e1-4b73-879c-d0ad0c4b4c87
79271068,79270784,0.028440777,0.022795357,0.026184447,0.6489183,0.0,0.0,0.0,1.0,2203,224c2092-44e1-4b73-879c-d0ad0c4b4c87
79374969,79374784,0.030820524,0.0041240347,0.024423134,0.6462584,0.0,0.0,0.0,1.0,2203,224c2092-44e1-4b73-879c-d0ad0c4b4c87
79475028,79474813,0.0413771,0.011755431,0.029558277,0.64659715,0.0,0.0,0.0,1.0,2203,224c2092-44e1-4b73-879c-d0ad0c4b4c87
79578984,79578788,0.033054866,0.009805851,0.016060926,0.64449304,0.0,0.0,0.0,1.0,2203,224c2092-44e1-4b73-879c-d0ad0c4b4c87
79678987,79678784,0.045615837,0.017322062,0.033896945,0.64547557,0.0,0.0,0.0,1.0,2203,224c2092-44e1-4b73-879c-d0ad0c4b4c87
79779008,79778810,0.035835337,0.022689668,0.040922567,0.64631677,0.0,0.0,0.0,1.0,2203,224c2092-44e1-4b73-879c-d0ad0c4b4c87
79882977,79882783,0.031557765,0.010826926,0.0411152,0.64585614,0.0,0.0,0.0,1.0,2203,224c2092-44e1-4b73-879c-d0ad0c4b4c87
79983001,79982784,0.026602495,0.017623255,0.043864764,0.6476581,0.0,0.0,0.0,1.0,2203,224c2092-44e1-4b73-879c-d0ad0c4b4c87
80087052,80086791,0.03905579,0.02108359,0.044827096,0.6460861,0.0,0.0,0.0,1.0,2203,224c2092-44e1-4b73-879c-d0ad0c4b4c87
80188629,80188427,0.033549063,0.0141228065,0.04238245,0.64468783,0.0,0.0,0.0,1.0,2203,224c2092-44e1-4b73-879c-d0ad0c4b4c87
80292571,80292384,0.03520134,0.027001211,0.041949477,0.64730054,0.0,0.0,0.0,1.0,2203,224c2092-44e1-4b73-879c-d0ad0c4b4c87
80392597,80392384,0.034577515,0.032921396,0.040530812,0.64696217,0.0,0.0,0.0,1.0,2203,224c2092-44e1-4b73-879c-d0ad0c4b4c87
80496674,80496384,0.02745615,0.01726143,0.040337563,0.6451103,0.0,0.0,0.0,1.0,2203,224c2092-44e1-4b73-879c-d0ad0c4b4c87
80600636,80600384,0.04839892,0.018719431,0.04279448,0.6461066,0.0,0.0,0.0,1.0,2203,224c2092-44e1-4b73-879c-d0ad0c4b4c87
80700588,80700384,0.04443227,0.02124487,0.04312229,0.6463687,0.0,0.0,0.0,1.0,2203,224c2092-44e1-4b73-879c-d0ad0c4b4c87
80800622,80800384,0.044747382,0.025038257,0.04044687,0.64731294,0.0,0.0,0.0,1.0,2203,224c2092-44e1-4b73-879c-d0ad0c4b4c87
80904562,80904383,0.029484242,0.025799511,0.03568092,0.64909256,0.0,0.0,0.0,1.0,2203,224c2092-44e1-4b73-879c-d0ad0c4b4c87
81004671,81004384,0.032333255,0.026972882,0.037318517,0.64852554,0.0,0.0,0.0,1.0,2203,224c2092-44e1-4b73-879c-d0ad0c4b4c87
81108660,81108394,0.03823556,0.016854482,0.03801867,0.6456852,0.0,0.0,0.0,1.0,2203,224c2092-44e1-4b73-879c-d0ad0c4b4c87
81210289,81210028,0.034257974,0.016040927,0.034962226,0.6448674,0.0,0.0,0.0,1.0,2203,224c2092-44e1-4b73-879c-d0ad0c4b4c87
81314162,81313983,0.040413905,0.022177082,0.029560762,0.646013,0.0,0.0,0.0,1.0,2203,224c2092-44e1-4b73-879c-d0ad0c4b4c87
81414215,81413990,0.043904122,0.016577348,0.0279175,0.646582,0.0,0.0,0.0,1.0,2203,224c2092-44e1-4b73-879c-d0ad0c4b4c87
81518216,81517984,0.034399386,0.021621712,0.029688563,0.6511504,0.0,0.0,0.0,1.0,2203,224c2092-44e1-4b73-879c-d0ad0c4b4c87
81618181,81617984,0.034583516,0.029898321,0.027795888,0.65204555,0.0,0.0,0.0,1.0,2203,224c2092-44e1-4b73-879c-d0ad0c4b4c87
81718191,81717984,0.035022534,0.031221952,0.028248034,0.6514086,0.0,0.0,0.0,1.0,2203,224c2092-44e1-4b73-879c-d0ad0c4b4c87
81822200,81821984,0.029188307,0.020479217,0.037922747,0.65182185,0.0,0.0,0.0,1.0,2203,224c2092-44e1-4b73-879c-d0ad0c4b4c87
81922227,81921984,0.022963531,0.028501255,0.029905196,0.6514216,0.0,0.0,0.0,1.0,2203,224c2092-44e1-4b73-879c-d0ad0c4b4c87
82022259,82021984,0.028006453,0.03608769,0.023670096,0.6509051,0.0,0.0,0.0,1.0,2203,224c2092-44e1-4b73-879c-d0ad0c4b4c87
82127010,82126804,0.02388575,0.024276223,0.041192647,0.6504016,0.0,0.0,0.0,1.0,2203,224c2092-44e1-4b73-879c-d0ad0c4b4c87
82227069,82226791,0.02692268,0.027824597,0.03741653,0.6521431,0.0,0.0,0.0,1.0,2203,224c2092-44e1-4b73-879c-d0ad0c4b4c87
82326998,82326801,0.022527304,0.03207306,0.036745593,0.65129423,0.0,0.0,0.0,1.0,2203,224c2092-44e1-4b73-879c-d0ad0c4b4c87
82431016,82430790,0.03625306,0.03136711,0.045794338,0.64777064,0.0,0.0,0.0,1.0,2203,224c2092-44e1-4b73-879c-d0ad0c4b4c87
82531008,82530784,0.03694507,0.030764576,0.046984505,0.6478033,0.0,0.0,0.0,1.0,2203,224c2092-44e1-4b73-879c-d0ad0c4b4c87
82635008,82634804,0.020336622,0.040580988,0.03911187,0.64831537,0.0,0.0,0.0,1.0,2203,224c2092-44e1-4b73-879c-d0ad0c4b4c87
82738999,82738792,0.04357145,0.020348025,0.046640392,0.6468308,0.0,0.0,0.0,1.0,2203,224c2092-44e1-4b73-879c-d0ad0c4b4c87
82842954,82842784,0.01345993,0.03350128,0.03862369,0.6498088,0.0,0.0,0.0,1.0,2203,224c2092-44e1-4b73-879c-d0ad0c4b4c87
82943043,82942792,0.018800743,0.029456787,0.036412116,0.64960164,0.0,0.0,0.0,1.0,2203,224c2092-44e1-4b73-879c-d0ad0c4b4c87
83047065,83046784,0.031075677,0.02060766,0.048912387,0.6486169,0.0,0.0,0.0,1.0,2203,224c2092-44e1-4b73-879c-d0ad0c4b4c87
83147036,83146790,0.028297568,0.027175806,0.0467309,0.6492737,0.0,0.0,0.0,1.0,2203,224c2092-44e1-4b73-879c-d0ad0c4b4c87
83251056,83250794,0.03201844,0.033357836,0.038084403,0.6500559,0.0,0.0,0.0,1.0,2203,224c2092-44e1-4b73-879c-d0ad0c4b4c87
83355181,83354784,0.027202962,0.02774403,0.04581514,0.6481786,0.0,0.0,0.0,1.0,2203,224c2092-44e1-4b73-879c-d0ad0c4b4c87
83456663,83456383,0.025785107,0.029427256,0.03714311,0.64816505,0.0,0.0,0.0,1.0,2203,224c2092-44e1-4b73-879c-d0ad0c4b4c87
83556594,83556384,0.031940073,0.033601224,0.037457746,0.64674366,0.0,0.0,0.0,1.0,2203,224c2092-44e1-4b73-879c-d0ad0c4b4c87
83656592,83656384,0.022885384,0.029566217,0.03387762,0.6466287,0.0,0.0,0.0,1.0,2203,224c2092-44e1-4b73-879c-d0ad0c4b4c87
83760656,83760429,0.026493125,0.02499593,0.037215106,0.645834,0.0,0.0,0.0,1.0,2203,224c2092-44e1-4b73-879c-d0ad0c4b4c87
83860638,83860383,0.020141065,0.027411932,0.03872004,0.6468341,0.0,0.0,0.0,1.0,2203,224c2092-44e1-4b73-879c-d0ad0c4b4c87
83964683,83964384,0.032560084,0.03227813,0.0382905,0.65008324,0.0,0.0,0.0,1.0,2203,224c2092-44e1-4b73-879c-d0ad0c4b4c87
84064681,84064410,0.03231769,0.0334211,0.044416916,0.65194964,0.0,0.0,0.0,1.0,2203,224c2092-44e1-4b73-879c-d0ad0c4b4c87
84164678,84164384,0.038846027,0.03714861,0.04761879,0.6526517,0.0,0.0,0.0,1.0,2203,224c2092-44e1-4b73-879c-d0ad0c4b4c87
84268640,84268384,0.02696557,0.026287124,0.03426752,0.6513854,0.0,0.0,0.0,1.0,2203,224c2092-44e1-4b73-879c-d0ad0c4b4c87
84368574,84368384,0.02625769,0.034046166,0.03381929,0.65172136,0.0,0.0,0.0,1.0,2203,224c2092-44e1-4b73-879c-d0ad0c4b4c87
84470188,84469983,0.019665135,0.037476406,0.040850494,0.65148854,0.0,0.0,0.0,1.0,2203,224c2092-44e1-4b73-879c-d0ad0c4b4c87
84570192,84569984,0.019843772,0.032313168,0.042826552,0.6508774,0.0,0.0,0.0,1.0,2203,224c2092-44e1-4b73-879c-d0ad0c4b4c87
84674170,84673983,0.029826453,0.03464422,0.04742046,0.64950913,0.0,0.0,0.0,1.0,2203,224c2092-44e1-4b73-879c-d0ad0c4b4c87
84774210,84773984,0.017170433,0.039649732,0.04832205,0.64889777,0.0,0.0,0.0,1.0,2203,224c2092-44e1-4b73-879c-d0ad0c4b4c87
84878244,84877984,0.020640418,0.029454092,0.035152756,0.64676744,0.0,0.0,0.0,1.0,2203,224c2092-44e1-4b73-879c-d0ad0c4b4c87
84982225,84981983,0.026292097,0.03526815,0.042536136,0.64898413,0.0,0.0,0.0,1.0,2203,224c2092-44e1-4b73-879c-d0ad0c4b4c87
85082187,85081984,0.025650803,0.034396093,0.042603675,0.6507493,0.0,0.0,0.0,1.0,2203,224c2092-44e1-4b73-879c-d0ad0c4b4c87
85186240,85185984,0.022572331,0.029525612,0.032318316,0.64809227,0.0,0.0,0.0,1.0,2203,224c2092-44e1-4b73-879c-d0ad0c4b4c87
85286166,85285984,0.026618646,0.02392277,0.036162645,0.64746726,0.0,0.0,0.0,1.0,2203,224c2092-44e1-4b73-879c-d0ad0c4b4c87
85386341,85385984,0.029273825,0.018746173,0.038257122,0.64851403,0.0,0.0,0.0,1.0,2203,224c2092-44e1-4b73-879c-d0ad0c4b4c87
85487790,85487584,0.026719516,0.023919055,0.037048098,0.64878917,0.0,0.0,0.0,1.0,2203,224c2092-44e1-4b73-879c-d0ad0c4b4c87
85591816,85591590,0.043943334,0.032758594,0.040807374,0.6509428,0.0,0.0,0.0,1.0,2203,224c2092-44e1-4b73-879c-d0ad0c4b4c87
85695788,85695584,0.034952693,0.012449763,0.022514261,0.6461959,0.0,0.0,0.0,1.0,2203,224c2092-44e1-4b73-879c-d0ad0c4b4c87
85795828,85795584,0.03469053,0.015080186,0.028581422,0.64495856,0.0,0.0,0.0,1.0,2203,224c2092-44e1-4b73-879c-d0ad0c4b4c87
85899869,85899584,0.030879334,0.016613556,0.03838449,0.64612204,0.0,0.0,0.0,1.0,2203,224c2092-44e1-4b73-879c-d0ad0c4b4c87
85999804,85999595,0.03512585,0.02602806,0.037876844,0.6456992,0.0,0.0,0.0,1.0,2203,224c2092-44e1-4b73-879c-d0ad0c4b4c87
86103789,86103585,0.04521916,0.025870835,0.033927925,0.64623255,0.0,0.0,0.0,1.0,2203,224c2092-44e1-4b73-879c-d0ad0c4b4c87
86207754,86207583,0.048156556,0.03342783,0.047088146,0.64742976,0.0,0.0,0.0,1.0,2203,224c2092-44e1-4b73-879c-d0ad0c4b4c87
86311826,86311593,0.03224768,0.019168116,0.024824332,0.6452562,0.0,0.0,0.0,1.0,2203,224c2092-44e1-4b73-879c-d0ad0c4b4c87
86412618,86412383,0.03358651,0.019630315,0.023011517,0.64464664,0.0,0.0,0.0,1.0,2203,224c2092-44e1-4b73-879c-d0ad0c4b4c87
86513393,86513183,0.03694463,0.021352815,0.022176817,0.6451941,0.0,0.0,0.0,1.0,2203,224c2092-44e1-4b73-879c-d0ad0c4b4c87
86617378,86617183,0.037626944,0.03140304,0.04117792,0.64493036,0.0,0.0,0.0,1.0,2203,224c2092-44e1-4b73-879c-d0ad0c4b4c87
86721417,86721183,0.0386858,0.038102396,0.026864316,0.6457894,0.0,0.0,0.0,1.0,2203,224c2092-44e1-4b73-879c-d0ad0c4b4c87
86821437,86821183,0.030650828,0.031334125,0.029012235,0.6456875,0.0,0.0,0.0,1.0,2203,224c2092-44e1-4b73-879c-d0ad0c4b4c87
86925420,86925225,0.049860884,0.032881733,0.038666606,0.6450493,0.0,0.0,0.0,1.0,2203,224c2092-44e1-4b73-879c-d0ad0c4b4c87
87025460,87025218,0.045769718,0.03233343,0.03526613,0.6446909,0.0,0.0,0.0,1.0,2203,224c2092-44e1-4b73-879c-d0ad0c4b4c87
87125397,87125192,0.038404994,0.030880466,0.030130787,0.6450068,0.0,0.0,0.0,1.0,2203,224c2092-44e1-4b73-879c-d0ad0c4b4c87
87229397,87229197,0.04647724,0.027524643,0.03796462,0.6439274,0.0,0.0,0.0,1.0,2203,224c2092-44e1-4b73-879c-d0ad0c4b4c87
87329404,87329208,0.052894592,0.026736576,0.03683217,0.6438677,0.0,0.0,0.0,1.0,2203,224c2092-44e1-4b73-879c-d0ad0c4b4c87
87430997,87430783,0.05596021,0.027302349,0.040673826,0.6434729,0.0,0.0,0.0,1.0,2203,224c2092-44e1-4b73-879c-d0ad0c4b4c87
87535052,87534811,0.035111114,0.023146998,0.028303254,0.64308476,0.0,0.0,0.0,1.0,2203,224c2092-44e1-4b73-879c-d0ad0c4b4c87
87634985,87634783,0.042522088,0.024301788,0.039689064,0.6429341,0.0,0.0,0.0,1.0,2203,224c2092-44e1-4b73-879c-d0ad0c4b4c87
87734992,87734788,0.04945674,0.021670118,0.04431516,0.64272344,0.0,0.0,0.0,1.0,2203,224c2092-44e1-4b73-879c-d0ad0c4b4c87
87839007,87838783,0.036070157,0.03502948,0.02735281,0.6441914,0.0,0.0,0.0,1.0,2203,224c2092-44e1-4b73-879c-d0ad0c4b4c87
87939057,87938791,0.035723865,0.03291333,0.034133617,0.64391905,0.0,0.0,0.0,1.0,2203,224c2092-44e1-4b73-879c-d0ad0c4b4c87
88039066,88038796,0.046730362,0.030056158,0.036914837,0.6430958,0.0,0.0,0.0,1.0,2203,224c2092-44e1-4b73-879c-d0ad0c4b4c87
88143016,88142816,0.031983215,0.033590745,0.031353038,0.6437857,0.0,0.0,0.0,1.0,2203,224c2092-44e1-4b73-879c-d0ad0c4b4c87
88243024,88242783,0.029963166,0.02907646,0.029412063,0.6432494,0.0,0.0,0.0,1.0,2203,224c2092-44e1-4b73-879c-d0ad0c4b4c87
88346988,88346791,0.03925108,0.034867052,0.032047894,0.6423962,0.0,0.0,0.0,1.0,2203,224c2092-44e1-4b73-879c-d0ad0c4b4c87
88448595,88448383,0.043128986,0.030479632,0.030321447,0.6425627,0.0,0.0,0.0,1.0,2203,224c2092-44e1-4b73-879c-d0ad0c4b4c87
88552609,88552383,0.04136849,0.024786988,0.037834775,0.6421663,0.0,0.0,0.0,1.0,2203,224c2092-44e1-4b73-879c-d0ad0c4b4c87
88652613,88652383,0.04540365,0.029661674,0.033064716,0.6421038,0.0,0.0,0.0,1.0,2203,224c2092-44e1-4b73-879c-d0ad0c4b4c87
88756605,88756385,0.03980333,0.027790425,0.034739874,0.64228064,0.0,0.0,0.0,1.0,2203,224c2092-44e1-4b73-879c-d0ad0c4b4c87
88856616,88856384,0.03868965,0.025121909,0.040700182,0.6415505,0.0,0.0,0.0,1.0,2203,224c2092-44e1-4b73-879c-d0ad0c4b4c87
88956622,88956410,0.045812182,0.027849667,0.04174682,0.641284,0.0,0.0,0.0,1.0,2203,224c2092-44e1-4b73-879c-d0ad0c4b4c87
89060585,89060383,0.042544354,0.029223654,0.031268455,0.64254725,0.0,0.0,0.0,1.0,2203,224c2092-44e1-4b73-879c-d0ad0c4b4c87
89160588,89160384,0.04361692,0.025302509,0.039433084,0.64266074,0.0,0.0,0.0,1.0,2203,224c2092-44e1-4b73-879c-d0ad0c4b4c87
89260589,89260385,0.04585953,0.03271236,0.04047232,0.6417672,0.0,0.0,0.0,1.0,2203,224c2092-44e1-4b73-879c-d0ad0c4b4c87
89364692,89364383,0.027326073,0.03375794,0.031034762,0.6433055,0.0,0.0,0.0,1.0,2203,224c2092-44e1-4b73-879c-d0ad0c4b4c87
89466238,89465984,0.030013898,0.0314011,0.03449642,0.6432924,0.0,0.0,0.0,1.0,2203,224c2092-44e1-4b73-879c-d0ad0c4b4c87
89566194,89565984,0.043268047,0.034360204,0.038823612,0.64358354,0.0,0.0,0.0,1.0,2203,224c2092-44e1-4b73-879c-d0ad0c4b4c87
89666262,89665984,0.045233637,0.03891624,0.04201581,0.64327997,0.0,0.0,0.0,1.0,2203,224c2092-44e1-4b73-879c-d0ad0c4b4c87
89770263,89769984,0.0371631,0.02775519,0.03425893,0.6429296,0.0,0.0,0.0,1.0,2203,224c2092-44e1-4b73-879c-d0ad0c4b4c87
89870187,89869984,0.04444366,0.030287102,0.042478066,0.643902,0.0,0.0,0.0,1.0,2203,224c2092-44e1-4b73-879c-d0ad0c4b4c87
89974196,89973984,0.027829714,0.027181882,0.024387699,0.64215845,0.0,0.0,0.0,1.0,2203,224c2092-44e1-4b73-879c-d0ad0c4b4c87
90074242,90074030,0.027172823,0.026384043,0.032281216,0.6419724,0.0,0.0,0.0,1.0,2203,224c2092-44e1-4b73-879c-d0ad0c4b4c87
90174297,90173999,0.03867019,0.027528938,0.039310087,0.6429887,0.0,0.0,0.0,1.0,2203,224c2092-44e1-4b73-879c-d0ad0c4b4c87
90278181,90277984,0.04213551,0.027908849,0.024463382,0.6428155,0.0,0.0,0.0,1.0,2203,224c2092-44e1-4b73-879c-d0ad0c4b4c87
90379253,90378783,0.04074058,0.031005695,0.035095375,0.6426872,0.0,0.0,0.0,1.0,2203,224c2092-44e1-4b73-879c-d0ad0c4b4c87
90479794,90479584,0.045593508,0.030513434,0.04012725,0.6432366,0.0,0.0,0.0,1.0,2203,224c2092-44e1-4b73-879c-d0ad0c4b4c87
90579881,90579584,0.04193045,0.030395245,0.0412884,0.64335376,0.0,0.0,0.0,1.0,2203,224c2092-44e1-4b73-879c-d0ad0c4b4c87
90683781,90683584,0.03676016,0.03356551,0.030710693,0.64346004,0.0,0.0,0.0,1.0,2203,224c2092-44e1-4b73-879c-d0ad0c4b4c87
90783754,90783584,0.037761394,0.033685666,0.037071995,0.6435908,0.0,0.0,0.0,1.0,2203,224c2092-44e1-4b73-879c-d0ad0c4b4c87
90887812,90887583,0.044938337,0.036694795,0.03382508,0.6440075,0.0,0.0,0.0,1.0,2203,224c2092-44e1-4b73-879c-d0ad0c4b4c87
90991817,90991585,0.050202098,0.029553905,0.032303646,0.64292806,0.0,0.0,0.0,1.0,2203,224c2092-44e1-4b73-879c-d0ad0c4b4c87
91091793,91091585,0.052710395,0.028165175,0.031646207,0.6430547,0.0,0.0,0.0,1.0,2203,224c2092-44e1-4b73-879c-d0ad0c4b4c87
91195838,91195584,0.039175864,0.027941532,0.039541103,0.6430499,0.0,0.0,0.0,1.0,2203,224c2092-44e1-4b73-879c-d0ad0c4b4c87
91295800,91295584,0.05031465,0.027952624,0.041806977,0.6430691,0.0,0.0,0.0,1.0,2203,224c2092-44e1-4b73-879c-d0ad0c4b4c87
91397442,91397184,0.05458374,0.03664174,0.041864432,0.64329207,0.0,0.0,0.0,1.0,2203,224c2092-44e1-4b73-879c-d0ad0c4b4c87
91497422,91497183,0.04760369,0.036029417,0.034492567,0.64303744,0.0,0.0,0.0,1.0,2203,224c2092-44e1-4b73-879c-d0ad0c4b4c87
91601470,91601216,0.042368665,0.040423162,0.043365415,0.6437686,0.0,0.0,0.0,1.0,2203,224c2092-44e1-4b73-879c-d0ad0c4b4c87
91705393,91705183,0.031709634,0.02724507,0.026432484,0.6433864,0.0,0.0,0.0,1.0,2203,224c2092-44e1-4b73-879c-d0ad0c4b4c87
91805423,91805193,0.03662862,0.026357662,0.036313668,0.6430225,0.0,0.0,0.0,1.0,2203,224c2092-44e1-4b73-879c-d0ad0c4b4c87
91909419,91909183,0.032954086,0.028580334,0.02324108,0.64157575,0.0,0.0,0.0,1.0,2203,224c2092-44e1-4b73-879c-d0ad0c4b4c87
92009381,92009187,0.02494616,0.025913749,0.025014259,0.6416258,0.0,0.0,0.0,1.0,2203,224c2092-44e1-4b73-879c-d0ad0c4b4c87
92109394,92109186,0.034948137,0.021294292,0.03105241,0.6423719,0.0,0.0,0.0,1.0,2203,224c2092-44e1-4b73-879c-d0ad0c4b4c87
92213458,92213186,0.041867454,0.033562966,0.030165087,0.6430089,0.0,0.0,0.0,1.0,2203,224c2092-44e1-4b73-879c-d0ad0c4b4c87
92313453,92313219,0.042222388,0.028207082,0.028880231,0.6432111,0.0,0.0,0.0,1.0,2203,224c2092-44e1-4b73-879c-d0ad0c4b4c87
92415048,92414784,0.03957481,0.032497708,0.026421182,0.6436611,0.0,0.0,0.0,1.0,2203,224c2092-44e1-4b73-879c-d0ad0c4b4c87
92519027,92518792,0.038255274,0.037562657,0.038926486,0.643916,0.0,0.0,0.0,1.0,2203,224c2092-44e1-4b73-879c-d0ad0c4b4c87
92618978,92618806,0.032940164,0.03760331,0.029869372,0.6437514,0.0,0.0,0.0,1.0,2203,224c2092-44e1-4b73-879c-d0ad0c4b4c87
92719009,92718809,0.028902048,0.03032681,0.030764917,0.6435593,0.0,0.0,0.0,1.0,2203,224c2092-44e1-4b73-879c-d0ad0c4b4c87
92822989,92822783,0.04209801,0.032282844,0.03457929,0.6429915,0.0,0.0,0.0,1.0,2203,224c2092-44e1-4b73-879c-d0ad0c4b4c87
92922991,92922784,0.03342375,0.029002335,0.026995862,0.64306134,0.0,0.0,0.0,1.0,2203,224c2092-44e1-4b73-879c-d0ad0c4b4c87
93023042,93022792,0.033941306,0.027244138,0.030552335,0.6433825,0.0,0.0,0.0,1.0,2203,224c2092-44e1-4b73-879c-d0ad0c4b4c87
93127037,93126784,0.03592471,0.033336375,0.030257422,0.6423252,0.0,0.0,0.0,1.0,2203,224c2092-44e1-4b73-879c-d0ad0c4b4c87
93226982,93226784,0.024534484,0.02805562,0.025633328,0.64186287,0.0,0.0,0.0,1.0,2203,224c2092-44e1-4b73-879c-d0ad0c4b4c87
93331044,93330817,0.045258783,0.04116763,0.03524632,0.64380866,0.0,0.0,0.0,1.0,2203,224c2092-44e1-4b73-879c-d0ad0c4b4c87
93432641,93432384,0.041077536,0.04110086,0.032147158,0.64466894,0.0,0.0,0.0,1.0,2203,224c2092-44e1-4b73-879c-d0ad0c4b4c87
93536613,93536384,0.040828876,0.03301392,0.0454288,0.64434516,0.0,0.0,0.0,1.0,2203,224c2092-44e1-4b73-879c-d0ad0c4b4c87
93640625,93640422,0.033356413,0.023083363,0.027652582,0.64278245,0.0,0.0,0.0,1.0,2203,224c2092-44e1-4b73-879c-d0ad0c4b4c87
93740638,93740396,0.034707393,0.024585746,0.03596756,0.6435796,0.0,0.0,0.0,1.0,2203,224c2092-44e1-4b73-879c-d0ad0c4b4c87
93844666,93844384,0.046108484,0.03884539,0.026721796,0.64460063,0.0,0.0,0.0,1.0,2203,224c2092-44e1-4b73-879c-d0ad0c4b4c87
93944644,93944384,0.038754195,0.036098544,0.026226766,0.6443596,0.0,0.0,0.0,1.0,2203,224c2092-44e1-4b73-879c-d0ad0c4b4c87
94048573,94048384,0.04494296,0.03733146,0.041257292,0.6449747,0.0,0.0,0.0,1.0,2203,224c2092-44e1-4b73-879c-d0ad0c4b4c87
94152607,94152384,0.04116877,0.02663039,0.034584105,0.6437096,0.0,0.0,0.0,1.0,2203,224c2092-44e1-4b73-879c-d0ad0c4b4c87
94256591,94256383,0.034223165,0.03618955,0.03122162,0.64460987,0.0,0.0,0.0,1.0,2203,224c2092-44e1-4b73-879c-d0ad0c4b4c87
94357398,94357187,0.030415837,0.03396872,0.031232981,0.64488333,0.0,0.0,0.0,1.0,2203,224c2092-44e1-4b73-879c-d0ad0c4b4c87
94458167,94457984,0.034438055,0.029535778,0.03439175,0.6451707,0.0,0.0,0.0,1.0,2203,224c2092-44e1-4b73-879c-d0ad0c4b4c87
94562279,94561992,0.043787234,0.03359086,0.034114495,0.6456519,0.0,0.0,0.0,1.0,2203,224c2092-44e1-4b73-879c-d0ad0c4b4c87
94666247,94665984,0.03979966,0.031827748,0.041771248,0.644403,0.0,0.0,0.0,1.0,2203,224c2092-44e1-4b73-879c-d0ad0c4b4c87
94766189,94765984,0.03942325,0.029054701,0.034589708,0.64436436,0.0,0.0,0.0,1.0,2203,224c2092-44e1-4b73-879c-d0ad0c4b4c87
94870220,94869986,0.033513304,0.033954754,0.03986519,0.64523745,0.0,0.0,0.0,1.0,2203,224c2092-44e1-4b73-879c-d0ad0c4b4c87
94970168,94969983,0.036828298,0.04030542,0.042239457,0.6449544,0.0,0.0,0.0,1.0,2203,224c2092-44e1-4b73-879c-d0ad0c4b4c87
95070210,95069983,0.04548734,0.040856168,0.0357132,0.64516455,0.0,0.0,0.0,1.0,2203,224c2092-44e1-4b73-879c-d0ad0c4b4c87
95174266,95174024,0.03943189,0.038321193,0.04284303,0.6457193,0.0,0.0,0.0,1.0,2203,224c2092-44e1-4b73-879c-d0ad0c4b4c87
95274246,95273984,0.040148463,0.039467044,0.044368032,0.64630795,0.0,0.0,0.0,1.0,2203,224c2092-44e1-4b73-879c-d0ad0c4b4c87
95375783,95375584,0.04178501,0.036390428,0.0417242,0.6450693,0.0,0.0,0.0,1.0,2203,224c2092-44e1-4b73-879c-d0ad0c4b4c87
95479789,95479584,0.03267866,0.022525026,0.027553998,0.6436659,0.0,0.0,0.0,1.0,2203,224c2092-44e1-4b73-879c-d0ad0c4b4c87
95583821,95583584,0.05204827,0.042174198,0.034695074,0.645431,0.0,0.0,0.0,1.0,2203,224c2092-44e1-4b73-879c-d0ad0c4b4c87
95687782,95687584,0.04165539,0.029916232,0.043296855,0.6452762,0.0,0.0,0.0,1.0,2203,224c2092-44e1-4b73-879c-d0ad0c4b4c87
95787825,95787584,0.04729867,0.035807204,0.043965302,0.6451661,0.0,0.0,0.0,1.0,2203,224c2092-44e1-4b73-879c-d0ad0c4b4c87
95891764,95891588,0.029306723,0.029695453,0.030132275,0.6431,0.0,0.0,0.0,1.0,2203,224c2092-44e1-4b73-879c-d0ad0c4b4c87
95991795,95991590,0.04402946,0.033972673,0.03908952,0.64353544,0.0,0.0,0.0,1.0,2203,224c2092-44e1-4b73-879c-d0ad0c4b4c87
96095831,96095584,0.0335866,0.03188328,0.02938892,0.64342403,0.0,0.0,0.0,1.0,2203,224c2092-44e1-4b73-879c-d0ad0c4b4c87
96199784,96199586,0.03442757,0.041913558,0.038430035,0.6448872,0.0,0.0,0.0,1.0,2203,224c2092-44e1-4b73-879c-d0ad0c4b4c87
96303823,96303584,0.041326057,0.02980311,0.039226145,0.64425087,0.0,0.0,0.0,1.0,2203,224c2092-44e1-4b73-879c-d0ad0c4b4c87
96405486,96405184,0.04140453,0.03258958,0.041806456,0.6443206,0.0,0.0,0.0,1.0,2203,224c2092-44e1-4b73-879c-d0ad0c4b4c87
96505467,96505190,0.040439148,0.036408506,0.038153473,0.6440706,0.0,0.0,0.0,1.0,2203,224c2092-44e1-4b73-879c-d0ad0c4b4c87
96609386,96609184,0.036595847,0.03270839,0.03994151,0.6447491,0.0,0.0,0.0,1.0,2203,224c2092-44e1-4b73-879c-d0ad0c4b4c87
96709420,96709222,0.045619857,0.03867001,0.04224365,0.64530534,0.0,0.0,0.0,1.0,2203,224c2092-44e1-4b73-879c-d0ad0c4b4c87
96813362,96813183,0.030966252,0.033288628,0.041498728,0.64611757,0.0,0.0,0.0,1.0,2203,224c2092-44e1-4b73-879c-d0ad0c4b4c87
96917469,96917183,0.043903146,0.02952552,0.028749805,0.64488703,0.0,0.0,0.0,1.0,2203,224c2092-44e1-4b73-879c-d0ad0c4b4c87
97021422,97021186,0.04692978,0.038150854,0.044711262,0.6458489,0.0,0.0,0.0,1.0,2203,224c2092-44e1-4b73-879c-d0ad0c4b4c87
97121406,97121202,0.054172397,0.039798073,0.036575213,0.6461201,0.0,0.0,0.0,1.0,2203,224c2092-44e1-4b73-879c-d0ad0c4b4c87
97225407,97225183,0.034432307,0.032103583,0.044462353,0.6464162,0.0,0.0,0.0,1.0,2203,224c2092-44e1-4b73-879c-d0ad0c4b4c87
97327050,97326784,0.04206398,0.02853146,0.044276286,0.645891,0.0,0.0,0.0,1.0,2203,224c2092-44e1-4b73-879c-d0ad0c4b4c87
97427022,97426784,0.052988928,0.028266218,0.046414535,0.645978,0.0,0.0,0.0,1.0,2203,224c2092-44e1-4b73-879c-d0ad0c4b4c87
97527118,97526783,0.05373824,0.03170831,0.040183824,0.64648324,0.0,0.0,0.0,1.0,2203,224c2092-44e1-4b73-879c-d0ad0c4b4c87
97631036,97630802,0.0421159,0.03170267,0.04024112,0.64672184,0.0,0.0,0.0,1.0,2203,224c2092-44e1-4b73-879c-d0ad0c4b4c87
97731019,97730784,0.052243702,0.032282993,0.04477205,0.6464605,0.0,0.0,0.0,1.0,2203,224c2092-44e1-4b73-879c-d0ad0c4b4c87
97835004,97834784,0.028070904,0.030582068,0.038196575,0.64702916,0.0,0.0,0.0,1.0,2203,224c2092-44e1-4b73-879c-d0ad0c4b4c87
97935017,97934784,0.03075863,0.03304277,0.0421027,0.6474434,0.0,0.0,0.0,1.0,2203,224c2092-44e1-4b73-879c-d0ad0c4b4c87
98034996,98034793,0.041123345,0.0398006,0.048362985,0.6473663,0.0,0.0,0.0,1.0,2203,224c2092-44e1-4b73-879c-d0ad0c4b4c87
98138978,98138784,0.030481514,0.030306265,0.030375792,0.6461639,0.0,0.0,0.0,1.0,2203,224c2092-44e1-4b73-879c-d0ad0c4b4c87
98238954,98238784,0.03646005,0.029266857,0.03629992,0.6464546,0.0,0.0,0.0,1.0,2203,224c2092-44e1-4b73-879c-d0ad0c4b4c87
98340593,98340384,0.032878608,0.030365499,0.03773003,0.64656126,0.0,0.0,0.0,1.0,2203,224c2092-44e1-4b73-879c-d0ad0c4b4c87
98444677,98444384,0.03168061,0.035734195,0.031146817,0.64749473,0.0,0.0,0.0,1.0,2203,224c2092-44e1-4b73-879c-d0ad0c4b4c87
98544677,98544384,0.029794168,0.035960145,0.031102128,0.6471866,0.0,0.0,0.0,1.0,2203,224c2092-44e1-4b73-879c-d0ad0c4b4c87
98644559,98644383,0.032159735,0.03720718,0.035269845,0.64732426,0.0,0.0,0.0,1.0,2203,224c2092-44e1-4b73-879c-d0ad0c4b4c87
98748927,98748411,0.04096397,0.03736616,0.033285554,0.6466576,0.0,0.0,0.0,1.0,2203,224c2092-44e1-4b73-879c-d0ad0c4b4c87
98852619,98852384,0.04119265,0.025355434,0.0443173,0.64558893,0.0,0.0,0.0,1.0,2203,224c2092-44e1-4b73-879c-d0ad0c4b4c87
98952588,98952385,0.042691916,0.027755963,0.0406906,0.6459822,0.0,0.0,0.0,1.0,2203,224c2092-44e1-4b73-879c-d0ad0c4b4c87
99056616,99056384,0.037087537,0.03847235,0.038748212,0.62975246,0.0,0.0,0.0,1.0,2203,224c2092-44e1-4b73-879c-d0ad0c4b4c87
99160565,99160384,0.028514829,0.027803805,0.029812442,0.612084,0.0,0.0,0.0,1.0,2203,224c2092-44e1-4b73-879c-d0ad0c4b4c87
99260566,99260384,0.04948168,0.045591984,0.03737767,0.6048292,0.0,0.0,0.0,1.0,2203,224c2092-44e1-4b73-879c-d0ad0c4b4c87
99362185,99361983,0.042852726,0.039866816,0.04229728,0.5996444,0.0,0.0,0.0,1.0,2203,224c2092-44e1-4b73-879c-d0ad0c4b4c87
99466233,99465983,0.05311869,0.043329056,0.031579476,0.5970375,0.0,0.0,0.0,1.0,2203,224c2092-44e1-4b73-879c-d0ad0c4b4c87
99570167,99569983,0.02778941,0.023618734,0.03268821,0.5950116,0.0,0.0,0.0,1.0,2203,224c2092-44e1-4b73-879c-d0ad0c4b4c87
99670203,99669982,0.027776022,0.018434523,0.035537522,0.59537387,0.0,0.0,0.0,1.0,2203,224c2092-44e1-4b73-879c-d0ad0c4b4c87
99774191,99773984,0.043057535,0.04064699,0.03541382,0.5957896,0.0,0.0,0.0,1.0,2203,224c2092-44e1-4b73-879c-d0ad0c4b4c87
99874225,99873983,0.05361195,0.038227975,0.040329065,0.59546775,0.0,0.0,0.0,1.0,2203,224c2092-44e1-4b73-879c-d0ad0c4b4c87
99974246,99974033,0.043225292,0.03702157,0.044745,0.59531677,0.0,0.0,0.0,1.0,2203,224c2092-44e1-4b73-879c-d0ad0c4b4c87
100078164,100077984,0.04093035,0.032923076,0.028761292,0.595719,0.0,0.0,0.0,1.0,2203,224c2092-44e1-4b73-879c-d0ad0c4b4c87
100178190,100177984,0.04242002,0.036825147,0.023236651,0.59642667,0.0,0.0,0.0,1.0,2203,224c2092-44e1-4b73-879c-d0ad0c4b4c87
100279791,100279584,0.04895491,0.03892025,0.020587947,0.59654576,0.0,0.0,0.0,1.0,2203,224c2092-44e1-4b73-879c-d0ad0c4b4c87
100379790,100379584,0.055672925,0.02805598,0.22668545,0.65185666,0.0,0.0,0.0,1.0,2203,224c2092-44e1-4b73-879c-d0ad0c4b4c87
100483815,100483584,0.060527116,0.05418399,0.13648032,0.614576,0.0,0.0,0.0,1.0,2203,224c2092-44e1-4b73-879c-d0ad0c4b4c87
100583821,100583584,0.054797187,0.04644928,0.08607256,0.5922852,0.0,0.0,0.0,1.0,2203,224c2092-44e1-4b73-879c-d0ad0c4b4c87
100687786,100687584,0.035351116,0.018649206,0.054207467,0.5855104,0.0,0.0,0.0,1.0,2203,224c2092-44e1-4b73-879c-d0ad0c4b4c87
100791826,100791599,0.044780757,-0.009678166,0.051548794,0.58520937,0.0,0.0,0.0,1.0,2203,224c2092-44e1-4b73-879c-d0ad0c4b4c87
100891822,100891584,0.049695775,0.009185745,0.028945595,0.5932113,0.0,0.0,0.0,1.0,2203,224c2092-44e1-4b73-879c-d0ad0c4b4c87
100995855,100995608,0.045531426,0.012885721,0.01780648,0.60658854,0.0,0.0,0.0,1.0,2203,224c2092-44e1-4b73-879c-d0ad0c4b4c87
101095848,101095590,0.049355336,0.028770754,0.008010585,0.620221,0.0,0.0,0.0,1.0,2203,224c2092-44e1-4b73-879c-d0ad0c4b4c87
101195834,101195584,0.058563866,0.010751332,0.0019964464,0.6295388,0.0,0.0,0.0,1.0,2203,224c2092-44e1-4b73-879c-d0ad0c4b4c87
101297423,101297183,0.04596459,0.0032245168,0.0016755126,0.6345118,0.0,0.0,0.0,1.0,2203,224c2092-44e1-4b73-879c-d0ad0c4b4c87
101401364,101401183,0.056644168,0.009618815,-0.0059096925,0.6401544,0.0,0.0,0.0,1.0,2203,224c2092-44e1-4b73-879c-d0ad0c4b4c87
101505421,101505183,0.070275605,0.0026851639,0.01026026,0.6456407,0.0,0.0,0.0,1.0,2203,224c2092-44e1-4b73-879c-d0ad0c4b4c87
101605391,101605184,0.039215334,-0.011663301,0.014060186,0.6503532,0.0,0.0,0.0,1.0,2203,224c2092-44e1-4b73-879c-d0ad0c4b4c87
101705436,101705183,0.06077515,-0.021009173,0.013177613,0.6577141,0.0,0.0,0.0,1.0,2203,224c2092-44e1-4b73-879c-d0ad0c4b4c87
101809462,101809183,0.048391785,-0.020535262,0.027319964,0.6626097,0.0,0.0,0.0,1.0,2203,224c2092-44e1-4b73-879c-d0ad0c4b4c87
101909452,101909189,0.039975163,-0.045645107,0.027766934,0.6711049,0.0,0.0,0.0,1.0,2203,224c2092-44e1-4b73-879c-d0ad0c4b4c87
102013382,102013185,0.044524807,-0.046265762,0.036051113,0.674691,0.0,0.0,0.0,1.0,2203,224c2092-44e1-4b73-879c-d0ad0c4b4c87
102113395,102113195,0.03495351,-0.03724927,0.036082633,0.6804906,0.0,0.0,0.0,1.0,2203,224c2092-44e1-4b73-879c-d0ad0c4b4c87
102217399,102217185,0.03528345,-0.05966173,0.038146056,0.6834815,0.0,0.0,0.0,1.0,2203,224c2092-44e1-4b73-879c-d0ad0c4b4c87
102318953,102318784,0.040725775,-0.06994295,0.044590473,0.6915987,0.0,0.0,0.0,1.0,2203,224c2092-44e1-4b73-879c-d0ad0c4b4c87
102418981,102418784,0.019914271,-0.047601726,0.041836858,0.6897134,0.0,0.0,0.0,1.0,2203,224c2092-44e1-4b73-879c-d0ad0c4b4c87
102523063,102522783,0.022808097,-0.06235054,0.048556864,0.6858317,0.0,0.0,0.0,1.0,2203,224c2092-44e1-4b73-879c-d0ad0c4b4c87
102626986,102626785,0.021217074,-0.07115095,0.037206408,0.6878232,0.0,0.0,0.0,1.0,2203,224c2092-44e1-4b73-879c-d0ad0c4b4c87
102731037,102730784,0.025645152,-0.060688302,0.041479815,0.6921985,0.0,0.0,0.0,1.0,2203,224c2092-44e1-4b73-879c-d0ad0c4b4c87
102834971,102834790,0.021007711,-0.057346836,0.036586937,0.6947514,0.0,0.0,0.0,1.0,2203,224c2092-44e1-4b73-879c-d0ad0c4b4c87
102935047,102934799,0.035614945,-0.0647048,0.037962966,0.69765687,0.0,0.0,0.0,1.0,2203,224c2092-44e1-4b73-879c-d0ad0c4b4c87
103039089,103038797,0.028654814,-0.0694567,0.043776646,0.6966046,0.0,0.0,0.0,1.0,2203,224c2092-44e1-4b73-879c-d0ad0c4b4c87
103138997,103138784,0.019423509,-0.078477435,0.03603181,0.6953184,0.0,0.0,0.0,1.0,2203,224c2092-44e1-4b73-879c-d0ad0c4b4c87
103240599,103240384,0.018900154,-0.052019466,0.03991218,0.6755369,0.0,0.0,0.0,1.0,2203,224c2092-44e1-4b73-879c-d0ad0c4b4c87
103340592,103340384,0.022293003,-0.060133383,0.036951113,0.6608443,0.0,0.0,0.0,1.0,2203,224c2092-44e1-4b73-879c-d0ad0c4b4c87
103444681,103444390,0.01965586,-0.064090006,0.04328548,0.64507836,0.0,0.0,0.0,1.0,2203,224c2092-44e1-4b73-879c-d0ad0c4b4c87
103544682,103544384,0.021127842,-0.089305535,0.022573536,0.6341801,0.0,0.0,0.0,1.0,2203,224c2092-44e1-4b73-879c-d0ad0c4b4c87
103648599,103648384,0.014975542,-0.07760796,0.028412182,0.62307334,0.0,0.0,0.0,1.0,2203,224c2092-44e1-4b73-879c-d0ad0c4b4c87
103752654,103752384,0.02667201,-0.10176099,0.012939449,0.6087186,0.0,0.0,0.0,1.0,2203,224c2092-44e1-4b73-879c-d0ad0c4b4c87
103852686,103852384,0.025647447,-0.10022026,0.02087031,0.59455484,0.0,0.0,0.0,1.0,2203,224c2092-44e1-4b73-879c-d0ad0c4b4c87
103956711,103956407,-0.0016354341,-0.10638082,0.03531797,0.582245,0.0,0.0,0.0,1.0,2203,224c2092-44e1-4b73-879c-d0ad0c4b4c87
104056619,104056384,0.019097831,-0.11386555,0.025532492,0.5726682,0.0,0.0,0.0,1.0,2203,224c2092-44e1-4b73-879c-d0ad0c4b4c87
104160604,104160406,0.06492834,-0.11575823,0.019963708,0.5691596,0.0,0.0,0.0,1.0,2203,224c2092-44e1-4b73-879c-d0ad0c4b4c87
104262226,104261983,-0.022134159,-0.0946994,0.013189791,0.56248486,0.0,0.0,0.0,1.0,2203,224c2092-44e1-4b73-879c-d0ad0c4b4c87
104362190,104361990,-0.0054674298,-0.108117156,0.042370796,0.56090844,0.0,0.0,0.0,1.0,2203,224c2092-44e1-4b73-879c-d0ad0c4b4c87
104466233,104465990,0.04294925,-0.117093004,0.017436227,0.5586371,0.0,0.0,0.0,1.0,2203,224c2092-44e1-4b73-879c-d0ad0c4b4c87
104570184,104569983,0.009842259,-0.10444326,0.022415046,0.5565332,0.0,0.0,0.0,1.0,2203,224c2092-44e1-4b73-879c-d0ad0c4b4c87
104674357,104673984,0.023449378,-0.10164152,0.010967577,0.5554143,0.0,0.0,0.0,1.0,2203,224c2092-44e1-4b73-879c-d0ad0c4b4c87
104778210,104778005,0.007876893,-0.091475554,0.0032310877,0.5559695,0.0,0.0,0.0,1.0,2203,224c2092-44e1-4b73-879c-d0ad0c4b4c87
104878229,104877984,-0.042098932,-0.12798905,0.029301018,0.5554723,0.0,0.0,0.0,1.0,2203,224c2092-44e1-4b73-879c-d0ad0c4b4c87
104982204,104981984,0.013971037,-0.109952845,0.038822763,0.5578241,0.0,0.0,0.0,1.0,2203,224c2092-44e1-4b73-879c-d0ad0c4b4c87
105082214,105081984,0.055483706,-0.113518625,0.002204407,0.5612946,0.0,0.0,0.0,1.0,2203,224c2092-44e1-4b73-879c-d0ad0c4b4c87
105183785,105183584,-0.00015733903,-0.1150077,0.01572025,0.5588421,0.0,0.0,0.0,1.0,2203,224c2092-44e1-4b73-879c-d0ad0c4b4c87
105287811,105287584,-0.003257712,-0.096533,0.03665144,0.55874765,0.0,0.0,0.0,1.0,2203,224c2092-44e1-4b73-879c-d0ad0c4b4c87
105391798,105391597,0.021874633,-0.11207183,0.009448301,0.5594301,0.0,0.0,0.0,1.0,2203,224c2092-44e1-4b73-879c-d0ad0c4b4c87
105495844,105495583,0.022879044,-0.10845959,0.03410234,0.56070095,0.0,0.0,0.0,1.0,2203,224c2092-44e1-4b73-879c-d0ad0c4b4c87
105599790,105599611,-0.0031711487,-0.12522113,0.012723606,0.5606324,0.0,0.0,0.0,1.0,2203,224c2092-44e1-4b73-879c-d0ad0c4b4c87
105699908,105699629,-0.0066363816,-0.12692273,0.0331911,0.5593751,0.0,0.0,0.0,1.0,2203,224c2092-44e1-4b73-879c-d0ad0c4b4c87
105803942,105803641,0.029406177,-0.13614856,0.03397113,0.5583515,0.0,0.0,0.0,1.0,2203,224c2092-44e1-4b73-879c-d0ad0c4b4c87
105903784,105903589,0.047247186,-0.10592729,0.0121934675,0.5578636,0.0,0.0,0.0,1.0,2203,224c2092-44e1-4b73-879c-d0ad0c4b4c87
106011773,106011584,0.014670854,-0.08078377,0.02529951,0.5555731,0.0,0.0,0.0,1.0,2203,224c2092-44e1-4b73-879c-d0ad0c4b4c87
106115808,106115584,-0.014992336,-0.09791754,0.027569076,0.55754524,0.0,0.0,0.0,1.0,2203,224c2092-44e1-4b73-879c-d0ad0c4b4c87
106217504,106217217,0.01009678,-0.11034749,0.029395904,0.5590637,0.0,0.0,0.0,1.0,2203,224c2092-44e1-4b73-879c-d0ad0c4b4c87
106321418,106321183,0.007344096,-0.13740316,0.02555595,0.5598061,0.0,0.0,0.0,1.0,2203,224c2092-44e1-4b73-879c-d0ad0c4b4c87
106421357,106421183,0.04837872,-0.10151818,0.0065683033,0.5609416,0.0,0.0,0.0,1.0,2203,224c2092-44e1-4b73-879c-d0ad0c4b4c87
106525393,106525183,0.040815063,-0.12549272,0.020186014,0.5620767,0.0,0.0,0.0,1.0,2203,224c2092-44e1-4b73-879c-d0ad0c4b4c87
106625392,106625187,0.022499494,-0.11336475,0.045235895,0.56248057,0.0,0.0,0.0,1.0,2203,224c2092-44e1-4b73-879c-d0ad0c4b4c87
106725391,106725183,0.030261794,-0.123248056,0.039234955,0.5613989,0.0,0.0,0.0,1.0,2203,224c2092-44e1-4b73-879c-d0ad0c4b4c87
106825454,106825192,0.037388235,-0.093920715,0.02380847,0.55896026,0.0,0.0,0.0,1.0,2203,224c2092-44e1-4b73-879c-d0ad0c4b4c87
106929457,106929224,0.023696799,-0.10769397,0.00043859892,0.5604026,0.0,0.0,0.0,1.0,2203,224c2092-44e1-4b73-879c-d0ad0c4b4c87
107033388,107033212,0.052558146,-0.13325211,0.03444695,0.5603553,0.0,0.0,0.0,1.0,2203,224c2092-44e1-4b73-879c-d0ad0c4b4c87
107141445,107141193,0.045700364,-0.10792134,0.031502325,0.55902714,0.0,0.0,0.0,1.0,2203,224c2092-44e1-4b73-879c-d0ad0c4b4c87
107243024,107242821,0.015926275,-0.11772985,0.03456801,0.5578097,0.0,0.0,0.0,1.0,2203,224c2092-44e1-4b73-879c-d0ad0c4b4c87
107346993,107346784,-0.020415887,-0.09263492,0.028573483,0.55415595,0.0,0.0,0.0,1.0,2203,224c2092-44e1-4b73-879c-d0ad0c4b4c87
107451127,107450792,0.055717602,-0.12706076,0.021656426,0.5577172,0.0,0.0,0.0,1.0,2203,224c2092-44e1-4b73-879c-d0ad0c4b4c87
107555079,107554799,-0.004595761,-0.11143972,0.012342429,0.5568992,0.0,0.0,0.0,1.0,2203,224c2092-44e1-4b73-879c-d0ad0c4b4c87
107659016,107658784,0.022940043,-0.08673056,0.016196005,0.56123483,0.0,0.0,0.0,1.0,2203,224c2092-44e1-4b73-879c-d0ad0c4b4c87
107759019,107758812,0.019877918,-0.13295913,0.036673557,0.55676466,0.0,0.0,0.0,1.0,2203,224c2092-44e1-4b73-879c-d0ad0c4b4c87
107862990,107862793,0.0025538811,-0.103122324,0.011034712,0.55737925,0.0,0.0,0.0,1.0,2203,224c2092-44e1-4b73-879c-d0ad0c4b4c87
107962957,107962783,0.024427954,-0.11738865,0.020970492,0.5589858,0.0,0.0,0.0,1.0,2203,224c2092-44e1-4b73-879c-d0ad0c4b4c87
108067008,108066783,-0.012611316,-0.13817622,0.03888488,0.5610435,0.0,0.0,0.0,1.0,2203,224c2092-44e1-4b73-879c-d0ad0c4b4c87
108167825,108167584,-0.014539303,-0.094357975,0.034664635,0.56057525,0.0,0.0,0.0,1.0,2203,224c2092-44e1-4b73-879c-d0ad0c4b4c87
108271812,108271589,0.03185476,-0.12720723,0.018751305,0.56518126,0.0,0.0,0.0,1.0,2203,224c2092-44e1-4b73-879c-d0ad0c4b4c87
108371760,108371585,0.0063874596,-0.12166593,0.025290174,0.5647467,0.0,0.0,0.0,1.0,2203,224c2092-44e1-4b73-879c-d0ad0c4b4c87
108471864,108471583,0.06287992,-0.11844856,0.0003414508,0.56283784,0.0,0.0,0.0,1.0,2203,224c2092-44e1-4b73-879c-d0ad0c4b4c87
108575785,108575584,0.033155207,-0.11942582,0.043106984,0.5598383,0.0,0.0,0.0,1.0,2203,224c2092-44e1-4b73-879c-d0ad0c4b4c87
108675795,108675584,0.033493694,-0.1035559,0.020678066,0.55990803,0.0,0.0,0.0,1.0,2203,224c2092-44e1-4b73-879c-d0ad0c4b4c87
108779844,108779583,0.033924192,-0.120754585,0.022047639,0.556874,0.0,0.0,0.0,1.0,2203,224c2092-44e1-4b73-879c-d0ad0c4b4c87
108883787,108883584,-0.025158864,-0.14345123,0.037359186,0.55809486,0.0,0.0,0.0,1.0,2203,224c2092-44e1-4b73-879c-d0ad0c4b4c87
108983800,108983623,-0.0013576155,-0.09243448,0.011213034,0.55899304,0.0,0.0,0.0,1.0,2203,224c2092-44e1-4b73-879c-d0ad0c4b4c87
109087793,109087584,0.030242365,-0.13831533,0.03911751,0.55738854,0.0,0.0,0.0,1.0,2203,224c2092-44e1-4b73-879c-d0ad0c4b4c87
109187820,109187584,0.02492104,-0.08667593,0.0064290185,0.56019855,0.0,0.0,0.0,1.0,2203,224c2092-44e1-4b73-879c-d0ad0c4b4c87
109287786,109287583,0.033794735,-0.1138875,0.023252819,0.55899185,0.0,0.0,0.0,1.0,2203,224c2092-44e1-4b73-879c-d0ad0c4b4c87
109391838,109391590,0.012699819,-0.1125524,0.013330812,0.5606782,0.0,0.0,0.0,1.0,2203,224c2092-44e1-4b73-879c-d0ad0c4b4c87
109493488,109493192,0.0071097906,-0.08865825,0.011331954,0.5607956,0.0,0.0,0.0,1.0,2203,224c2092-44e1-4b73-879c-d0ad0c4b4c87
109593384,109593183,-0.019296525,-0.13295834,0.021938017,0.5592322,0.0,0.0,0.0,1.0,2203,224c2092-44e1-4b73-879c-d0ad0c4b4c87
109693384,109693183,0.028556433,-0.09726052,-0.007536119,0.5585532,0.0,0.0,0.0,1.0,2203,224c2092-44e1-4b73-879c-d0ad0c4b4c87
109797429,109797187,0.024203543,-0.13235912,0.0451472,0.55775666,0.0,0.0,0.0,1.0,2203,224c2092-44e1-4b73-879c-d0ad0c4b4c87
109897392,109897183,0.01269725,-0.082229346,0.016696665,0.55954105,0.0,0.0,0.0,1.0,2203,224c2092-44e1-4b73-879c-d0ad0c4b4c87
110001387,110001188,0.04512748,-0.119944505,0.027238648,0.5593221,0.0,0.0,0.0,1.0,2203,224c2092-44e1-4b73-879c-d0ad0c4b4c87
110105467,110105186,-0.0387486,-0.12195011,0.02673406,0.5577313,0.0,0.0,0.0,1.0,2203,224c2092-44e1-4b73-879c-d0ad0c4b4c87
110205550,110205224,-0.0018277662,-0.10634176,0.0061373953,0.55903757,0.0,0.0,0.0,1.0,2203,224c2092-44e1-4b73-879c-d0ad0c4b4c87
110309443,110309227,0.03060736,-0.11078479,0.037689954,0.5561799,0.0,0.0,0.0,1.0,2203,224c2092-44e1-4b73-879c-d0ad0c4b4c87
110410218,110410011,-0.0012868876,-0.09324278,0.027868986,0.5584575,0.0,0.0,0.0,1.0,2203,224c2092-44e1-4b73-879c-d0ad0c4b4c87
110515025,110514784,0.017742475,-0.107934,0.0061723534,0.5595898,0.0,0.0,0.0,1.0,2203,224c2092-44e1-4b73-879c-d0ad0c4b4c87
110614996,110614784,0.02332874,-0.123951145,0.03476587,0.56095177,0.0,0.0,0.0,1.0,2203,224c2092-44e1-4b73-879c-d0ad0c4b4c87
110715012,110714810,0.04239917,-0.12587361,0.026707321,0.56118405,0.0,0.0,0.0,1.0,2203,224c2092-44e1-4b73-879c-d0ad0c4b4c87
